     3.03           OBSERVATION DATA    M: Mixed            RINEX VERSION / TYPE
RTKCONV demo5 b34c                      20211215 160039 UTC PGM / RUN BY / DATE 
format: u-blox UBX                                          COMMENT             
log: C:\Users\Admin\Desktop\data test 1\Test\Test 4\B004.UBXCOMMENT             
                                                            MARKER NAME         
                                                            MARKER NUMBER       
                                                            MARKER TYPE         
                                                            OBSERVER / AGENCY   
                                                            REC # / TYPE / VERS 
                                                            ANT # / TYPE        
  2646109.3275   979315.7836  5700978.2815                  APPROX POSITION XYZ 
        0.0000        0.0000        0.0000                  ANTENNA: DELTA H/E/N
G    8 C1C L1C D1C S1C C2X L2X D2X S2X                      SYS / # / OBS TYPES 
R    8 C1C L1C D1C S1C C2C L2C D2C S2C                      SYS / # / OBS TYPES 
J    8 C1C L1C D1C S1C C2X L2X D2X S2X                      SYS / # / OBS TYPES 
S    4 C1C L1C D1C S1C                                      SYS / # / OBS TYPES 
C    8 C2I L2I D2I S2I C7I L7I D7I S7I                      SYS / # / OBS TYPES 
  2021    12    15    13    50   31.9870000     GPS         TIME OF FIRST OBS   
  2021    12    15    14    04   18.9880000     GPS         TIME OF LAST OBS    
G L1C                                                       SYS / PHASE SHIFT   
G L2X  0.00000                                              SYS / PHASE SHIFT   
R L1C                                                       SYS / PHASE SHIFT   
R L2C                                                       SYS / PHASE SHIFT   
J L1C                                                       SYS / PHASE SHIFT   
J L2X  0.00000                                              SYS / PHASE SHIFT   
S L1C                                                       SYS / PHASE SHIFT   
C L2I                                                       SYS / PHASE SHIFT   
C L7I                                                       SYS / PHASE SHIFT   
  9 R05  1 R06 -4 R07  5 R08  6 R09 -2 R15  0 R17  4 R23  3 GLONASS SLOT / FRQ #
    R24  2                                                  GLONASS SLOT / FRQ #
 C1C    0.000 C1P    0.000 C2C    0.000 C2P    0.000        GLONASS COD/PHS/BIS 
                                                            END OF HEADER       
> 2021 12 15 13 50 31.9870000  0 32                     
G08  21623464.947 1 113632075.01114     -4071.509          36.000                                                                  
G10  20037281.055 4 105296622.07034      1143.811          34.000                                                                  
G13  17467396.412 1  91791787.21311     -3126.985          50.000                                                                  
G14  17239042.465 1  90591778.66211     -1917.546          49.000    17239040.169 1  70590987.05713     -1494.051          37.000  
G15  17120124.919 1  89966862.37511     -1808.205          48.000    17120122.080 4  70104036.76814     -1409.228          34.000  
C25  22194209.401 1 115571071.87512     -3927.150          41.000                                                                  
C19  20215185.981 9               7      1075.105          41.000                                                                  
C10  33828759.447 1 176155226.37311     -1059.097          44.000    33828751.271 2 136214362.61915      -819.102          32.000  
C07  34518258.873 1 179745631.79011     -1496.809          44.000    34518247.228 2 138990676.51815     -1156.901          32.000  
C11  20788349.985 1 108250392.70812       978.956          41.000    20788342.058 2  83706038.96214       756.827          32.000  
C20  19647940.799 1 102311982.84511     -1987.326          49.000                                                                  
R06  16582459.948 1  88487182.53512     -3236.031          41.000                                                                  
R09  18856051.392 1 100690261.09811      3289.411          47.000    18856056.956 8  78314671.54933      2558.518          36.000  
R15  16808331.503 1  89818627.00911     -3675.726          51.000    16808333.185 1  69858938.70312     -2859.235          41.000  
R24  17933283.671 1  95897326.06511     -1276.251          49.000    17933280.228 1  74586795.55012      -992.386          39.000  
G17  19155038.655 1 100660407.33511      1945.427          43.000    19155035.650 4  78436668.67917      1515.567          28.000  
G21  20711541.630 1 108839885.54112       251.717          38.000                                                                  
G23  18948363.707 1  99574322.90513     -1121.564          36.000    18948358.637 4  77590361.01417      -873.570          31.000  
G24  18477050.620 1  97097555.42111      2501.289          46.000    18477048.933 8  75660426.30615      1949.409          34.000  
G30  20022318.704 1 105217993.94112     -4118.805          42.000    20022317.211 4  81988041.29318     -3209.583          28.000  
C23  18665345.303 1  97195350.14311     -2086.461          51.000                                                                  
C12  21343469.484 1 111141046.00512     -1955.690          40.000    21343462.072 2  85941277.38514     -1512.628          34.000  
C32  22061157.880 1 114878237.38613     -4172.457          35.000                                                                  
C34  20754907.673 1 108076250.07811      -481.739          47.000                                                                  
C37  18845158.922 1  98131687.18511      1072.423          51.000                                                                  
R23  19567248.795 1 104671586.37512     -4130.579          39.000                                                                  
R17  18321042.640 1  98039599.43511      2487.898          46.000    18321042.550 2  76253020.85112      1934.759          38.000  
R07  16733401.315 1  89575205.93611      1118.557          52.000    16733400.489 1  69669601.70612       870.164          42.000  
R08  20103724.912 2 107654532.64813      3603.425          34.000    20103702.489 8               9      2801.229          27.000  
S23  36022416.590 1 189299075.71232      -683.251          39.000  
J03  39131579.582 1 205637838.08313      -627.386          36.000    39131573.098 2 160237249.42817      -488.198          29.000  
G28  17050908.074 1  89603126.56911      -582.092          49.000                                                                  
> 2021 12 15 13 50 32.9870000  0 32                     
G08  21624239.821 1 113636147.222 5     -4074.660          34.000                                                                  
G10  20037062.645 4 105295478.66324      1142.261          38.000    20037065.736 9               9       889.090          25.000  
G13  17467992.057 1  91794915.353 1     -3128.771          50.000                                                                  
G14  17239407.977 1  90593697.418 1     -1919.465          49.000    17239405.290 1  70592482.218 2     -1495.672          37.000  
G15  17120469.560 1  89968671.944 1     -1810.245          49.000    17120466.198 4  70105446.783 4     -1410.199          35.000  
C25  22194963.750 1 115574999.880 2     -3928.480          41.000                                                                  
C19  20214979.969 9 105264704.58933      1073.295          42.000                                                                  
C10  33828963.061 1 176156286.399 1     -1060.386          44.000    33828954.897 2 136215182.245 4      -819.614          32.000  
C07  34518546.402 1 179747129.472 2     -1498.430          44.000    34518535.062 2 138991834.660 5     -1158.269          32.000  
C11  20788162.324 1 108249414.740 2       977.455          42.000    20788154.410 2  83705282.739 5       756.273          32.000  
C20  19648322.603 1 102313971.202 1     -1989.032          50.000                                                                  
R06  16583066.476 1  88490419.722 1     -3237.947          42.000                                                                  
R09  18855435.584 1 100686972.343 1      3288.332          48.000    18855439.907 4  78312113.63623      2557.037          36.000  
R15  16809019.561 1  89822303.924 1     -3677.551          51.000    16809021.186 1  69861798.502 2     -2860.223          41.000  
R24  17933522.733 1  95898603.688 1     -1278.322          48.000    17933519.397 1  74587789.247 2      -994.469          39.000  
G17  19154668.900 1 100658462.780 2      1943.891          43.000    19154665.784 4  78435153.380 7      1515.031          28.000  
G21  20711493.994 1 108839635.003 3       249.695          38.000                                                                  
G23  18948577.412 1  99575444.935 3     -1122.873          36.000    18948572.141 4  77591235.385 6      -876.063          31.000  
G24  18476574.848 1  97095054.974 1      2499.926          46.000    18476570.962 8  75658477.903 4      1948.200          34.000  
G30  20023102.956 1 105222113.953 2     -4120.429          42.000    20023101.316 4  81991251.676 8     -3210.931          28.000  
C23  18665746.356 1  97197437.653 1     -2088.055          51.000                                                                  
C12  21343845.385 1 111143002.990 2     -1957.706          40.000    21343838.034 1  85942790.569 4     -1513.132          34.000  
C32  22061959.235 1 114882410.780 4     -4173.963          34.000                                                                  
C34  20755000.455 1 108076732.646 1      -483.360          46.000                                                                  
C37  18844953.123 1  98130615.641 1      1070.925          50.000                                                                  
R23  19568021.079 2 104675718.101 2     -4132.005          38.000                                                                  
R17  18320577.991 1  98037112.734 1      2485.961          45.000    18320577.869 2  76251086.718 3      1933.486          38.000  
R07  16733192.597 1  89574088.418 1      1116.594          52.000    16733191.765 1  69668732.552 1       868.283          43.000  
R08  20103051.797 2 107650929.811 4      3602.201          36.000    20103030.563 8  83728411.77037      2801.823          27.000  
S23  36022546.789 1 189299759.73922      -684.468          40.000  
J03  39131699.079 1 205638465.662 3      -627.850          36.000    39131692.576 2 160237738.478 6      -489.591          29.000  
G28  17051019.052 1  89603709.704 1      -583.899          49.000                                                                  
> 2021 12 15 13 50 33.9870000  0 32                     
G08  21625015.285 2 113640220.800 5     -4074.249          34.000                                                                  
G10  20036847.010 4 105294337.30223      1140.338          41.000    20036846.606 8  82047536.93016       888.507          32.000  
G13  17468587.849 1  91798045.162 1     -3131.049          50.000                                                                  
G14  17239773.830 1  90595617.927 1     -1921.698          49.000    17239770.801 1  70593978.731 3     -1497.568          37.000  
G15  17120814.432 1  89970483.307 1     -1812.680          49.000    17120810.990 2  70106858.288 4     -1412.964          35.000  
C25  22195718.430 1 115578929.137 2     -3930.176          41.000                                                                  
C19  20214774.327 8 105263632.56522      1070.935          44.000                                                                  
C10  33829166.857 1 176157347.667 1     -1062.127          44.000    33829158.712 2 136216002.901 5      -820.566          32.000  
C07  34518834.310 1 179748628.384 1     -1500.205          43.000    34518822.979 2 138992993.673 5     -1159.906          32.000  
C11  20787975.020 1 108248438.432 1       975.042          41.000    20787966.867 2  83704527.864 6       754.020          32.000  
C20  19648704.616 1 102315961.220 1     -1991.170          50.000                                                                  
R06  16583673.271 1  88493658.869 2     -3240.451          42.000                                                                  
R09  18854819.868 1 100683684.971 1      3286.117          47.000    18854824.562 4  78309556.78623      2555.962          36.000  
R15  16809708.049 1  89825982.446 1     -3679.663          50.000    16809709.495 1  69864659.568 2     -2861.621          41.000  
R24  17933762.107 1  95899883.373 1     -1281.074          48.000    17933758.909 1  74588784.535 2      -996.781          40.000  
G17  19154299.408 1 100656519.810 1      1941.814          44.000    19154296.053 2  78433639.367 6      1512.882          28.000  
G21  20711446.717 1 108839386.126 3       247.780          40.000                                                                  
G23  18948791.482 1  99576568.921 4     -1125.029          36.000    18948786.096 2  77592111.118 6      -876.623          30.000  
G24  18476099.243 1  97092555.998 1      2498.087          46.000    18476095.103 4  75656530.670 4      1946.052          34.000  
G30  20023887.424 1 105226235.251 2     -4122.034          42.000    20023885.574 2  81994463.084 7     -3212.097          28.000  
C23  18666147.448 1  97199526.697 1     -2090.170          50.000                                                                  
C12  21344221.534 1 111144961.565 2     -1960.105          42.000    21344214.240 2  85944305.129 5     -1514.801          33.000  
C32  22062760.933 1 114886585.509 4     -4175.101          34.000                                                                  
C34  20755093.482 1 108077216.931 1      -485.445          47.000                                                                  
C37  18844747.445 1  98129545.666 1      1068.837          50.000                                                                  
R23  19568793.639 2 104679851.459 2     -4134.773          41.000                                                                  
R17  18320113.649 1  98034627.798 1      2483.733          46.000    18320113.515 2  76249154.026 3      1931.281          38.000  
R07  16732984.289 1  89572972.850 1      1114.163          51.000    16732983.368 1  69667864.868 2       866.649          43.000  
R08  20102378.651 2 107647328.414 3      3600.241          38.000    20102359.227 8  83725610.70827      2801.063          29.000  
S23  36022677.285 1 189300444.87922      -686.000          40.000  
J03  39131818.928 1 205639094.503 3      -629.761          35.000    39131812.309 2 160238228.441 7      -490.972          30.000  
G28  17051130.368 1  89604294.557 1      -586.047          48.000                                                                  
> 2021 12 15 13 50 34.9870000  0 32                     
G08  21625791.666 4 113644301.86737     -4075.707          30.000                                                                  
G10  20036629.603 4 105293197.49723      1139.020          40.000    20036627.909 8  82046648.881 6       888.086          31.000  
G13  17469183.966 1  91801176.639 1     -3132.334          50.000                                                                  
G14  17240139.910 1  90597540.177 1     -1923.026          49.000    17240136.672 1  70595476.584 3     -1498.355          37.000  
G15  17121159.602 1  89972296.510 1     -1814.000          49.000    17121156.082 2  70108271.160 4     -1413.780          34.000  
C25  22196473.262 1 115582859.583 2     -3931.122          41.000                                                                  
C19  20214568.910 2 105262562.12322      1069.874          44.000                                                                  
C10  33829370.978 1 176158410.188 2     -1063.104          44.000    33829362.733 2 136216824.476 5      -821.619          33.000  
C07  34519122.376 1 179750128.491 1     -1500.642          43.000    34519110.820 2 138994153.642 5     -1159.927          32.000  
C11  20787787.995 1 108247463.843 2       973.716          43.000    20787779.792 2  83703774.226 5       752.897          33.000  
C20  19649086.964 1 102317952.943 1     -1992.469          50.000                                                                  
R06  16584280.626 1  88496899.915 2     -3241.729          42.000                                                                  
R09  18854204.422 1 100680399.002 1      3285.453          47.000    18854209.026 2  78307001.029 3      2555.359          37.000  
R15  16810396.710 1  89829662.555 1     -3680.792          52.000    16810398.189 1  69867521.865 2     -2862.561          41.000  
R24  17934001.843 1  95901165.193 2     -1283.032          38.000    17933998.686 2  74589781.470 5      -996.501          32.000  
G17  19153930.160 1 100654578.390 2      1940.478          43.000    19153926.676 2  78432126.551 6      1512.750          29.000  
G21  20711399.790 1 108839138.900 2       246.387          40.000                                                                  
G23  18949005.864 1  99577694.721 3     -1126.257          38.000    18949000.344 2  77592988.361 7      -877.461          31.000  
G24  18475624.063 1  97090058.474 1      2497.029          47.000    18475620.469 4  75654584.536 4      1945.823          34.000  
G30  20024672.091 1 105230357.892 2     -4123.303          42.000    20024670.034 2  81997675.543 8     -3212.671          27.000  
C23  18666548.933 1  97201617.278 1     -2091.320          51.000                                                                  
C12  21344598.102 1 111146921.951 3     -1960.998          35.000    21344590.754 2  85945821.015 7     -1516.836          31.000  
C32  22063562.749 1 114890761.454 4     -4176.839          34.000                                                                  
C34  20755186.759 1 108077702.999 1      -486.990          46.000                                                                  
C37  18844542.300 1  98128477.181 1      1067.894          50.000                                                                  
R23  19569566.457 2 104683986.520 2     -4136.036          41.000                                                                  
R17  18319649.689 1  98032144.677 1      2482.251          46.000    18319649.375 2  76247222.658 2      1930.906          38.000  
R07  16732776.178 1  89571859.306 1      1112.669          52.000    16732775.381 1  69666998.772 1       865.404          42.000  
R08  20101705.735 2 107643728.416 2      3599.765          40.000    20101688.928 8  83722810.617 7      2799.419          29.000  
S23  36022808.003 1 189301131.14522      -686.821          40.000  
J03  39131938.910 1 205639724.471 3      -630.667          37.000    39131932.288 2 160238719.402 8      -491.581          29.000  
G28  17051241.997 1  89604881.131 1      -587.292          49.000                                                                  
> 2021 12 15 13 50 35.9870000  0 32                     
G08  21626571.875 4 113648378.03125     -4077.490          33.000                                                                  
G10  20036412.333 2 105292059.28222      1137.067          42.000    20036412.264 8  82045761.940 6       886.060          30.000  
G13  17469780.244 1  91804309.508 1     -3133.977          50.000                                                                  
G14  17240506.145 1  90599463.894 1     -1924.785          49.000    17240502.712 1  70596975.576 3     -1499.958          37.000  
G15  17121505.088 1  89974111.279 1     -1815.857          49.000    17121501.396 2  70109685.263 4     -1415.421          34.000  
C25  22197228.227 1 115586790.991 2     -3932.082          42.000                                                                  
C19  20214363.658 1 105261493.07721      1067.797          44.000                                                                  
C10  33829575.315 1 176159473.668 1     -1064.298          44.000    33829567.029 2 136217646.882 5      -823.220          34.000  
C07  34519410.729 1 179751629.581 2     -1502.066          43.000    34519399.316 2 138995314.390 6     -1160.954          32.000  
C11  20787601.197 1 108246490.605 1       972.262          43.000    20787592.874 2  83703021.650 5       751.710          32.000  
C20  19649469.734 1 102319946.081 1     -1994.168          50.000                                                                  
R06  16584888.234 1  88500142.638 2     -3243.776          42.000                                                                  
R09  18853589.244 1 100677114.154 1      3284.093          47.000    18853593.809 2  78304446.144 3      2554.525          36.000  
R15  16811085.725 1  89833344.026 1     -3682.501          51.000    16811087.063 1  69870385.235 2     -2864.227          41.000  
R24  17934242.023 2  95902448.874 3     -1284.853          39.000    17934238.922 2  74590779.928 6      -999.630          32.000  
G17  19153561.147 1 100652638.283 1      1939.418          43.000    19153557.467 2  78430614.808 6      1511.490          28.000  
G21  20711353.086 1 108838893.120 2       244.641          40.000                                                                  
G23  18949220.580 1  99578822.086 3     -1128.262          36.000    18949215.009 2  77593866.837 7      -878.613          31.000  
G24  18475149.106 1  97087562.180 1      2495.426          47.000    18475145.390 4  75652639.387 4      1943.921          34.000  
G30  20025456.976 1 105234481.608 2     -4124.530          42.000    20025454.753 2  82000888.810 7     -3213.849          28.000  
C23  18666950.622 1  97203709.147 1     -2092.879          51.000                                                                  
C12  21344974.818 1 111148883.718 3     -1962.346          35.000    21344967.436 2  85947338.034 7     -1518.560          29.000  
C32  22064364.740 1 114894938.416 5     -4177.850          34.000                                                                  
C34  20755280.525 1 108078190.510 1      -488.523          46.000                                                                  
C37  18844337.552 1  98127409.967 1      1066.151          50.000                                                                  
R23  19570339.655 1 104688123.102 2     -4137.749          42.000                                                                  
R17  18319186.029 1  98029663.131 1      2480.422          46.000    18319185.704 2  76245292.579 3      1929.468          37.000  
R07  16732568.485 1  89570747.490 1      1110.684          51.000    16732567.675 1  69666134.031 2       863.779          42.000  
R08  20101033.267 2 107640129.530 2      3597.856          38.000    20101018.345 8  83720011.470 7      2799.229          29.000  
S23  36022938.886 1 189301818.29822      -688.010          39.000  
J03  39132059.062 1 205640355.363 3      -631.744          36.000    39132052.409 2 160239210.929 7      -491.344          28.000  
G28  17051353.845 1  89605469.178 1      -589.124          49.000                                                                  
> 2021 12 15 13 50 36.9870000  0 32                     
G08  21627347.740 4 113652455.239 5     -4077.147          32.000                                                                  
G10  20036196.088 2 105290921.87812      1136.450          41.000    20036196.581 8  82044876.060 7       885.693          30.000  
G13  17470376.814 1  91807443.675 1     -3134.734          50.000                                                                  
G14  17240872.678 1  90601389.006 1     -1925.649          49.000    17240868.996 1  70598475.648 3     -1500.507          37.000  
G15  17121850.926 1  89975927.505 1     -1816.654          49.000    17121847.070 2  70111100.519 4     -1415.951          34.000  
C25  22197983.478 1 115590723.322 2     -3932.641          41.000                                                                  
C19  20214158.343 1 105260425.29521      1067.259          44.000                                                                  
C10  33829779.675 1 176160537.991 1     -1064.437          44.000    33829771.427 1 136218469.894 4      -823.234          33.000  
C07  34519699.142 1 179753131.510 1     -1502.248          43.000    34519687.615 2 138996475.825 5     -1161.832          32.000  
C11  20787414.545 1 108245518.624 2       971.687          42.000    20787406.325 2  83702270.022 6       751.989          32.000  
C20  19649852.794 1 102321940.569 1     -1994.928          50.000                                                                  
R06  16585496.081 1  88503386.918 2     -3244.725          42.000                                                                  
R09  18852974.237 1 100673830.306 1      3283.404          47.000    18852978.832 2  78301892.066 3      2553.521          37.000  
R15  16811775.004 1  89837026.749 1     -3683.221          50.000    16811776.119 1  69873249.584 2     -2864.777          41.000  
R24  17934482.400 2  95903734.150 2     -1285.810          39.000    17934479.394 2  74591779.656 5     -1001.014          32.000  
G17  19153192.404 1 100650699.416 1      1938.489          43.000    19153188.621 2  78429104.035 7      1510.177          28.000  
G21  20711306.705 1 108838648.688 2       243.952          40.000                                                                  
G23  18949435.526 1  99579950.951 3     -1129.619          36.000    18949429.634 2  77594746.473 6      -879.565          31.000  
G24  18474674.351 1  97085066.981 1      2494.761          45.000    18474670.540 2  75650695.084 4      1943.623          34.000  
G30  20026242.042 1 105238606.300 2     -4125.006          42.000    20026239.449 2  82004102.879 6     -3214.111          28.000  
C23  18667352.553 1  97205802.196 1     -2093.549          51.000                                                                  
C12  21345351.734 1 111150846.777 4     -1963.484          33.000    21345344.700 2  85948855.933 8     -1518.805          28.000  
C32  22065166.919 1 114899116.255 4     -4177.450          34.000                                                                  
C34  20755374.339 1 108078679.391 1      -489.248          46.000                                                                  
C37  18844132.811 1  98126343.920 1      1065.609          50.000                                                                  
R23  19571113.018 1 104692261.049 2     -4138.484          41.000                                                                  
R17  18318722.622 1  98027183.014 1      2479.479          45.000    18318722.096 2  76243363.600 3      1928.468          37.000  
R07  16732360.974 1  89569637.282 1      1109.514          50.000    16732360.331 1  69665270.533 1       863.005          43.000  
R08  20100360.954 2 107636531.687 3      3597.523          38.000    20100345.378 8  83717213.214 8      2797.356          29.000  
S23  36023069.927 1 189302506.25722      -688.041          39.000  
J03  39132179.401 1 205640987.056 3      -631.789          37.000    39132172.666 2 160239703.235 7      -492.615          28.000  
G28  17051466.020 1  89606058.569 1      -589.954          49.000                                                                  
> 2021 12 15 13 50 37.9870000  0 32                     
G08  21628124.163 4 113656533.728 6     -4078.641          30.000                                                                  
G10  20035980.088 2 105289786.712 2      1134.589          38.000    20035979.516 8  82043991.489 6       884.296          31.000  
G13  17470973.766 1  91810579.425 1     -3136.800          49.000                                                                  
G14  17241239.468 1  90603315.770 1     -1927.647          49.000    17241235.676 1  70599977.064 3     -1502.497          37.000  
G15  17122196.995 1  89977745.495 1     -1819.069          49.000    17122192.988 2  70112517.066 4     -1417.142          34.000  
C25  22198738.792 1 115594656.716 2     -3934.076          41.000                                                                  
C19  20213953.434 1 105259359.06521      1065.219          44.000                                                                  
C10  33829984.296 1 176161603.502 1     -1066.122          45.000    33829975.985 2 136219293.750 6      -823.883          32.000  
C07  34519987.737 1 179754634.601 2     -1503.702          43.000    34519976.298 2 138997638.122 5     -1163.420          32.000  
C11  20787228.264 1 108244548.245 2       969.634          42.000    20787219.963 2  83701519.655 5       750.589          32.000  
C20  19650236.057 1 102323936.661 1     -1997.074          50.000                                                                  
R06  16586104.256 1  88506633.044 2     -3247.266          42.000                                                                  
R09  18852359.523 1 100670547.747 1      3281.717          47.000    18852364.002 2  78299338.980 3      2552.143          36.000  
R15  16812464.396 1  89840710.997 1     -3685.071          51.000    16812465.488 1  69876115.122 2     -2866.107          40.000  
R24  17934723.172 1  95905021.511 1     -1288.588          47.000    17934720.044 2  74592780.860 4     -1002.183          36.000  
G17  19152823.881 1 100648762.000 2      1936.498          43.000    19152820.064 2  78427594.298 6      1509.271          28.000  
G21  20711260.588 1 108838405.854 2       241.802          40.000                                                                  
G23  18949650.742 1  99581081.616 3     -1131.907          36.000    18949644.821 4  77595627.482 7      -882.344          31.000  
G24  18474199.824 1  97082573.184 1      2493.103          45.000    18474196.190 2  75648751.824 4      1942.718          34.000  
G30  20027027.301 1 105242732.237 2     -4126.568          42.000    20027024.415 2  82007317.891 6     -3215.741          27.000  
C23  18667754.624 1  97207896.700 1     -2095.297          51.000                                                                  
C12  21345728.986 1 111152811.469 4     -1965.784          37.000    21345721.913 2  85950375.148 7     -1520.133          29.000  
C32  22065969.283 1 114903295.343 4     -4179.015          33.000                                                                  
C34  20755468.455 1 108079169.923 1      -491.442          46.000                                                                  
C37  18843928.177 1  98125279.313 1      1063.822          50.000                                                                  
R23  19571886.729 1 104696400.606 2     -4140.673          41.000                                                                  
R17  18318259.580 1  98024704.601 1      2477.314          46.000    18318258.940 2  76241435.954 2      1926.594          38.000  
R07  16732154.032 1  89568529.001 1      1107.259          50.000    16732153.304 1  69664408.563 1       860.993          43.000  
R08  20099688.893 2 107632935.217 2      3595.832          41.000    20099673.154 8  83714415.914 6      2795.630          31.000  
S23  36023201.191 1 189303195.27322      -689.886          40.000  
J03  39132299.874 1 205641619.849 3      -633.369          36.000    39132293.326 2 160240196.346 7      -493.929          28.000  
G28  17051578.524 1  89606649.619 1      -592.096          49.000                                                                  
> 2021 12 15 13 50 38.9870000  0 32                     
G08  21628897.637 4 113660613.400 5     -4080.111          30.000                                                                  
G10  20035764.449 1 105288652.869 3      1133.356          37.000    20035763.265 4  82043107.961 6       883.203          31.000  
G13  17471570.871 1  91813716.477 1     -3137.750          50.000                                                                  
G14  17241606.608 1  90605243.903 1     -1928.783          49.000    17241602.531 1  70601479.496 3     -1503.014          37.000  
G15  17122543.223 1  89979564.952 1     -1820.169          49.000    17122539.136 2  70113934.853 4     -1418.377          34.000  
C25  22199494.289 1 115598591.004 2     -3934.639          41.000                                                                  
C19  20213748.786 1 105258294.11121      1064.241          43.000                                                                  
C10  33830189.053 1 176162669.884 1     -1066.818          45.000    33830180.879 2 136220118.398 5      -825.428          31.000  
C07  34520276.508 1 179756138.563 2     -1504.501          43.000    34520265.294 2 138998801.054 5     -1163.783          33.000  
C11  20787042.140 1 108243579.173 1       968.465          42.000    20787033.912 2  83700770.357 5       748.795          33.000  
C20  19650619.764 1 102325934.075 1     -1998.043          50.000                                                                  
R06  16586712.772 1  88509880.712 2     -3248.377          42.000                                                                  
R09  18851744.933 1 100667266.202 1      3281.165          47.000    18851749.358 2  78296786.645 3      2551.968          37.000  
R15  16813154.177 1  89844396.522 1     -3686.194          51.000    16813155.219 1  69878981.640 2     -2866.772          41.000  
R24  17934964.271 1  95906310.641 1     -1289.984          47.000    17934961.246 2  74593783.508 3     -1003.424          36.000  
G17  19152455.622 1 100646825.788 2      1935.521          43.000    19152451.503 2  78426085.586 6      1508.595          29.000  
G21  20711214.775 1 108838164.362 2       240.743          40.000                                                                  
G24  18473725.425 1  97080080.485 1      2492.116          45.000    18473721.998 2  75646809.482 4      1942.112          34.000  
G30  20027812.714 1 105246859.147 3     -4127.502          42.000    20027809.719 2               9     -3216.083          27.000  
C23  18668157.092 1  97209992.401 1     -2096.228          51.000                                                                  
C12  21346106.468 1 111154777.489 3     -1967.129          38.000    21346099.670 2  85951895.405 7     -1521.418          30.000  
C32  22066771.985 1 114907475.304 4     -4180.382          33.000                                                                  
C34  20755562.954 1 108079661.851 1      -492.527          46.000                                                                  
C37  18843723.965 1  98124215.861 1      1062.916          50.000                                                                  
R23  19572660.612 2 104700541.578 2     -4141.584          41.000                                                                  
R17  18317796.818 1  98022227.562 1      2476.479          46.000    18317796.003 2  76239509.352 3      1926.229          38.000  
R07  16731947.253 1  89567422.340 1      1105.918          51.000    16731946.750 1  69663547.822 2       860.049          43.000  
R08  20099016.799 2 107629339.800 2      3594.813          40.000    20099005.366 8  83711619.486 5      2795.786          32.000  
S23  36023332.456 1 189303885.03422      -690.092          40.000  
J03  39132420.455 1 205642253.487 3      -633.840          37.000    39132413.956 2 160240690.052 7      -493.975          27.000  
G28  17051691.248 1  89607242.016 1      -593.073          49.000                                                                  
G23                                                                  18949860.155 2  77596509.635 8      -882.465          30.000  
> 2021 12 15 13 50 39.9870000  0 32                     
G08  21629673.211 4 113664693.985 7     -4081.426          29.000                                                                  
G10  20035549.005 1 105287520.193 3      1131.403          37.000    20035547.468 4  82042225.429 6       882.166          31.000  
G13  17472168.201 1  91816854.693 1     -3138.960          49.000                                                                  
G14  17241973.844 1  90607173.275 1     -1930.117          48.000    17241969.635 1  70602982.871 3     -1503.834          37.000  
G15  17122889.793 1  89981385.737 1     -1821.626          48.000    17122885.754 2  70115353.652 4     -1419.531          34.000  
C25  22200250.026 1 115602526.066 2     -3935.386          40.000                                                                  
C19  20213544.519 1 105257230.335 1      1063.075          43.000                                                                  
C10  33830393.973 1 176163736.996 1     -1067.501          45.000    33830385.771 2 136220943.548 5      -825.482          32.000  
C07  34520565.378 1 179757643.261 2     -1505.297          44.000    34520554.295 2 138999964.591 5     -1164.643          32.000  
C11  20786856.244 1 108242611.285 1       967.092          42.000    20786848.184 2  83700021.954 5       747.706          32.000  
C20  19651003.604 1 102327932.702 1     -1999.461          50.000                                                                  
R06  16587321.626 1  88513129.841 2     -3249.973          41.000                                                                  
R09  18851130.648 1 100663985.530 1      3279.958          47.000    18851134.782 2  78294235.007 3      2551.315          37.000  
R15  16813844.080 1  89848083.155 1     -3687.372          50.000    16813845.005 1  69881849.004 2     -2867.694          42.000  
R24  17935205.768 1  95907601.327 1     -1291.867          42.000    17935202.695 2  74594787.416 4     -1004.059          33.000  
G17  19152087.524 1 100644890.644 1      1934.371          43.000    19152083.389 2  78424577.672 6      1507.596          29.000  
G21  20711169.175 1 108837924.073 2       239.435          39.000                                                                  
G23  18950082.020 1  99583353.14535     -1134.736          35.000    18950075.955 2  77597392.888 7      -884.453          31.000  
G24  18473251.268 1  97077588.763 1      2491.077          45.000    18473248.085 2  75644867.881 4      1941.209          34.000  
G30  20028598.189 1 105250986.873 2     -4128.156          41.000    20028595.185 2  82013750.052 8     -3216.925          28.000  
C23  18668559.832 1  97212089.148 1     -2097.467          51.000                                                                  
C12  21346484.149 1 111156744.724 3     -1968.351          35.000    21346477.409 2  85953416.591 6     -1521.737          30.000  
C32  22067574.889 1 114911655.998 4     -4181.050          34.000                                                                  
C34  20755657.629 1 108080155.020 1      -493.687          46.000                                                                  
C37  18843520.069 1  98123153.451 1      1061.861          50.000                                                                  
R23  19573434.887 1 104704683.735 2     -4143.016          40.000                                                                  
R17  18317334.147 1  98019751.851 1      2474.925          46.000    18317333.292 2  76237583.821 2      1924.978          39.000  
R07  16731740.729 1  89566317.168 1      1104.244          50.000    16731740.190 1  69662688.230 1       858.890          43.000  
R08  20098345.059 2 107625745.240 2      3593.920          41.000    20098334.589 8  83708823.728 5      2795.363          28.000  
S23  36023463.918 1 189304575.471 2      -690.968          39.000  
J03  39132541.213 1 205642887.861 3      -634.906          37.000    39132534.770 2 160241184.288 8      -494.369          27.000  
G28  17051804.198 1  89607835.639 1      -594.446          48.000                                                                  
> 2021 12 15 13 50 40.9870000  0 32                     
G08  21630451.265 4 113668775.496 7     -4082.651          30.000                                                                  
G10  20035333.775 1 105286389.019 3      1130.701          39.000    20035332.393 4  82041343.939 7       880.914          31.000  
G13  17472765.667 1  91819994.219 1     -3140.062          49.000                                                                  
G14  17242341.318 1  90609104.051 1     -1931.578          48.000    17242337.027 1  70604487.364 3     -1504.822          37.000  
G15  17123236.599 1  89983208.008 1     -1822.871          48.000    17123232.475 2  70116773.594 4     -1420.389          34.000  
C25  22201005.799 1 115606461.975 2     -3936.260          40.000                                                                  
C19  20213340.524 1 105256167.843 1      1061.952          44.000                                                                  
C10  33830599.092 1 176164805.048 1     -1068.643          44.000    33830590.809 2 136221769.426 6      -826.110          32.000  
C07  34520854.555 1 179759148.817 1     -1505.995          43.000    34520843.565 2 139001128.797 5     -1164.137          32.000  
C11  20786670.503 1 108241644.679 1       966.158          41.000    20786662.483 2  83699274.451 5       747.503          32.000  
C20  19651387.624 1 102329932.634 1     -2000.589          50.000                                                                  
R06  16587930.875 1  88516380.560 2     -3251.429          41.000                                                                  
R09  18850516.481 1 100660705.901 1      3279.103          47.000    18850520.478 2  78291684.201 3      2550.663          36.000  
R15  16814534.202 1  89851771.015 1     -3688.348          51.000    16814535.114 1  69884717.345 2     -2868.670          41.000  
R24  17935447.497 1  95908893.839 1     -1293.588          49.000    17935444.479 2  74595792.648 4     -1005.958          38.000  
G17  19151719.709 1 100642956.722 1      1933.100          43.000    19151715.360 2  78423070.763 6      1506.297          29.000  
G21  20711123.775 1 108837685.103 2       238.361          39.000                                                                  
G23  18950298.036 1  99584488.07724     -1135.436          36.000    18950291.868 2  77598277.196 6      -883.851          31.000  
G24  18472777.317 1  97075098.172 1      2490.259          46.000    18472774.296 2  75642927.176 4      1940.520          34.000  
G30  20029383.899 1 105255115.590 2     -4129.163          41.000    20029380.963 2  82016967.204 6     -3217.261          28.000  
C23  18668962.759 1  97214187.093 1     -2098.492          51.000                                                                  
C12  21346862.306 1 111158713.329 3     -1969.132          38.000    21346855.623 2  85954938.899 6     -1523.063          30.000  
C32  22068377.905 1 114915837.661 4     -4182.093          33.000                                                                  
C34  20755752.533 1 108080649.582 1      -495.041          47.000                                                                  
C37  18843316.301 1  98122092.219 1      1060.694          50.000                                                                  
R23  19574209.282 1 104708827.290 2     -4144.259          40.000                                                                  
R17  18316871.922 1  98017277.616 1      2473.769          46.000    18316870.949 2  76235659.399 2      1923.933          39.000  
R07  16731534.616 1  89565213.664 1      1102.906          50.000    16731534.074 1  69661829.966 1       857.726          43.000  
R08  20097673.493 2 107622151.749 2      3593.646          40.000    20097663.741 4  83706028.803 6      2794.447          30.000  
S23  36023595.601 1 189305266.687 2      -691.609          39.000  
J03  39132662.117 1 205643523.010 3      -635.848          37.000    39132655.616 2 160241679.268 7      -495.375          28.000  
G28  17051917.555 1  89608430.636 1      -595.551          48.000                                                                  
> 2021 12 15 13 50 42.9870000  0 33                     
G08  21632005.290 4 113676941.504 7     -4083.983          29.000                                                                  
G10  20034904.031 1 105284130.516 3      1127.783          37.000    20034902.449 2  82039583.983 7       878.650          31.000  
G13  17473961.310 1  91826276.968 1     -3142.559          49.000                                                                  
G14  17243077.071 1  90612969.517 1     -1934.084          48.000    17243072.714 1  70607499.421 3     -1506.942          37.000  
G15  17123930.957 1  89986856.729 1     -1825.717          48.000    17123927.006 2  70119616.750 4     -1422.326          34.000  
C25  22202517.639 1 115614336.215 2     -3937.768          40.000                                                                  
C19  20212932.761 1 105254046.462 2      1059.669          44.000                                                                  
C10  33831009.749 1 176166943.474 1     -1069.934          44.000    33831001.584 2 136223423.010 5      -827.211          33.000  
C07  34521433.345 1 179762162.314 2     -1507.725          43.000    34521422.231 2 139003459.022 6     -1165.907          32.000  
C11  20786300.116 1 108239715.149 2       963.620          42.000    20786292.049 2  83697782.417 5       745.233          33.000  
C20  19652156.550 1 102333936.355 1     -2003.139          50.000                                                                  
R06  16589149.923 1  88522886.458 2     -3254.438          42.000                                                                  
R09  18849288.848 1 100654149.480 1      3277.251          47.000    18849292.400 2  78286584.768 3      2548.929          37.000  
R15  16815915.095 1  89859150.176 1     -3690.692          50.000    16815915.900 1  69890456.700 2     -2870.788          42.000  
R05  20591910.674 9               9     -5180.165          10.000                                                                  
R24  17935931.835 1  95911483.781 1     -1296.765          44.000    17935929.069 2  74597807.068 3     -1008.410          35.000  
G17  19150984.570 1 100639092.279 1      1931.232          42.000    19150979.645 2  78420059.451 6      1505.229          29.000  
G21  20711033.576 1 108837210.941 2       235.407          40.000                                                                  
G23  18950730.701 1  99586762.210 4     -1138.989          36.000    18950724.784 2  77600049.298 6      -886.208          31.000  
G24  18471830.019 1  97070120.126 1      2487.930          45.000    18471827.099 2  75639048.156 4      1939.200          35.000  
G30  20030956.005 1 105263375.738 3     -4131.079          43.000    20030952.698 2  82023403.722 7     -3218.836          28.000  
C23  18669769.136 1  97218386.309 1     -2100.797          51.000                                                                  
C12  21347619.031 1 111162654.352 3     -1971.995          38.000    21347612.215 2  85957986.227 6     -1524.301          30.000  
C32  22069984.433 1 114924203.479 3     -4183.768          35.000                                                                  
C34  20755943.315 1 108081642.607 1      -497.871          46.000                                                                  
C37  18842909.390 1  98119973.026 1      1058.530          50.000                                                                  
R23  19575758.959 1 104717118.317 2     -4146.948          40.000                                                                  
R17  18315947.943 1  98012333.246 1      2470.836          46.000    18315947.156 2  76231813.787 2      1921.833          38.000  
R07  16731123.063 1  89563011.323 1      1099.656          52.000    16731122.681 1  69660117.037 2       855.248          41.000  
R08  20096331.018 2 107614967.723 2      3591.091          39.000    20096322.498 4  83700441.330 7      2791.914          32.000  
S23  36023859.179 1 189306651.193 2      -692.764          39.000  
J03  39132904.351 1 205644795.546 3      -636.800          37.000    39132897.840 2 160242670.834 6      -496.054          27.000  
G28  17052144.763 1  89609624.501 1      -598.157          48.000                                                                  
> 2021 12 15 13 50 43.9870000  0 32                     
G08  21632781.515 2 113681026.003 7     -4084.592          29.000                                                                  
G10  20034689.637 1 105283002.930 2      1127.045          40.000    20034687.896 2  82038705.453 6       878.082          31.000  
G13  17474559.430 1  91829420.044 1     -3143.710          49.000                                                                  
G14  17243445.158 1  90614904.065 1     -1935.226          48.000    17243440.948 1  70609006.846 3     -1507.655          37.000  
G15  17124278.546 1  89988683.071 1     -1826.926          48.000    17124274.593 2  70121039.897 4     -1424.056          34.000  
C25  22203273.914 1 115618274.385 2     -3938.928          41.000                                                                  
C19  20212729.320 1 105252987.373 2      1058.496          41.000                                                                  
C10  33831215.322 1 176168013.797 1     -1070.842          44.000    33831207.107 2 136224250.619 4      -827.780          33.000  
C07  34521722.869 1 179763670.128 2     -1508.255          43.000    34521711.838 2 139004624.902 5     -1165.970          32.000  
C11  20786115.026 1 108238752.091 2       962.670          42.000    20786107.206 2  83697037.763 5       744.042          33.000  
C20  19652541.250 1 102335939.986 1     -2004.367          49.000                                                                  
R06  16589759.906 1  88526141.479 2     -3255.888          42.000                                                                  
R09  18848675.154 1 100650872.554 1      3276.250          47.000    18848678.583 2  78284036.030 2      2548.876          37.000  
R15  16816605.793 1  89862841.404 1     -3691.900          51.000    16816606.664 1  69893327.640 2     -2871.460          41.000  
R24  17936174.545 1  95912781.070 1     -1298.079          46.000    17936171.857 2  74598816.112 4     -1010.189          35.000  
G17  19150617.342 1 100637161.635 1      1929.965          43.000    19150612.408 2  78418555.135 6      1503.776          29.000  
G21  20710988.863 1 108836975.625 2       234.756          40.000                                                                  
G23  18950947.492 1  99587901.298 4     -1138.778          34.000    18950941.696 2  77600936.901 6      -887.598          31.000  
G24  18471356.702 1  97067632.510 1      2487.088          45.000    18471353.697 2  75637109.791 3      1937.680          35.000  
G30  20031742.220 1 105267507.017 3     -4131.860          42.000    20031738.660 2  82026622.912 6     -3219.690          28.000  
C23  18670172.564 1  97220487.473 1     -2101.774          51.000                                                                  
C12  21347997.752 1 111164626.611 3     -1973.235          35.000    21347990.915 2  85959511.358 5     -1525.729          31.000  
C32  22070787.975 1 114928387.485 3     -4185.549          35.000                                                                  
C34  20756038.921 1 108082140.968 1      -498.963          47.000                                                                  
C37  18842706.262 1  98118914.938 1      1057.470          50.000                                                                  
R23  19576534.159 1 104721265.568 2     -4147.661          42.000                                                                  
R17  18315486.263 1  98009862.947 1      2470.032          47.000    18315485.544 2  76229892.447 2      1920.900          38.000  
R07  16730917.817 1  89561912.339 1      1098.222          51.000    16730917.310 1  69659262.271 2       854.172          43.000  
R08  20095660.161 2 107611377.028 3      3590.166          37.000    20095651.861 4  83697648.483 6      2792.626          32.000  
S23  36023991.247 1 189307344.456 2      -694.089          39.000  
J03  39133025.601 1 205645432.805 3      -637.522          38.000    39133019.170 2 160243167.448 8      -496.753          27.000  
G28  17052258.719 1  89610223.258 1      -599.426          48.000                                                                  
> 2021 12 15 13 50 44.9870000  0 32                     
G08  21633558.960 2 113685111.462 7     -4086.272          30.000                                                                  
G10  20034475.330 1 105281876.740 2      1125.671          40.000    20034473.735 2  82037827.927 7       876.782          31.000  
G13  17475157.782 1  91832564.367 1     -3144.921          49.000                                                                  
G14  17243813.641 1  90616839.925 1     -1936.457          48.000    17243809.320 1  70610515.308 2     -1508.505          37.000  
G15  17124626.443 1  89990510.784 1     -1828.426          48.000    17124622.554 2  70122464.077 4     -1424.188          35.000  
C25  22204030.465 1 115622213.344 2     -3939.181          41.000                                                                  
C19  20212526.081 1 105251929.648 2      1057.290          42.000                                                                  
C10  33831421.148 1 176169084.910 1     -1071.306          44.000    33831412.895 2 136225078.912 5      -828.517          33.000  
C07  34522012.518 1 179765178.751 1     -1508.907          43.000    34522001.537 2 139005791.453 5     -1167.028          31.000  
C11  20785930.279 1 108237790.286 2       961.095          42.000    20785922.784 2  83696294.045 5       743.023          33.000  
C20  19652926.221 1 102337944.865 1     -2005.373          50.000                                                                  
R06  16590370.174 1  88529398.020 2     -3256.947          42.000                                                                  
R09  18848061.600 1 100647596.581 1      3275.523          47.000    18848064.913 2  78281488.068 3      2547.552          37.000  
R15  16817296.874 1  89866533.851 1     -3693.042          50.000    16817297.612 1  69896199.529 2     -2872.321          40.000  
R24  17936417.402 1  95914080.044 1     -1299.659          48.000    17936414.910 2  74599826.389 4     -1011.012          34.000  
G17  19150250.172 1 100635232.141 2      1929.010          42.000    19150245.207 2  78417051.579 6      1503.500          29.000  
G21  20710944.388 1 108836741.607 2       233.345          39.000                                                                  
G23  18951164.497 1  99589041.804 3     -1141.008          38.000    18951158.815 2  77601825.627 6      -889.324          31.000  
G24  18470883.474 1  97065145.971 1      2486.105          44.000    18470880.878 2  75635172.261 4      1936.605          34.000  
G30  20032528.553 1 105271639.188 2     -4132.550          42.000    20032524.944 2  82029842.721 6     -3219.836          28.000  
C23  18670576.265 1  97222589.742 1     -2102.733          51.000                                                                  
C12  21348376.738 1 111166600.111 3     -1973.772          35.000    21348369.939 2  85961037.406 5     -1526.623          31.000  
C32  22071591.620 1 114932572.352 4     -4185.315          35.000                                                                  
C34  20756134.852 1 108082640.630 1      -500.238          46.000                                                                  
C37  18842503.156 1  98117857.965 1      1056.495          50.000                                                                  
R23  19577309.561 1 104725414.145 2     -4148.989          42.000                                                                  
R17  18315024.943 1  98007393.996 1      2468.396          46.000    18315024.239 2  76227972.158 2      1919.706          38.000  
R07  16730712.833 1  89560814.908 1      1096.714          50.000    16730712.300 1  69658408.686 1       853.258          43.000  
R08  20094989.374 2 107607787.308 2      3589.371          38.000    20094981.759 4  83694856.512 4      2791.378          34.000  
S23  36024123.363 1 189308038.352 2      -694.569          39.000  
J03  39133147.105 1 205646070.851 3      -638.505          38.000    39133140.596 2               9      -497.429          26.000  
G28  17052372.916 1  89610823.285 1      -600.592          48.000                                                                  
> 2021 12 15 13 50 45.9870000  0 32                     
G08  21634336.367 2 113689197.824 7     -4086.843          29.000                                                                  
G10  20034261.292 1 105280751.861 2      1124.640          38.000    20034259.547 2  82036951.433 6       874.915          31.000  
G13  17475756.425 1  91835709.913 1     -3146.069          49.000                                                                  
G14  17244182.302 1  90618777.092 1     -1937.687          49.000    17244177.889 1  70612024.799 2     -1509.432          37.000  
G15  17124974.557 1  89992339.901 1     -1829.694          49.000    17124970.659 2  70123889.392 4     -1425.964          34.000  
C25  22204787.102 1 115626153.121 2     -3940.332          41.000                                                                  
C19  20212323.294 1 105250873.065 2      1056.066          42.000                                                                  
C10  33831627.124 1 176170156.831 1     -1072.294          44.000    33831618.715 2 136225907.790 4      -829.028          33.000  
C07  34522302.295 1 179766688.141 1     -1509.600          43.000    34522291.450 2 139006958.624 5     -1167.383          32.000  
C11  20785745.898 1 108236829.697 1       959.913          42.000    20785738.345 2  83695551.208 4       742.519          33.000  
C20  19653311.481 1 102339951.003 1     -2006.580          50.000                                                                  
R06  16590980.747 1  88532656.028 2     -3258.755          41.000                                                                  
R09  18847448.195 1 100644321.541 1      3274.672          47.000    18847451.255 2  78278940.816 3      2546.739          37.000  
R15  16817988.087 1  89870227.453 1     -3694.147          50.000    16817988.799 1  69899072.333 1     -2873.187          41.000  
R24  17936660.683 1  95915380.692 1     -1301.339          48.000    17936658.174 2  74600838.009 4     -1012.157          36.000  
G17  19149883.275 1 100633303.750 1      1927.852          43.000    19149878.151 2  78415548.946 6      1502.618          29.000  
G21  20710900.157 1 108836508.800 2       232.178          40.000                                                                  
G23  18951381.807 1  99590183.703 2     -1142.540          37.000    18951376.164 2  77602715.411 6      -889.693          32.000  
G24  18470410.463 1  97062660.449 1      2485.064          44.000    18470407.932 2  75633235.474 4      1936.182          35.000  
G30  20033315.189 1 105275772.268 2     -4133.575          41.000    20033311.366 2  82033063.347 6     -3220.728          29.000  
C23  18670980.102 1  97224693.110 1     -2103.868          51.000                                                                  
C12  21348756.086 1 111168574.891 3     -1974.861          37.000    21348749.125 2  85962564.466 6     -1528.117          31.000  
C32  22072395.480 1 114936758.038 4     -4185.773          35.000                                                                  
C34  20756231.029 1 108083141.588 1      -501.526          46.000                                                                  
C37  18842300.375 1  98116802.065 1      1055.359          49.000                                                                  
R23  19578085.196 1 104729564.020 1     -4150.354          43.000                                                                  
R17  18314563.770 1  98004926.412 1      2466.906          46.000    18314563.020 2  76226052.913 2      1918.644          38.000  
R07  16730507.909 1  89559719.000 1      1095.219          50.000    16730507.593 1  69657556.337 1       851.793          43.000  
R08  20094318.836 2 107604198.497 2      3588.630          38.000    20094311.572 4  83692065.158 4      2791.415          34.000  
S23  36024255.673 1 189308732.987 2      -695.188          39.000  
J03  39133268.635 1 205646709.644 3      -639.070          38.000    39133262.158 2               9      -497.520          26.000  
G28  17052487.366 1  89611424.613 1      -601.978          48.000                                                                  
> 2021 12 15 13 50 46.9870000  0 32                     
G08  21635113.891 2 113693285.097 7     -4088.271          30.000                                                                  
G10  20034047.426 1 105279628.105 2      1123.047          40.000    20034045.875 2  82036075.698 6       874.536          30.000  
G13  17476355.256 1  91838856.503 1     -3147.418          49.000                                                                  
G14  17244551.209 1  90620715.371 1     -1938.981          48.000    17244546.722 1  70613535.172 3     -1511.056          37.000  
G15  17125322.901 1  89994170.233 1     -1830.973          48.000    17125318.802 2  70125315.602 4     -1427.112          35.000  
C25  22205543.847 1 115630093.488 2     -3940.809          41.000                                                                  
C19  20212120.608 1 105249817.466 2      1054.986          41.000                                                                  
C10  33831833.023 1 176171229.376 1     -1073.079          44.000    33831824.772 2 136226737.138 4      -829.802          34.000  
C07  34522592.260 1 179768198.157 1     -1510.555          44.000    34522581.306 2 139008126.196 5     -1167.217          32.000  
C11  20785561.540 1 108235870.129 2       958.774          42.000    20785554.143 2  83694809.257 4       741.007          34.000  
C20  19653696.941 1 102341958.191 1     -2007.820          49.000                                                                  
R06  16591591.402 1  88535915.309 2     -3260.109          41.000                                                                  
R09  18846835.062 1 100641047.218 1      3273.767          47.000    18846838.018 2  78276394.139 3      2545.821          36.000  
R15  16818679.461 1  89873922.007 1     -3695.172          50.000    16818680.167 1  69901945.888 2     -2874.164          41.000  
R24  17936904.279 1  95916682.817 1     -1302.891          48.000    17936901.704 2  74601850.772 3     -1013.492          35.000  
G17  19149516.547 1 100631376.330 1      1926.861          43.000    19149511.384 2  78414047.087 6      1501.132          29.000  
G21  20710856.107 1 108836277.075 2       230.911          40.000                                                                  
G23  18951599.350 1  99591326.780 3     -1143.052          39.000    18951593.778 2  77603606.145 5      -892.073          32.000  
G24  18469937.607 1  97060175.792 1      2483.928          44.000    18469935.241 2  75631299.335 4      1935.780          35.000  
G30  20034101.832 1 105279906.044 2     -4134.314          41.000    20034098.106 2  82036284.464 6     -3221.869          29.000  
C23  18671384.252 1  97226797.413 1     -2104.984          51.000                                                                  
C12  21349135.697 1 111170550.744 3     -1976.583          37.000    21349128.532 2  85964092.332 5     -1529.042          31.000  
C32  22073199.399 1 114940944.370 4     -4186.640          35.000                                                                  
C34  20756327.356 1 108083643.659 1      -502.732          46.000                                                                  
C37  18842097.830 1  98115747.051 1      1054.407          50.000                                                                  
R23  19578861.073 1 104733714.978 2     -4151.472          43.000                                                                  
R17  18314102.807 1  98002460.003 1      2465.702          46.000    18314102.268 2  76224134.612 2      1917.875          37.000  
R07  16730303.418 1  89558624.466 1      1093.687          49.000    16730303.125 1  69656705.052 1       850.762          43.000  
R08  20093648.295 2 107600610.491 3      3587.303          37.000    20093641.597 4  83689274.469 4      2789.979          34.000  
S23  36024388.033 1 189309428.135 2      -695.343          39.000  
J03  39133390.408 1 205647348.947 3      -640.108          39.000    39133383.907 4               9      -498.854          26.000  
G28  17052601.932 1  89612027.016 1      -603.088          48.000                                                                  
> 2021 12 15 13 50 47.9870000  0 32                     
G08  21635891.252 2 113697372.863 7     -4088.162          29.000                                                                  
G10  20033833.868 1 105278505.372 2      1121.997          40.000    20033832.210 2  82035200.818 7       874.255          31.000  
G13  17476954.204 1  91842004.037 1     -3148.035          49.000                                                                  
G14  17244920.292 1  90622654.684 1     -1939.727          49.000    17244915.756 1  70615046.317 3     -1511.178          38.000  
G15  17125671.406 1  89996001.664 1     -1831.929          48.000    17125667.332 2  70126742.674 4     -1427.450          34.000  
C25  22206300.684 1 115634034.394 2     -3941.260          41.000                                                                  
C19  20211918.074 1 105248762.850 2      1054.284          44.000                                                                  
C10  33832038.995 1 176172302.451 1     -1073.445          44.000    33832030.912 2 136227566.946 4      -830.134          34.000  
C07  34522882.424 1 179769708.698 1     -1510.731          44.000    34522871.200 2 139009294.305 5     -1168.326          32.000  
C11  20785377.470 1 108234911.535 1       958.218          42.000    20785370.216 2  83694067.995 4       741.299          34.000  
C20  19654082.513 1 102343966.397 1     -2008.638          49.000                                                                  
R06  16592202.366 1  88539175.846 2     -3261.042          41.000                                                                  
R09  18846221.958 1 100637773.609 1      3273.461          47.000    18846224.904 2  78273847.992 3      2545.472          35.000  
R15  16819371.012 1  89877617.414 1     -3695.843          50.000    16819371.743 1  69904820.108 1     -2874.511          41.000  
R24  17937148.003 1  95917986.365 1     -1304.167          48.000    17937145.454 2  74602864.621 3     -1014.136          36.000  
G17  19149150.068 1 100629449.755 2      1926.259          43.000    19149144.809 2  78412545.851 6      1501.001          29.000  
G21  20710812.295 1 108836046.324 2       230.443          40.000                                                                  
G23  18951817.093 1  99592471.105 4     -1144.945          35.000    18951811.550 2  77604497.708 6      -891.425          32.000  
G24  18469464.947 1  97057691.888 1      2483.542          44.000    18469462.508 2  75629363.859 4      1935.221          35.000  
G30  20034888.627 1 105284040.432 2     -4134.552          42.000    20034884.941 2  82039506.084 6     -3221.778          29.000  
C23  18671788.582 1  97228902.550 1     -2105.520          50.000                                                                  
C12  21349515.419 1 111172527.687 3     -1977.629          37.000    21349508.119 2  85965620.958 6     -1528.647          31.000  
C32  22074003.565 1 114945131.280 4     -4187.282          35.000                                                                  
C34  20756424.023 1 108084146.791 1      -503.602          46.000                                                                  
C37  18841895.324 1  98114692.900 1      1053.827          50.000                                                                  
R23  19579637.150 1 104737866.993 1     -4152.308          41.000                                                                  
R17  18313642.197 1  97999994.678 1      2464.809          46.000    18313641.523 2  76222217.116 2      1917.346          38.000  
R07  16730099.244 1  89557531.293 1      1092.655          50.000    16730098.822 1  69655854.771 1       849.815          43.000  
R08  20092978.040 2 107597023.081 3      3587.506          36.000    20092972.022 2  83686484.302 4      2790.367          33.000  
S23  36024520.493 1 189310123.720 2      -696.053          39.000  
J03  39133512.050 1 205647988.733 3      -639.764          38.000    39133505.794 2               9      -498.490          27.000  
G28  17052716.758 1  89612630.464 1      -604.053          48.000                                                                  
> 2021 12 15 13 50 48.9870000  0 32                     
G08  21636669.429 2 113701461.526 7     -4089.146          29.000                                                                  
G10  20033620.439 1 105277383.633 2      1120.996          38.000    20033618.666 2  82034326.752 6       873.297          31.000  
G13  17477553.329 1  91845152.540 1     -3149.064          50.000                                                                  
G14  17245289.533 1  90624595.047 1     -1940.952          49.000    17245285.020 1  70616558.288 3     -1512.035          37.000  
G15  17126020.129 1  89997834.244 1     -1833.089          48.000    17126015.889 2  70128170.656 4     -1428.218          34.000  
C25  22207057.653 1 115637975.830 2     -3941.710          42.000                                                                  
C19  20211715.699 1 105247709.154 2      1052.863          41.000                                                                  
C10  33832245.190 1 176173376.078 1     -1073.945          44.000    33832237.093 2 136228397.113 4      -830.902          33.000  
C07  34523172.667 1 179771219.731 1     -1511.373          44.000    34523161.329 2 139010462.739 5     -1168.586          32.000  
C11  20785193.648 1 108233953.912 2       956.879          41.000    20785186.319 2  83693327.516 4       739.704          34.000  
C20  19654468.410 1 102345975.598 1     -2009.762          50.000                                                                  
R06  16592813.603 1  88542437.607 2     -3262.461          41.000                                                                  
R09  18845608.984 1 100634500.658 1      3272.656          47.000    18845611.907 2  78271302.389 3      2545.184          38.000  
R15  16820062.753 1  89881313.717 1     -3696.808          50.000    16820063.323 1  69907695.009 2     -2875.403          41.000  
R24  17937392.072 1  95919291.214 1     -1305.531          48.000    17937389.559 2  74603879.543 4     -1015.801          35.000  
G17  19148783.675 1 100627524.086 1      1925.035          43.000    19148778.312 2  78411045.301 6      1500.558          29.000  
G21  20710768.630 1 108835816.569 2       229.008          39.000                                                                  
G23  18952035.024 1  99593616.495 3     -1145.934          35.000    18952029.562 2  77605390.329 6      -893.540          31.000  
G24  18468992.480 1  97055208.777 1      2482.617          45.000    18468989.934 2  75627428.938 4      1934.794          34.000  
G30  20035675.514 1 105288175.482 2     -4135.395          42.000    20035671.861 2  82042728.205 6     -3222.394          29.000  
C23  18672192.999 1  97231008.545 1     -2106.411          50.000                                                                  
C12  21349895.322 1 111174505.538 3     -1978.671          36.000    21349887.858 2  85967150.377 5     -1530.215          31.000  
C32  22074807.729 1 114949318.747 3     -4188.272          35.000                                                                  
C34  20756520.766 1 108084650.949 1      -504.811          46.000                                                                  
C37  18841692.978 1  98113639.556 1      1052.898          50.000                                                                  
R23  19580413.445 1 104742020.022 2     -4153.776          41.000                                                                  
R17  18313181.665 1  97997530.447 1      2463.596          46.000    18313180.996 2  76220300.516 2      1915.790          38.000  
R07  16729895.282 1  89556439.357 1      1091.122          50.000    16729894.929 1  69655005.515 1       848.604          43.000  
R08  20092307.855 2 107593436.397 3      3586.405          36.000    20092302.159 2  83683694.632 5      2789.775          32.000  
S23  36024653.035 1 189310819.791 2      -696.415          39.000  
J03  39133633.998 1 205648629.051 3      -640.224          38.000    39133627.560 2 160245658.050 8      -499.137          27.000  
G28  17052831.811 1  89613234.917 1      -604.968          48.000                                                                  
> 2021 12 15 13 50 49.9870000  0 32                     
G08  21637447.336 2 113705550.849 6     -4090.040          31.000                                                                  
G10  20033407.200 1 105276262.866 2      1120.282          39.000    20033405.534 2  82033453.460 6       872.235          31.000  
G13  17478152.610 1  91848301.951 1     -3149.818          49.000                                                                  
G14  17245658.996 1  90626536.398 1     -1941.870          49.000    17245654.504 1  70618071.044 2     -1512.961          37.000  
G15  17126369.056 1  89999667.896 1     -1834.186          49.000    17126364.776 2  70129599.470 4     -1428.750          34.000  
C25  22207814.698 1 115641917.746 2     -3942.040          42.000                                                                  
C19  20211513.472 1 105246656.370 2      1052.517          42.000                                                                  
C10  33832451.496 1 176174450.198 1     -1074.497          45.000    33832443.271 2 136229227.699 4      -831.305          33.000  
C07  34523462.934 1 179772731.290 1     -1511.830          43.000    34523451.514 2 139011631.552 5     -1169.007          32.000  
C11  20785009.972 1 108232997.196 2       956.130          42.000    20785002.555 2  83692587.712 4       739.322          33.000  
C20  19654854.502 1 102347985.747 1     -2010.553          49.000                                                                  
R06  16593425.062 1  88545700.556 2     -3263.620          42.000                                                                  
R09  18844996.174 1 100631228.315 1      3272.156          47.000    18844998.849 2  78268757.221 3      2544.953          37.000  
R15  16820754.655 1  89885010.901 1     -3697.577          50.000    16820755.127 1  69910570.595 2     -2876.013          41.000  
R24  17937636.398 1  95920597.436 1     -1306.844          48.000    17937633.967 2  74604895.491 3     -1016.887          36.000  
G17  19148417.484 1 100625599.224 1      1924.321          43.000    19148412.182 2  78409545.496 7      1498.521          29.000  
G21  20710725.148 1 108835587.766 2       227.987          39.000                                                                  
G23  18952253.145 1  99594763.046 3     -1147.619          37.000    18952247.775 2  77606283.718 6      -894.190          31.000  
G24  18468520.047 1  97052726.369 1      2481.945          45.000    18468517.712 2  75625494.639 4      1933.997          34.000  
G30  20036462.546 1 105292311.091 2     -4135.803          41.000    20036458.856 2  82045950.734 6     -3222.351          29.000  
C23  18672597.644 1  97233115.335 1     -2107.156          50.000                                                                  
C12  21350275.372 1 111176484.334 3     -1979.528          38.000    21350267.881 2  85968680.501 5     -1530.411          32.000  
C32  22075612.014 1 114953506.731 3     -4188.058          35.000                                                                  
C34  20756617.809 1 108085156.112 1      -505.633          47.000                                                                  
C37  18841490.958 1  98112587.007 1      1052.124          50.000                                                                  
R23  19581189.879 1 104746173.989 2     -4154.315          41.000                                                                  
R17  18312721.319 1  97995067.243 1      2462.536          46.000    18312720.636 2  76218384.665 3      1915.613          38.000  
R07  16729691.385 1  89555348.653 1      1090.098          50.000    16729691.229 1  69654157.183 1       847.961          43.000  
R08  20091637.854 2 107589850.444 4      3584.925          36.000    20091632.498 4  83680905.562 5      2789.022          32.000  
S23  36024785.539 1 189311516.262 2      -696.681          39.000  
J03  39133755.946 1 205649269.788 3      -640.853          38.000    39133749.653 2 160246157.271 7      -498.958          27.000  
G28  17052946.983 1  89613840.351 1      -605.914          48.000                                                                  
> 2021 12 15 13 50 50.9870000  0 32                     
G08  21638225.500 2 113709640.794 6     -4090.726          31.000                                                                  
G10  20033194.156 1 105275143.111 2      1119.049          41.000    20033192.409 2  82032580.900 6       872.546          30.000  
G13  17478752.240 1  91851452.282 1     -3150.972          49.000                                                                  
G14  17246028.665 1  90628478.741 1     -1943.119          49.000    17246024.075 1  70619584.555 3     -1514.150          38.000  
G15  17126718.226 1  90001502.617 1     -1835.581          49.000    17126713.905 2  70131029.147 4     -1430.091          34.000  
C25  22208571.867 1 115645860.160 2     -3942.809          41.000                                                                  
C19  20211311.429 1 105245604.511 1      1051.283          44.000                                                                  
C10  33832657.783 1 176175524.822 1     -1074.956          44.000    33832649.751 2 136230058.656 5      -831.290          33.000  
C07  34523753.272 1 179774243.344 1     -1512.652          43.000    34523741.887 2 139012800.802 5     -1170.281          32.000  
C11  20784826.377 1 108232041.391 2       955.055          42.000    20784819.046 2  83691848.622 4       739.196          33.000  
C20  19655240.700 1 102349996.842 1     -2011.753          50.000                                                                  
R06  16594036.750 1  88548964.666 2     -3265.001          42.000                                                                  
R09  18844383.569 1 100627956.612 1      3271.283          46.000    18844386.090 2  78266212.576 3      2543.904          36.000  
R15  16821446.594 1  89888708.957 1     -3698.675          50.000    16821447.150 1  69913446.852 2     -2876.617          41.000  
R24  17937880.921 1  95921905.009 1     -1308.461          48.000    17937878.571 2  74605912.451 4     -1017.332          36.000  
G17  19148051.364 1 100623675.172 1      1923.441          43.000    19148046.118 2  78408046.171 6      1498.716          29.000  
G21  20710681.793 1 108835359.897 2       227.372          38.000                                                                  
G23  18952471.397 1  99595910.665 3     -1149.006          37.000    18952466.116 2  77607177.907 6      -894.703          32.000  
G24  18468047.859 1  97050244.692 1      2481.065          44.000    18468045.534 2  75623560.841 4      1933.515          34.000  
G30  20037249.752 1 105296447.286 3     -4136.829          41.000    20037245.938 2  82049173.760 6     -3223.077          29.000  
C23  18673002.266 1  97235222.924 1     -2108.135          50.000                                                                  
C12  21350655.590 1 111178464.078 3     -1980.183          39.000    21350648.235 2  85970211.394 6     -1531.662          32.000  
C32  22076416.413 1 114957695.241 3     -4188.705          35.000                                                                  
C34  20756714.986 1 108085662.269 1      -506.856          47.000                                                                  
C37  18841288.923 1  98111535.238 1      1051.211          50.000                                                                  
R23  19581966.613 1 104750328.951 2     -4155.533          41.000                                                                  
R17  18312261.325 1  97992605.068 1      2461.434          47.000    18312260.600 2  76216469.660 2      1914.362          38.000  
R07  16729487.841 1  89554259.172 1      1088.687          49.000    16729487.666 1  69653309.809 1       846.763          43.000  
R08  20090967.882 2 107586265.153 3      3584.606          38.000    20090962.633 4  83678117.013 5      2787.801          33.000  
S23  36024918.198 1 189312213.090 2      -696.969          39.000  
J03  39133877.904 1 205649910.950 4      -641.555          37.000    39133871.787 2 160246656.893 7      -499.809          27.000  
G28  17053062.391 1  89614446.751 1      -607.013          48.000                                                                  
> 2021 12 15 13 50 51.9870000  0 32                     
G08  21639003.827 2 113713731.646 7     -4092.953          30.000                                                                  
G10  20032981.240 1 105274024.459 2      1118.036          42.000    20032979.471 4  82031709.267 7       870.776          30.000  
G13  17479351.936 1  91854603.650 1     -3151.873          49.000                                                                  
G14  17246398.492 1  90630422.193 1     -1944.104          48.000    17246393.942 1  70621098.932 3     -1515.137          37.000  
G15  17127067.513 1  90003338.556 1     -1836.536          49.000    17127063.343 2  70132459.769 4     -1431.021          34.000  
C25  22209329.128 1 115649803.153 2     -3943.481          41.000                                                                  
C19  20211109.566 1 105244553.639 1      1050.312          44.000                                                                  
C10  33832864.310 1 176176600.105 1     -1075.758          44.000    33832856.252 2 136230890.114 5      -831.445          33.000  
C07  34524043.747 1 179775755.944 2     -1513.015          43.000    34524032.479 2 139013970.437 5     -1170.063          32.000  
C11  20784642.941 1 108231086.614 2       954.236          42.000    20784635.623 2  83691110.359 5       737.456          33.000  
C20  19655627.181 1 102352009.015 1     -2012.808          50.000                                                                  
R06  16594648.563 1  88552230.066 2     -3266.332          41.000                                                                  
R09  18843771.028 1 100624685.672 1      3270.404          47.000    18843773.519 2  78263668.497 3      2543.750          36.000  
R15  16822138.802 1  89892407.967 1     -3699.475          50.000    16822139.333 1  69916323.891 2     -2877.722          41.000  
R24  17938125.638 1  95923214.036 1     -1309.809          47.000    17938123.319 2  74606930.611 3     -1018.583          36.000  
G17  19147685.405 1 100621752.057 1      1922.665          43.000    19147680.062 2  78406547.653 6      1497.957          29.000  
G21  20710638.594 1 108835133.125 2       226.090          38.000                                                                  
G23  18952689.950 1  99597059.418 3     -1149.076          37.000    18952684.849 2  77608073.084 5      -895.321          32.000  
G24  18467575.728 1  97047763.867 1      2480.345          44.000    18467573.496 2  75621627.754 4      1932.943          34.000  
G30  20038037.041 1 105300584.194 2     -4137.555          41.000    20038033.192 2  82052397.313 6     -3223.487          29.000  
C23  18673407.093 1  97237331.430 1     -2108.928          50.000                                                                  
C12  21351036.011 1 111180444.945 2     -1981.547          39.000    21351028.781 2  85971743.122 5     -1532.648          32.000  
C32  22077220.950 1 114961884.395 3     -4189.340          35.000                                                                  
C34  20756812.438 1 108086169.543 1      -508.051          46.000                                                                  
C37  18841086.953 1  98110484.361 1      1050.344          50.000                                                                  
R23  19582743.560 1 104754485.001 2     -4156.674          41.000                                                                  
R17  18311801.390 1  97990144.106 1      2460.192          46.000    18311800.643 2  76214555.578 3      1913.418          38.000  
R07  16729284.537 1  89553171.046 1      1087.320          49.000    16729284.335 1  69652463.500 1       845.794          43.000  
R08  20090298.021 2 107582680.591 3      3584.030          38.000    20090292.948 4  83675329.042 5      2787.553          33.000  
S23  36025051.006 1 189312910.459 2      -697.861          39.000  
J03  39133999.968 1 205650552.643 3      -641.864          38.000    39133994.132 2 160247156.924 7      -500.416          27.000  
G28  17053178.018 1  89615054.263 1      -608.167          48.000                                                                  
> 2021 12 15 13 50 52.9870000  0 32                     
G08  21639782.120 2 113717823.062 7     -4092.307          30.000                                                                  
G10  20032768.583 1 105272906.860 2      1117.029          40.000    20032766.824 2  82030838.379 6       870.129          30.000  
G13  17479951.809 1  91857755.947 1     -3152.607          49.000                                                                  
G14  17246768.515 1  90632366.656 1     -1944.896          48.000    17246763.880 1  70622614.112 3     -1515.483          38.000  
G15  17127417.141 1  90005175.602 1     -1837.581          49.000    17127412.941 2  70133891.188 4     -1431.644          34.000  
C25  22210086.479 1 115653746.669 2     -3943.666          42.000                                                                  
C19  20210908.003 1 105243503.678 1      1049.595          43.000                                                                  
C10  33833070.982 1 176177675.882 1     -1075.721          44.000    33833062.959 2 136231721.985 5      -831.840          33.000  
C07  34524334.287 1 179777269.094 2     -1513.473          44.000    34524323.071 2 139015140.453 5     -1169.921          32.000  
C11  20784459.831 1 108230132.803 2       953.387          42.000    20784452.351 2  83690372.778 4       737.489          33.000  
C20  19656013.788 1 102354022.140 1     -2013.533          49.000                                                                  
R06  16595260.622 1  88555496.642 2     -3267.060          41.000                                                                  
R09  18843158.756 1 100621415.383 1      3269.990          48.000    18843161.106 2  78261124.940 3      2543.199          37.000  
R15  16822831.134 1  89896107.841 1     -3700.244          51.000    16822831.571 1  69919201.540 2     -2878.101          41.000  
R24  17938370.757 1  95924524.429 1     -1311.019          48.000    17938368.526 2  74607949.789 3     -1019.700          37.000  
G17  19147319.635 1 100619829.792 1      1921.857          43.000    19147314.294 2  78405049.783 6      1497.756          29.000  
G21  20710595.633 1 108834907.270 2       225.303          39.000                                                                  
G23  18952908.628 1  99598209.387 3     -1150.470          36.000    18952903.761 2  77608969.175 6      -896.920          32.000  
G24  18467103.804 1  97045283.796 1      2479.823          44.000    18467101.759 2  75619695.222 4      1932.176          34.000  
G30  20038824.459 1 105304721.692 2     -4137.769          40.000    20038820.443 2  82055621.345 7     -3224.097          29.000  
C23  18673812.115 1  97239440.767 1     -2109.711          51.000                                                                  
C12  21351416.741 1 111182426.785 2     -1982.432          39.000    21351409.540 2  85973275.535 6     -1532.501          32.000  
C32  22078025.581 1 114966074.109 3     -4189.859          35.000                                                                  
C34  20756910.028 1 108086677.813 1      -508.766          47.000                                                                  
C37  18840885.456 1  98109434.288 1      1049.688          50.000                                                                  
R23  19583520.596 1 104758642.025 2     -4157.503          42.000                                                                  
R17  18311341.666 1  97987684.206 1      2459.389          46.000    18311340.928 2  76212642.304 3      1912.833          38.000  
R07  16729081.457 1  89552084.220 1      1086.309          50.000    16729081.334 1  69651618.185 1       844.730          43.000  
R08  20089628.336 2 107579096.659 3      3583.691          37.000    20089623.513 4  83672541.540 5      2786.970          32.000  
S23  36025183.846 1 189313608.254 2      -697.611          39.000  
J03  39134122.157 1 205651194.787 3      -642.023          38.000    39134116.386 2 160247657.361 7      -500.924          27.000  
G28  17053293.795 1  89615662.761 1      -608.978          48.000                                                                  
> 2021 12 15 13 50 53.9870000  0 32                     
G08  21640560.561 2 113721915.131 7     -4092.537          30.000                                                                  
G10  20032556.158 1 105271790.121 2      1116.156          41.000    20032554.268 2  82029968.189 6       869.885          29.000  
G13  17480551.868 1  91860909.102 1     -3153.735          49.000                                                                  
G14  17247138.692 1  90634312.049 1     -1945.963          48.000    17247134.024 1  70624129.992 2     -1516.318          38.000  
G15  17127766.824 1  90007013.656 1     -1838.668          49.000    17127762.696 2  70135323.446 4     -1432.597          34.000  
C25  22210843.970 1 115657690.609 1     -3944.218          42.000                                                                  
C19  20210706.648 1 105242454.565 2      1048.523          43.000                                                                  
C10  33833277.560 1 176178752.108 1     -1076.533          44.000    33833269.645 2 136232554.161 5      -832.119          33.000  
C07  34524624.866 1 179778782.656 1     -1513.814          43.000    34524613.564 2 139016310.854 5     -1170.576          32.000  
C11  20784276.799 1 108229179.805 1       952.337          41.000    20784269.173 1  83689635.881 4       736.383          33.000  
C20  19656400.480 1 102356036.149 1     -2014.623          49.000                                                                  
R06  16595873.020 1  88558764.342 2     -3268.534          41.000                                                                  
R09  18842546.416 1 100618145.628 1      3269.355          48.000    18842548.503 2  78258581.782 2      2543.107          37.000  
R15  16823523.695 1  89899808.491 1     -3701.172          51.000    16823524.085 1  69922079.825 2     -2878.821          41.000  
R24  17938616.128 1  95925836.067 1     -1312.305          48.000    17938614.019 2  74608969.958 3     -1020.854          37.000  
G17  19146954.045 1 100617908.292 1      1921.028          43.000    19146948.781 2  78403552.504 6      1497.500          29.000  
G21  20710552.837 1 108834682.315 2       224.441          39.000                                                                  
G23  18953127.720 1  99599360.316 3     -1151.490          37.000    18953122.828 2  77609866.035 5      -897.645          32.000  
G24  18466631.965 1  97042804.387 1      2478.937          45.000    18466629.910 2  75617763.218 4      1931.555          34.000  
G30  20039611.936 1 105308859.708 2     -4138.428          41.000    20039607.979 2  82058845.805 7     -3224.689          29.000  
C23  18674217.454 1  97241550.838 1     -2110.586          51.000                                                                  
C12  21351797.424 1 111184409.480 2     -1983.304          39.000    21351790.178 2  85974808.706 6     -1533.469          32.000  
C32  22078830.137 1 114970264.268 4     -4190.529          35.000                                                                  
C34  20757007.861 1 108087187.032 1      -509.864          46.000                                                                  
C37  18840683.857 1  98108384.942 1      1048.907          50.000                                                                  
R23  19584297.814 1 104762799.942 2     -4158.488          42.000                                                                  
R17  18310882.253 1  97985225.263 1      2458.262          46.000    18310881.240 2  76210729.803 3      1912.284          38.000  
R07  16728878.697 1  89550998.580 1      1085.031          50.000    16728878.446 1  69650773.793 1       843.789          43.000  
R08  20088958.728 2 107575513.353 3      3582.769          37.000    20088954.080 4  83669754.473 6      2786.710          32.000  
S23  36025316.619 1 189314306.378 2      -698.522          39.000  
J03  39134244.443 1 205651837.340 3      -643.038          37.000    39134238.675 2               9      -500.046          27.000  
G28  17053409.753 1  89616272.171 1      -610.016          48.000                                                                  
> 2021 12 15 13 50 54.9870000  0 32                     
G08  21641339.157 2 113726007.860 7     -4092.770          31.000                                                                  
G10  20032343.832 1 105270674.412 2      1115.472          41.000    20032341.974 2  82029098.840 6       868.701          30.000  
G13  17481152.073 1  91864063.181 1     -3154.261          49.000                                                                  
G14  17247509.132 1  90636258.456 1     -1946.729          48.000    17247504.382 1  70625646.663 2     -1516.710          38.000  
G15  17128116.807 1  90008852.821 1     -1839.554          49.000    17128112.499 2  70136756.560 3     -1433.147          34.000  
C25  22211601.531 1 115661635.035 2     -3944.314          42.000                                                                  
C19  20210505.443 1 105241406.374 1      1047.791          43.000                                                                  
C10  33833484.386 1 176179828.831 1     -1076.784          44.000    33833476.413 2 136233386.755 4      -832.561          33.000  
C07  34524915.598 1 179780296.714 1     -1514.154          43.000    34524904.497 2 139017481.636 5     -1170.946          32.000  
C11  20784093.845 1 108228227.770 2       951.766          41.000    20784086.435 1  83688899.684 4       736.004          34.000  
C20  19656787.324 1 102358051.138 1     -2015.246          49.000                                                                  
R06  16596485.708 1  88562033.216 2     -3269.343          41.000                                                                  
R09  18841934.216 1 100614876.543 1      3269.064          48.000    18841936.283 2  78256039.169 3      2542.737          37.000  
R15  16824216.437 1  89903510.031 1     -3701.733          51.000    16824216.810 1  69924958.799 2     -2879.199          41.000  
R24  17938861.613 1  95927149.050 1     -1313.499          48.000    17938859.525 2  74609991.176 3     -1021.675          37.000  
G17  19146588.494 1 100615987.614 1      1920.600          43.000    19146583.450 2  78402055.914 6      1496.027          29.000  
G21  20710510.195 1 108834458.344 2       223.685          39.000                                                                  
G23  18953347.065 1  99600512.439 3     -1151.996          36.000    18953342.117 2  77610763.751 5      -897.569          32.000  
G24  18466160.159 1  97040325.732 1      2478.488          45.000    18466158.246 2  75615831.779 4      1931.348          34.000  
G30  20040399.519 1 105312998.329 2     -4138.385          41.000    20040395.571 2  82062070.689 7     -3225.177          29.000  
C23  18674622.994 1  97243661.732 1     -2111.127          51.000                                                                  
C12  21352178.329 1 111186393.184 2     -1984.024          39.000    21352171.096 2  85976342.608 6     -1533.705          32.000  
C32  22079634.809 1 114974454.981 4     -4190.790          35.000                                                                  
C34  20757105.890 1 108087697.257 1      -510.479          47.000                                                                  
C37  18840482.526 1  98107336.397 1      1048.407          50.000                                                                  
R23  19585075.238 1 104766958.875 2     -4159.129          42.000                                                                  
R17  18310422.930 1  97982767.385 1      2457.698          46.000    18310421.838 2  76208818.114 2      1911.657          38.000  
R07  16728676.013 1  89549914.216 1      1084.028          49.000    16728675.846 1  69649930.392 1       843.238          43.000  
R08  20088289.292 2 107571930.654 3      3582.773          37.000    20088284.673 4  83666968.027 5      2786.220          31.000  
S23  36025449.605 1 189315004.922 2      -698.881          39.000  
J03  39134366.841 1 205652480.325 3      -642.505          38.000    39134361.119 2               9      -500.665          26.000  
G28  17053525.831 1  89616882.572 1      -610.657          48.000                                                                  
> 2021 12 15 13 50 55.9870000  0 32                     
G08  21642118.163 2 113730101.178 7     -4092.930          31.000                                                                  
G10  20032131.750 1 105269559.588 2      1114.618          40.000    20032129.887 2  82028230.164 5       868.091          30.000  
G13  17481752.483 1  91867218.101 1     -3155.109          49.000                                                                  
G14  17247879.670 1  90638205.769 1     -1947.679          48.000    17247875.059 1  70627164.042 3     -1517.302          38.000  
G15  17128466.987 1  90010692.947 1     -1840.420          49.000    17128462.737 2  70138190.483 3     -1434.558          34.000  
C25  22212359.160 1 115665579.874 2     -3945.055          42.000                                                                  
C19  20210304.266 1 105240358.983 1      1047.216          45.000                                                                  
C10  33833691.212 1 176180905.958 2     -1077.166          44.000    33833683.392 1 136234219.650 4      -832.651          33.000  
C07  34525206.479 1 179781811.179 2     -1514.735          43.000    34525195.291 2 139018652.675 6     -1171.033          32.000  
C11  20783911.177 1 108227276.552 2       951.117          42.000    20783903.687 2  83688164.153 4       735.491          34.000  
C20  19657174.268 1 102360066.986 1     -2016.077          50.000                                                                  
R06  16597098.445 1  88565303.181 2     -3270.300          41.000                                                                  
R09  18841321.992 1 100611607.989 1      3268.350          47.000    18841324.095 2  78253496.970 3      2542.069          36.000  
R15  16824909.268 1  89907212.361 1     -3702.527          51.000    16824909.608 1  69927838.395 2     -2879.962          41.000  
R24  17939107.313 1  95928463.283 1     -1314.693          47.000    17939105.265 2  74611013.357 3     -1022.919          37.000  
G17  19146223.098 1 100614067.670 1      1919.895          43.000    19146218.028 2  78400559.849 6      1495.751          29.000  
G21  20710467.750 1 108834235.237 2       222.678          39.000                                                                  
G23  18953566.397 1  99601665.639 3     -1154.206          36.000    18953561.611 2  77611662.333 6      -899.717          32.000  
G24  18465688.615 1  97037847.696 1      2477.802          45.000    18465686.729 2  75613900.899 4      1930.515          34.000  
G30  20041187.173 1 105317137.454 2     -4139.239          41.000    20041183.389 2  82065295.997 6     -3225.299          29.000  
C23  18675028.476 1  97245773.343 1     -2111.829          51.000                                                                  
C12  21352559.540 1 111188377.734 2     -1984.922          39.000    21352552.235 2  85977877.174 7     -1534.030          31.000  
C32  22080439.637 1 114978646.073 3     -4190.169          35.000                                                                  
C34  20757204.099 1 108088208.387 1      -511.375          47.000                                                                  
C37  18840281.171 1  98106288.552 1      1047.701          50.000                                                                  
R23  19585852.900 1 104771118.688 2     -4160.262          42.000                                                                  
R17  18309963.772 1  97980310.450 1      2456.667          46.000    18309962.671 2  76206907.169 3      1910.822          38.000  
R07  16728473.635 1  89548830.967 1      1082.880          50.000    16728473.482 1  69649087.880 1       842.163          43.000  
R08  20087619.960 2 107568348.529 2      3582.657          37.000    20087615.587 4  83664181.917 7      2786.143          31.000  
S23  36025582.681 1 189315703.764 2      -698.865          39.000  
J03  39134489.309 1 205653123.680 4      -643.143          38.000    39134483.487 2               9      -500.967          26.000  
G28  17053642.114 1  89617493.874 1      -611.652          48.000                                                                  
> 2021 12 15 13 50 56.9870000  0 32                     
G08  21642897.044 2 113734195.044 7     -4093.990          30.000                                                                  
G10  20031919.834 1 105268445.678 2      1113.739          41.000    20031917.996 2  82027362.169 6       867.560          29.000  
G13  17482352.991 1  91870373.833 1     -3155.913          49.000                                                                  
G14  17248250.466 1  90640153.980 1     -1948.501          48.000    17248245.933 1  70628682.142 2     -1518.399          38.000  
G15  17128817.412 1  90012534.103 1     -1841.666          48.000    17128813.013 2  70139625.091 4     -1434.628          34.000  
C25  22213116.801 1 115669525.092 2     -3945.232          42.000                                                                  
C19  20210103.326 1 105239312.466 1      1046.371          47.000                                                                  
C10  33833898.128 1 176181983.507 1     -1077.622          44.000    33833890.500 2 136235052.911 5      -833.568          33.000  
C07  34525497.376 1 179783326.021 1     -1514.738          43.000    34525486.413 2 139019824.046 6     -1170.712          32.000  
C11  20783728.599 1 108226326.175 2       950.090          42.000    20783721.162 2  83687429.257 5       735.122          34.000  
C20  19657561.616 1 102362083.697 1     -2016.949          50.000                                                                  
R06  16597711.306 1  88568574.217 2     -3271.091          41.000                                                                  
R09  18840710.035 1 100608339.925 1      3267.921          47.000    18840712.052 2  78250955.164 3      2541.289          37.000  
R15  16825602.164 1  89910915.437 1     -3703.253          51.000    16825602.481 1  69930718.564 2     -2880.347          41.000  
R24  17939353.291 1  95929778.777 1     -1315.929          47.000    17939351.342 2  74612036.508 3     -1023.344          36.000  
G17  19145857.946 1 100612148.496 1      1918.864          43.000    19145852.843 2  78399064.330 6      1495.528          29.000  
G21  20710425.468 1 108834012.957 2       222.089          39.000                                                                  
G23  18953785.992 1  99602819.757 3     -1154.219          39.000    18953781.292 2  77612561.652 6      -899.391          32.000  
G24  18465217.118 1  97035370.322 1      2477.164          44.000    18465215.535 2  75611970.458 4      1930.488          35.000  
G30  20041974.920 1 105321277.076 2     -4139.722          41.000    20041971.137 4  82068521.630 8     -3225.171          30.000  
C23  18675433.928 1  97247885.680 1     -2112.536          51.000                                                                  
C12  21352940.875 1 111190363.130 2     -1985.723          39.000    21352933.512 2  85979412.476 6     -1535.893          31.000  
C32  22081244.688 1 114982837.684 4     -4191.278          34.000                                                                  
C34  20757302.446 1 108088720.439 1      -512.267          47.000                                                                  
C37  18840080.197 1  98105241.394 1      1047.062          50.000                                                                  
R23  19586630.724 1 104775279.390 2     -4161.037          42.000                                                                  
R17  18309504.743 1  97977854.467 1      2455.715          45.000    18309503.614 2  76204996.969 3      1909.457          38.000  
R07  16728271.482 1  89547748.824 1      1081.725          49.000    16728271.300 1  69648246.226 1       841.320          43.000  
R08  20086950.776 2 107564766.974 3      3581.913          36.000    20086946.636 4  83661396.272 7      2786.503          31.000  
S23  36025715.718 1 189316402.904 2      -699.221          39.000  
J03  39134611.698 1 205653767.371 3      -643.699          38.000    39134606.037 2               9      -502.079          26.000  
G28  17053758.629 1  89618106.059 1      -612.396          48.000                                                                  
> 2021 12 15 13 50 57.9870000  0 32                     
G08  21643676.165 2 113738289.780 7     -4094.683          30.000                                                                  
G10  20031708.047 1 105267332.795 2      1112.585          42.000    20031706.155 2  82026495.022 7       866.376          28.000  
G13  17482953.753 1  91873530.552 1     -3157.135          49.000                                                                  
G14  17248621.369 1  90642103.256 1     -1949.759          48.000    17248616.851 1  70630201.035 3     -1519.016          37.000  
G15  17129168.028 1  90014376.381 1     -1842.778          48.000    17129163.819 2  70141060.657 4     -1435.903          34.000  
C25  22213874.590 1 115673470.879 2     -3945.985          41.000                                                                  
C19  20209902.418 1 105238266.848 1      1045.234          46.000                                                                  
C10  33834105.172 1 176183061.587 1     -1078.420          44.000    33834097.541 2 136235886.522 5      -833.406          33.000  
C07  34525788.392 1 179784841.422 2     -1515.725          43.000    34525777.291 2 139020995.812 6     -1170.945          32.000  
C11  20783546.159 1 108225376.786 2       948.780          42.000    20783539.045 2  83686695.120 4       734.040          34.000  
C20  19657949.047 1 102364101.415 1     -2018.110          50.000                                                                  
R06  16598324.551 1  88571846.531 2     -3272.983          41.000                                                                  
R09  18840098.148 1 100605072.578 1      3267.155          47.000    18840100.177 2  78248413.920 3      2540.546          37.000  
R15  16826295.306 1  89914619.414 1     -3704.321          51.000    16826295.590 1  69933599.438 2     -2881.238          41.000  
R24  17939599.452 1  95931095.681 1     -1317.397          46.000    17939597.707 2  74613060.813 3     -1024.875          36.000  
G17  19145492.880 1 100610230.189 2      1918.037          42.000    19145487.831 2  78397569.547 6      1494.892          29.000  
G21  20710383.458 1 108833791.745 2       220.389          39.000                                                                  
G23  18954005.863 1  99603975.085 2     -1155.661          39.000    18954001.210 2  77613461.882 5      -900.856          32.000  
G24  18464745.815 1  97032893.728 1      2476.333          44.000    18464744.326 1  75610040.647 3      1929.557          35.000  
G30  20042762.854 1 105325417.339 2     -4140.723          41.000    20042759.059 2  82071747.827 8     -3226.520          29.000  
C23  18675839.663 1  97249998.871 1     -2113.629          51.000                                                                  
C12  21353322.339 1 111192349.557 3     -1986.870          38.000    21353314.575 2  85980948.482 8     -1537.264          31.000  
C32  22082049.839 1 114987029.837 4     -4192.106          34.000                                                                  
C34  20757400.967 1 108089233.552 1      -513.471          47.000                                                                  
C37  18839879.278 1  98104195.097 1      1045.890          50.000                                                                  
R23  19587408.630 1 104779441.134 2     -4162.328          40.000                                                                  
R17  18309046.036 1  97975399.613 1      2454.368          46.000    18309044.910 2  76203087.621 3      1909.265          37.000  
R07  16728069.623 1  89546667.974 1      1080.278          50.000    16728069.366 1  69647405.557 1       840.275          43.000  
R08  20086281.610 2 107561186.144 3      3580.549          36.000    20086278.063 4  83658611.202 7      2784.919          30.000  
S23  36025848.910 1 189317102.558 2      -699.963          39.000  
J03  39134734.396 1 205654411.577 3      -644.428          38.000    39134728.501 2               9      -501.688          26.000  
G28  17053875.375 1  89618719.293 1      -613.599          48.000                                                                  
> 2021 12 15 13 50 58.9870000  0 32                     
G08  21644455.471 2 113742384.917 7     -4095.815          30.000                                                                  
G10  20031496.378 1 105266220.719 2      1111.774          42.000    20031494.716 2  82025628.403 6       866.687          30.000  
G13  17483554.615 1  91876688.003 1     -3157.795          49.000                                                                  
G14  17248992.504 1  90644053.338 1     -1950.476          48.000    17248988.021 1  70631720.584 3     -1519.441          38.000  
G15  17129518.753 1  90016219.580 1     -1843.552          48.000    17129514.476 2  70142496.933 4     -1436.711          34.000  
C25  22214632.357 1 115677417.003 2     -3946.578          41.000                                                                  
C19  20209701.735 1 105237221.969 1      1044.631          46.000                                                                  
C10  33834312.387 1 176184140.040 1     -1078.798          44.000    33834304.727 2 136236720.477 6      -834.266          33.000  
C07  34526079.600 1 179786357.108 2     -1516.030          43.000    34526068.360 2 139022167.893 5     -1171.437          33.000  
C11  20783364.042 1 108224428.148 1       948.060          42.000    20783356.695 1  83685961.579 4       733.561          33.000  
C20  19658336.625 1 102366119.910 1     -2018.861          50.000                                                                  
R06  16598937.946 1  88575119.815 2     -3273.762          41.000                                                                  
R09  18839486.359 1 100601805.697 1      3266.692          47.000    18839488.245 2  78245872.988 3      2540.751          37.000  
R15  16826988.559 1  89918324.029 1     -3704.974          50.000    16826988.866 1  69936480.826 2     -2881.628          41.000  
R24  17939845.870 1  95932413.831 1     -1318.765          49.000    17939844.308 2  74614085.982 3     -1025.753          37.000  
G17  19145128.041 1 100608312.517 1      1917.150          43.000    19145122.857 2  78396075.276 6      1493.911          29.000  
G21  20710341.565 1 108833571.221 2       220.240          40.000                                                                  
G23  18954225.944 1  99605131.280 2     -1156.781          39.000    18954221.168 2  77614362.803 5      -901.015          32.000  
G24  18464274.644 1  97030417.681 1      2475.851          44.000    18464273.203 1  75608111.254 4      1929.877          35.000  
G30  20043550.790 1 105329558.012 2     -4140.741          41.000    20043546.957 2  82074974.338 7     -3227.014          29.000  
C23  18676245.835 1  97252112.681 1     -2114.146          51.000                                                                  
C12  21353703.940 1 111194336.779 2     -1987.922          38.000    21353696.344 2  85982485.130 6     -1536.854          32.000  
C32  22082854.897 1 114991222.348 5     -4191.964          34.000                                                                  
C34  20757499.742 1 108089747.505 1      -514.272          47.000                                                                  
C37  18839678.518 1  98103149.399 1      1045.367          50.000                                                                  
R23  19588186.681 1 104783603.599 2     -4162.743          41.000                                                                  
R17  18308587.397 1  97972945.617 1      2453.551          47.000    18308586.251 2  76201178.956 3      1908.604          37.000  
R07  16727867.851 1  89545588.196 1      1079.203          50.000    16727867.657 1  69646565.725 1       839.422          43.000  
R08  20085612.533 2 107557605.761 3      3580.383          37.000    20085609.248 4  83655826.390 7      2784.998          30.000  
S23  36025982.149 1 189317802.413 2      -699.878          39.000  
J03  39134856.971 1 205655056.015 3      -644.637          38.000    39134851.121 2 160250666.059 8      -502.521          27.000  
G28  17053992.214 1  89619333.333 1      -614.600          48.000                                                                  
> 2021 12 15 13 50 59.9870000  0 32                     
G08  21645234.926 2 113746480.608 5     -4096.796          32.000                                                                  
G10  20031284.998 1 105265109.586 2      1110.852          43.000    20031283.174 4  82024762.614 7       864.722          29.000  
G13  17484155.623 1  91879846.289 1     -3158.456          49.000                                                                  
G14  17249363.802 1  90646004.333 1     -1951.323          48.000    17249359.324 1  70633240.847 3     -1520.488          38.000  
G15  17129869.601 1  90018063.771 1     -1844.461          48.000    17129865.242 2  70143933.943 4     -1437.224          34.000  
C25  22215390.195 1 115681363.480 2     -3946.843          41.000                                                                  
C19  20209501.215 1 105236177.904 1      1043.785          46.000                                                                  
C10  33834519.553 1 176185218.896 1     -1079.045          44.000    33834511.819 2 136237554.710 6      -833.966          33.000  
C07  34526370.771 1 179787873.236 1     -1515.981          43.000    34526359.715 2 139023340.287 6     -1173.027          33.000  
C11  20783182.039 1 108223480.307 2       947.703          42.000    20783174.697 2  83685228.660 4       732.502          33.000  
C20  19658724.434 1 102368139.279 1     -2019.597          50.000                                                                  
R06  16599551.542 1  88578394.191 2     -3274.959          41.000                                                                  
R09  18838874.675 1 100598539.365 1      3266.267          47.000    18838876.542 2  78243332.512 2      2540.514          37.000  
R15  16827681.996 1  89922029.445 1     -3705.597          50.000    16827682.231 1  69939362.811 2     -2881.897          41.000  
R24  17940092.454 1  95933733.194 1     -1319.831          48.000    17940091.095 2  74615112.171 3     -1026.434          36.000  
G17  19144763.418 1 100606395.607 1      1916.665          42.000    19144757.995 2  78394581.598 7      1493.354          29.000  
G21  20710299.780 1 108833351.617 2       219.406          40.000                                                                  
G23  18954446.176 1  99606288.524 2     -1157.648          39.000    18954441.480 2  77615264.526 5      -901.979          32.000  
G24  18463803.631 1  97027942.303 1      2475.274          45.000    18463802.167 1  75606182.383 4      1929.405          35.000  
G30  20044338.903 1 105333699.177 2     -4140.875          41.000    20044335.114 2  82078201.227 7     -3227.271          28.000  
C23  18676651.897 1  97254227.228 1     -2114.721          51.000                                                                  
C12  21354085.783 1 111196324.850 2     -1988.003          39.000    21354078.246 2  85984022.413 5     -1537.383          32.000  
C32  22083660.090 1 114995415.324 4     -4193.289          34.000                                                                  
C34  20757598.663 1 108090262.336 1      -515.106          47.000                                                                  
C37  18839477.760 1  98102104.419 1      1044.813          50.000                                                                  
R23  19588964.956 1 104787767.048 2     -4163.931          40.000                                                                  
R17  18308129.073 1  97970492.606 1      2452.726          46.000    18308127.902 2  76199271.079 3      1907.309          38.000  
R07  16727666.327 1  89544509.582 1      1078.328          50.000    16727666.241 1  69645726.832 1       838.451          43.000  
R08  20084943.527 2 107554025.996 3      3579.828          37.000    20084940.741 4  83653042.231 6      2784.204          30.000  
S23  36026115.456 1 189318502.571 2      -700.383          39.000  
J03  39134979.664 1 205655700.797 4      -644.480          38.000    39134973.981 2 160251168.505 7      -502.306          27.000  
G28  17054109.290 1  89619948.257 1      -615.271          48.000                                                                  
> 2021 12 15 13 51 00.9870000  0 32                     
G08  21646014.484 2 113750576.950 4     -4096.319          33.000                                                                  
G10  20031073.811 1 105263999.338 2      1110.126          43.000    20031071.850 2  82023897.451 8       864.703          29.000  
G13  17484756.654 1  91883005.416 1     -3159.484          49.000                                                                  
G14  17249735.281 1  90647956.239 1     -1952.295          48.000    17249730.742 1  70634761.822 3     -1521.279          37.000  
G15  17130220.762 1  90019908.976 1     -1845.443          48.000    17130216.489 2  70145371.756 4     -1437.772          34.000  
C25  22216148.226 1 115685310.369 2     -3946.933          41.000                                                                  
C19  20209300.887 1 105235134.647 1      1043.158          46.000                                                                  
C10  33834726.853 1 176186298.140 1     -1079.095          44.000    33834719.156 2 136238389.290 5      -834.891          33.000  
C07  34526662.050 1 179789389.740 1     -1516.480          44.000    34526650.940 2 139024512.903 6     -1171.741          32.000  
C11  20783000.163 1 108222533.336 2       946.818          42.000    20782993.014 2  83684496.405 4       731.808          34.000  
C20  19659112.290 1 102370159.516 1     -2020.490          49.000                                                                  
R06  16600165.367 1  88581669.632 2     -3275.795          41.000                                                                  
R09  18838263.093 1 100595273.556 1      3265.901          47.000    18838264.820 2  78240792.435 2      2540.175          37.000  
R15  16828375.661 1  89925735.645 1     -3706.482          50.000    16828375.811 1  69942245.406 2     -2882.574          41.000  
R24  17940339.588 1  95935053.869 1     -1321.022          45.000    17940338.197 2  74616139.390 4     -1027.488          35.000  
G17  19144398.728 1 100604479.422 2      1916.023          42.000    19144393.307 2  78393088.446 6      1493.062          29.000  
G21  20710258.264 1 108833132.864 2       218.537          39.000                                                                  
G23  18954666.639 1  99607446.765 2     -1158.791          38.000    18954661.978 2  77616167.083 5      -902.986          32.000  
G24  18463332.659 1  97025467.576 1      2474.492          45.000    18463331.257 1  75604254.054 4      1928.043          36.000  
G30  20045127.104 1 105337840.872 2     -4141.748          41.000    20045123.270 2  82081428.458 7     -3227.087          28.000  
C23  18677058.040 1  97256342.487 1     -2115.423          50.000                                                                  
C12  21354467.879 1 111198313.848 2     -1989.344          38.000    21354460.551 2  85985560.430 6     -1538.431          31.000  
C32  22084465.493 1 114999608.711 4     -4193.488          34.000                                                                  
C34  20757697.692 1 108090778.085 1      -515.789          46.000                                                                  
C37  18839277.180 1  98101060.124 1      1044.153          51.000                                                                  
R23  19589743.398 1 104791931.364 2     -4164.700          40.000                                                                  
R17  18307670.858 1  97968040.567 1      2451.816          46.000    18307669.636 2  76197363.945 3      1906.683          38.000  
R07  16727465.169 1  89543432.157 1      1077.044          50.000    16727464.948 1  69644888.807 2       837.707          43.000  
R08  20084274.790 2 107550446.816 3      3578.723          36.000    20084272.191 4  83650258.465 7      2783.905          29.000  
S23  36026248.687 1 189319203.042 2      -700.793          39.000  
J03  39135102.443 1 205656345.967 4      -645.696          38.000    39135096.945 2 160251671.229 7      -502.593          27.000  
G28  17054226.495 1  89620564.070 1      -616.083          48.000                                                                  
> 2021 12 15 13 51 01.9870000  0 32                     
G08  21646794.116 2 113754673.682 4     -4096.442          32.000                                                                  
G10  20030862.806 1 105262889.762 1      1109.027          43.000    20030860.739 2  82023032.876 7       864.154          29.000  
G13  17485357.910 1  91886165.169 1     -3160.262          49.000                                                                  
G14  17250106.794 1  90649908.843 1     -1953.193          48.000    17250102.225 1  70636283.336 3     -1521.969          38.000  
G15  17130572.094 1  90021754.967 1     -1846.682          48.000    17130567.951 2  70146810.175 4     -1438.483          34.000  
C25  22216906.170 1 115689257.490 2     -3947.495          41.000                                                                  
C19  20209100.668 1 105234092.021 1      1042.135          48.000                                                                  
C10  33834934.190 1 176187377.640 1     -1079.814          44.000    33834926.450 2 136239223.961 5      -835.193          33.000  
C07  34526953.321 1 179790906.440 1     -1517.008          44.000    34526942.302 2 139025685.745 6     -1173.292          31.000  
C11  20782818.485 1 108221586.990 2       945.575          42.000    20782811.336 1  83683764.608 4       731.120          34.000  
C20  19659500.396 1 102372180.417 1     -2021.593          49.000                                                                  
R06  16600779.320 1  88584945.978 2     -3277.167          41.000                                                                  
R09  18837651.526 1 100592008.088 1      3264.994          47.000    18837653.131 2  78238252.652 3      2539.199          37.000  
R15  16829069.288 1  89929442.444 1     -3707.367          51.000    16829069.429 1  69945128.430 2     -2883.435          41.000  
R24  17940586.791 1  95936375.627 1     -1322.282          43.000    17940585.358 2  74617167.453 4     -1029.312          34.000  
G17  19144034.225 1 100602563.772 2      1915.148          42.000    19144028.826 2  78391595.731 6      1493.076          29.000  
G21  20710216.837 1 108832914.754 2       217.749          39.000                                                                  
G23  18954887.263 1  99608605.859 3     -1159.572          36.000    18954882.588 2  77617070.220 5      -903.361          31.000  
G24  18462861.787 1  97022993.281 1      2473.809          45.000    18462860.350 1  75602326.037 3      1927.513          36.000  
G30  20045915.347 1 105341982.852 2     -4142.560          41.000    20045911.564 2  82084655.994 6     -3227.716          29.000  
C23  18677464.315 1  97258458.261 1     -2116.383          51.000                                                                  
C12  21354849.897 1 111200303.476 3     -1990.090          35.000    21354842.670 2  85987099.013 7     -1540.413          30.000  
C32  22085270.954 1 115003802.341 4     -4193.485          34.000                                                                  
C34  20757796.861 1 108091294.611 1      -517.110          46.000                                                                  
C37  18839076.715 1  98100016.338 1      1043.147          51.000                                                                  
R23  19590521.903 1 104796096.356 2     -4165.875          40.000                                                                  
R17  18307212.771 1  97965589.267 1      2450.789          46.000    18307211.654 2  76195457.374 3      1906.070          37.000  
R07  16727264.057 1  89542355.707 1      1075.771          50.000    16727263.923 1  69644051.558 1       836.500          43.000  
R08  20083606.144 2 107546867.990 3      3578.540          36.000    20083603.478 4  83647474.879 8      2783.002          29.000  
S23  36026381.970 1 189319903.632 3      -701.171          39.000  
J03  39135225.305 1 205656991.238 4      -645.845          38.000    39135219.728 2 160252174.086 7      -502.385          26.000  
G28  17054343.855 1  89621180.586 1      -617.084          48.000                                                                  
> 2021 12 15 13 51 02.9870000  0 32                     
G08  21647573.662 2 113758770.900 5     -4096.504          32.000                                                                  
G10  20030651.820 1 105261780.977 1      1108.514          44.000    20030649.855 4  82022168.804 8       864.459          29.000  
G13  17485959.263 1  91889325.652 1     -3160.565          49.000                                                                  
G14  17250478.487 1  90651862.281 1     -1953.969          48.000    17250474.080 1  70637805.462 3     -1521.774          37.000  
G15  17130923.519 1  90023601.855 1     -1847.021          48.000    17130919.763 2  70148249.338 4     -1439.669          34.000  
C25  22217664.130 1 115693204.894 2     -3947.324          41.000                                                                  
C19  20208900.546 1 105233050.123 1      1041.711          48.000                                                                  
C10  33835141.482 1 176188457.424 1     -1079.813          44.000    33835133.735 2 136240058.977 5      -835.397          33.000  
C07  34527244.676 1 179792423.471 1     -1517.127          43.000    34527233.702 2 139026858.877 5     -1172.901          32.000  
C11  20782636.932 1 108220641.388 2       945.157          42.000    20782629.684 2  83683033.413 5       730.794          33.000  
C20  19659888.725 1 102374202.094 1     -2021.775          49.000                                                                  
R06  16601393.478 1  88588223.323 2     -3278.232          41.000                                                                  
R09  18837040.182 1 100588743.089 1      3264.688          47.000    18837041.647 2  78235713.162 3      2540.032          37.000  
R15  16829762.894 1  89933149.835 1     -3707.501          50.000    16829763.205 1  69948011.977 2     -2883.752          41.000  
R24  17940834.080 1  95937698.384 1     -1323.448          47.000    17940832.702 2  74618196.269 4     -1029.466          34.000  
G17  19143669.851 1 100600648.789 2      1915.045          42.000    19143664.363 2  78390103.548 6      1492.712          29.000  
G21  20710175.589 1 108832697.450 2       216.789          39.000                                                                  
G23  18955107.974 1  99609765.831 2     -1160.530          38.000    18955103.377 2  77617974.119 5      -903.999          32.000  
G24  18462391.043 1  97020519.528 1      2473.551          45.000    18462389.661 1  75600398.427 3      1927.374          36.000  
G30  20046703.602 1 105346125.215 2     -4142.590          41.000    20046699.821 2  82087883.806 7     -3227.979          28.000  
C23  18677870.824 1  97260574.669 1     -2116.688          51.000                                                                  
C12  21355232.239 1 111202293.873 3     -1990.902          37.000    21355224.797 2  85988638.073 7     -1539.395          29.000  
C32  22086076.409 1 115007996.330 4     -4194.158          34.000                                                                  
C34  20757896.337 1 108091811.915 1      -517.678          47.000                                                                  
C37  18838876.536 1  98098973.150 1      1042.926          50.000                                                                  
R23  19591300.733 1 104800262.109 2     -4166.017          40.000                                                                  
R17  18306754.728 1  97963138.792 1      2450.160          46.000    18306753.706 2  76193551.466 3      1905.566          38.000  
R07  16727063.250 1  89541280.292 1      1075.000          50.000    16727063.144 1  69643215.129 1       835.979          43.000  
R08  20082937.662 2 107543289.620 4      3578.339          34.000    20082935.257 4  83644691.745 8      2782.789          29.000  
S23  36026515.388 1 189320604.404 3      -700.734          39.000  
J03  39135348.075 1 205657636.875 4      -645.461          38.000    39135342.690 2 160252677.084 8      -503.206          26.000  
G28  17054461.371 1  89621797.894 1      -617.615          48.000                                                                  
> 2021 12 15 13 51 03.9870000  0 32                     
G08  21648353.578 2 113762868.573 5     -4097.980          33.000                                                                  
G10  20030440.926 1 105260672.999 1      1107.440          44.000    20030439.055 2  82021305.454 8       863.245          29.000  
G13  17486560.794 1  91892486.822 1     -3161.693          49.000                                                                  
G14  17250850.398 1  90653816.446 1     -1954.659          49.000    17250845.992 1  70639328.229 3     -1523.305          37.000  
G15  17131275.127 1  90025449.599 1     -1848.490          48.000    17131271.407 2  70149689.146 4     -1440.826          34.000  
C25  22218422.181 1 115697152.578 2     -3948.361          39.000                                                                  
C19  20208700.559 1 105232008.888 1      1040.724          47.000                                                                  
C10  33835349.003 1 176189537.499 1     -1080.511          44.000    33835341.033 2 136240894.105 5      -835.215          32.000  
C07  34527536.035 1 179793940.760 1     -1517.820          43.000    34527525.081 2 139028032.107 6     -1173.224          32.000  
C11  20782455.456 1 108219696.464 2       944.606          41.000    20782448.358 2  83682302.723 5       730.590          33.000  
C20  19660277.049 1 102376224.481 1     -2022.927          49.000                                                                  
R06  16602007.788 1  88591501.556 2     -3278.859          41.000                                                                  
R09  18836428.843 1 100585478.446 1      3264.182          47.000    18836430.193 2  78233174.039 3      2538.624          37.000  
R15  16830456.768 1  89936857.824 1     -3708.478          50.000    16830457.172 1  69950895.981 1     -2884.412          41.000  
R24  17941081.649 1  95939022.291 1     -1324.979          45.000    17941080.521 2  74619225.949 3     -1030.183          36.000  
G17  19143305.631 1 100598734.383 2      1913.896          42.000    19143300.127 2  78388611.833 7      1490.598          29.000  
G21  20710134.401 1 108832480.817 2       216.264          39.000                                                                  
G23  18955328.939 1  99610926.690 3     -1161.645          37.000    18955324.368 2  77618878.726 4      -905.869          32.000  
G24  18461920.433 1  97018046.274 1      2472.768          44.000    18461919.007 1  75598471.179 4      1927.021          36.000  
G30  20047491.936 1 105350267.943 2     -4143.274          41.000    20047488.162 2  82091111.901 7     -3228.223          28.000  
C23  18678277.455 1  97262691.621 1     -2117.347          51.000                                                                  
C12  21355614.576 1 111204284.978 2     -1991.589          38.000    21355607.337 2  85990177.717 8     -1539.540          30.000  
C32  22086881.946 1 115012190.608 4     -4194.718          34.000                                                                  
C34  20757995.846 1 108092329.944 1      -518.394          47.000                                                                  
C37  18838676.338 1  98097930.518 1      1042.122          51.000                                                                  
R23  19592079.664 1 104804428.608 2     -4167.149          39.000                                                                  
R17  18306296.945 1  97960689.127 1      2448.787          46.000    18306295.898 2  76191646.145 2      1904.963          38.000  
R07  16726862.455 1  89540205.878 1      1073.654          50.000    16726862.517 1  69642379.458 1       835.161          43.000  
R08  20082269.331 2 107539711.622 4      3577.527          35.000    20082266.827 4  83641908.893 8      2782.556          29.000  
S23  36026648.778 1 189321305.389 2      -701.460          39.000  
J03  39135470.998 1 205658282.662 4      -646.447          37.000    39135465.754 2 160253180.259 7      -503.444          28.000  
G28  17054579.025 1  89622415.952 1      -618.652          48.000                                                                  
> 2021 12 15 13 51 04.9870000  0 32                     
G08  21649133.611 2 113766966.831 7     -4098.507          32.000                                                                  
G10  20030230.331 1 105259565.911 2      1106.586          42.000    20030228.409 2  82020442.871 7       861.932          30.000  
G13  17487162.577 1  91895648.849 1     -3162.445          49.000                                                                  
G14  17251222.450 1  90655771.582 1     -1955.648          49.000    17251218.013 1  70640851.691 3     -1523.761          37.000  
G15  17131626.853 1  90027298.369 1     -1849.310          48.000    17131623.284 2  70151129.713 4     -1440.691          34.000  
C25  22219180.402 1 115701100.678 2     -3948.409          41.000                                                                  
C19  20208500.755 1 105230968.508 1      1039.921          47.000                                                                  
C10  33835556.429 1 176190618.002 1     -1080.785          45.000    33835548.471 2 136241729.687 5      -836.512          33.000  
C07  34527827.411 1 179795458.451 1     -1518.007          44.000    34527816.473 2 139029205.654 6     -1172.894          31.000  
C11  20782274.160 1 108218752.405 1       943.688          42.000    20782266.957 2  83681572.682 5       730.388          33.000  
C20  19660665.707 1 102378247.770 1     -2023.774          50.000                                                                  
R06  16602622.259 1  88594780.956 2     -3280.198          41.000                                                                  
R09  18835817.610 1 100582214.402 1      3263.656          47.000    18835818.892 2  78230635.362 2      2537.854          37.000  
R15  16831150.843 1  89940566.615 1     -3709.259          50.000    16831151.154 1  69953780.616 2     -2884.906          41.000  
R24  17941329.422 1  95940347.661 2     -1326.026          38.000    17941328.487 2  74620256.770 4     -1031.432          34.000  
G17  19142941.520 1 100596820.766 2      1913.155          42.000    19142936.002 4  78387120.652 7      1491.053          29.000  
G21  20710093.468 1 108832265.111 2       215.214          39.000                                                                  
G23  18955549.987 1  99612088.596 2     -1162.436          37.000    18955545.539 2  77619784.067 5      -906.331          33.000  
G24  18461449.941 1  97015573.720 1      2472.041          45.000    18461448.544 1  75596544.526 4      1926.431          36.000  
G30  20048280.347 1 105354411.194 2     -4143.604          41.000    20048276.587 2  82094340.433 7     -3228.772          28.000  
C23  18678684.113 1  97264809.359 1     -2118.077          50.000                                                                  
C12  21355997.106 1 111206277.101 3     -1992.560          35.000    21355989.849 2  85991718.083 7     -1540.592          29.000  
C32  22087687.292 1 115016385.343 4     -4195.049          35.000                                                                  
C34  20758095.434 1 108092848.969 1      -519.515          45.000                                                                  
C37  18838476.214 1  98096888.636 1      1041.598          51.000                                                                  
R23  19592858.664 1 104808596.039 2     -4167.963          41.000                                                                  
R17  18305839.280 1  97958240.502 1      2448.062          46.000    18305838.367 2  76189741.670 3      1903.915          38.000  
R07  16726661.911 1  89539132.633 1      1072.631          50.000    16726662.068 1  69641544.719 1       834.419          43.000  
R08  20081601.119 2 107536134.183 3      3577.142          37.000    20081598.759 4  83639126.498 8      2781.409          29.000  
S23  36026782.154 1 189322006.677 3      -700.948          39.000  
J03  39135593.932 1 205658928.760 3      -646.341          38.000    39135588.726 2               9      -503.470          26.000  
G28  17054696.762 1  89623034.924 1      -619.550          48.000                                                                  
> 2021 12 15 13 51 05.9870000  0 32                     
G08  21649913.571 2 113771065.662 7     -4099.370          34.000                                                                  
G10  20030019.768 1 105258459.656 2      1105.780          43.000    20030017.867 2  82019580.823 6       861.804          29.000  
G13  17487764.458 1  91898811.621 1     -3163.571          49.000                                                                  
G14  17251594.649 1  90657727.534 1     -1956.526          49.000    17251590.152 1  70642375.821 3     -1524.965          37.000  
G15  17131978.887 1  90029148.050 1     -1850.371          48.000    17131975.311 2  70152571.054 4     -1442.073          34.000  
C25  22219938.693 1 115705049.082 2     -3948.445          41.000                                                                  
C19  20208301.013 1 105229928.848 1      1039.246          48.000                                                                  
C10  33835763.987 1 176191698.862 1     -1081.050          44.000    33835756.087 2 136242565.409 5      -835.610          32.000  
C07  34528118.964 1 179796976.487 2     -1518.346          42.000    34528108.028 2 139030379.543 6     -1174.758          31.000  
C11  20782093.033 1 108217809.136 2       942.761          42.000    20782085.762 2  83680843.322 5       729.049          33.000  
C20  19661054.529 1 102380271.854 1     -2024.593          49.000                                                                  
R06  16603237.038 1  88598061.354 2     -3281.435          41.000                                                                  
R09  18835206.381 1 100578950.812 1      3263.156          47.000    18835207.653 2  78228097.002 3      2537.724          37.000  
R15  16831845.045 1  89944276.148 1     -3710.004          51.000    16831845.398 1  69956665.800 2     -2885.656          41.000  
R24  17941577.491 1  95941673.920 2     -1327.236          46.000    17941576.515 2  74621288.293 4     -1032.172          34.000  
G17  19142577.473 1 100594907.799 2      1912.369          42.000    19142572.136 4               9      1490.889          29.000  
G21  20710052.611 1 108832050.163 2       214.209          39.000                                                                  
G23  18955771.326 1  99613251.403 2     -1163.257          38.000    18955766.872 2  77620690.161 5      -906.976          33.000  
G24  18460979.528 1  97013101.710 1      2471.487          45.000    18460978.264 1  75594618.314 4      1925.827          36.000  
G30  20049068.894 1 105358554.879 2     -4143.976          41.000    20049065.229 2  82097569.226 7     -3228.815          28.000  
C23  18679090.854 1  97266927.726 1     -2118.875          51.000                                                                  
C12  21356379.749 1 111208269.875 3     -1993.133          36.000    21356372.516 2  85993259.083 7     -1541.474          28.000  
C32  22088492.907 1 115020580.430 4     -4195.757          34.000                                                                  
C34  20758195.243 1 108093368.804 1      -520.597          48.000                                                                  
C37  18838276.304 1  98095847.366 1      1040.911          51.000                                                                  
R23  19593637.827 1 104812764.216 2     -4168.914          40.000                                                                  
R17  18305381.895 1  97955792.772 1      2447.318          47.000    18305380.880 2  76187837.879 3      1903.312          38.000  
R07  16726461.665 1  89538060.427 1      1071.530          51.000    16726461.745 1  69640710.784 1       833.192          43.000  
R08  20080933.076 2 107532557.306 3      3576.093          34.000    20080930.681 4  83636344.441 8      2781.464          29.000  
S23  36026915.599 1 189322708.235 3      -701.995          39.000  
J03  39135717.029 1 205659575.195 4      -646.506          38.000    39135711.752 2               9      -503.074          26.000  
G28  17054814.703 1  89623654.709 1      -620.410          48.000                                                                  
> 2021 12 15 13 51 06.9870000  0 32                     
G08  21650693.726 2 113775164.974 8     -4099.342          32.000                                                                  
G10  20029809.452 1 105257354.347 1      1104.877          43.000    20029807.614 2  82018719.507 6       861.151          29.000  
G13  17488366.479 1  91901975.238 1     -3163.945          49.000                                                                  
G14  17251966.990 1  90659684.411 1     -1957.316          49.000    17251962.491 1  70643900.644 3     -1525.259          37.000  
G15  17132331.090 1  90030998.753 1     -1851.224          49.000    17132327.354 2  70154013.144 4     -1442.198          34.000  
C25  22220697.058 1 115708997.933 2     -3949.101          41.000                                                                  
C19  20208101.535 1 105228890.038 1      1038.596          47.000                                                                  
C10  33835971.630 1 176192780.151 1     -1081.560          44.000    33835963.637 2 136243401.581 6      -836.249          32.000  
C07  34528410.511 1 179798494.968 2     -1518.684          43.000    34528399.451 2 139031553.664 5     -1174.370          32.000  
C11  20781912.086 1 108216866.678 1       942.010          43.000    20781904.622 2  83680114.597 5       728.243          32.000  
C20  19661443.277 1 102382296.807 1     -2025.325          49.000                                                                  
R06  16603852.035 1  88601342.868 2     -3281.878          41.000                                                                  
R09  18834595.422 1 100575687.767 1      3262.958          47.000    18834596.455 2  78225559.089 3      2537.818          37.000  
R15  16832539.452 1  89947986.446 1     -3710.693          51.000    16832539.767 1  69959551.596 2     -2885.974          41.000  
R24  17941825.825 1  95943001.611 1     -1328.350          43.000    17941824.874 2  74622321.004 4     -1033.503          34.000  
G17  19142213.641 1 100592995.576 2      1911.930          42.000    19142208.351 2  78384140.026 8      1489.855          29.000  
G21  20710011.881 1 108831836.076 2       213.663          40.000                                                                  
G23  18955992.798 1  99614415.280 2     -1164.112          37.000    18955988.328 2  77621597.107 5      -907.683          33.000  
G24  18460509.369 1  97010630.351 1      2471.156          45.000    18460507.975 1  75592692.576 4      1925.334          35.000  
G30  20049857.513 1 105362699.070 2     -4144.141          41.000    20049853.955 2  82100798.497 7     -3229.346          28.000  
C23  18679497.778 1  97269046.813 1     -2119.372          50.000                                                                  
C12  21356762.639 1 111210263.622 3     -1994.109          37.000    21356755.245 2  85994800.756 6     -1541.534          29.000  
C32  22089298.708 1 115024775.997 4     -4195.817          34.000                                                                  
C34  20758295.301 1 108093889.539 1      -521.146          46.000                                                                  
C37  18838076.442 1  98094806.828 1      1040.153          50.000                                                                  
R23  19594417.182 2 104816933.329 2     -4169.369          39.000                                                                  
R17  18304924.712 1  97953345.991 1      2446.473          47.000    18304923.707 2  76185934.836 2      1902.472          38.000  
R07  16726261.609 1  89536989.378 1      1070.598          50.000    16726261.710 1  69639877.736 2       832.603          43.000  
R08  20080264.915 2 107528980.938 4      3575.916          35.000    20080262.837 4               9      2782.203          28.000  
S23  36027049.182 1 189323410.141 2      -701.982          39.000  
J03  39135840.115 1 205660221.972 4      -647.428          37.000    39135834.725 2 160254691.454 8      -503.592          27.000  
G28  17054932.769 1  89624275.411 1      -621.143          48.000                                                                  
> 2021 12 15 13 51 07.9870000  0 32                     
G08  21651473.986 2 113779264.907 7     -4100.657          31.000                                                                  
G10  20029599.260 1 105256249.860 2      1103.973          43.000    20029597.527 2  82017858.933 7       859.027          29.000  
G13  17488968.684 1  91905139.668 1     -3165.005          49.000                                                                  
G14  17252339.629 1  90661642.168 1     -1958.349          49.000    17252335.065 1  70645426.177 3     -1526.028          37.000  
G15  17132683.406 1  90032850.431 1     -1852.349          49.000    17132679.902 2  70155456.020 4     -1443.401          34.000  
C25  22221455.361 1 115712947.154 2     -3949.497          41.000                                                                  
C19  20207902.022 1 105227852.013 1      1037.587          47.000                                                                  
C10  33836179.428 1 176193861.805 1     -1082.006          45.000    33836171.432 2 136244237.974 5      -836.164          32.000  
C07  34528702.220 1 179800013.778 1     -1519.062          44.000    34528691.077 2 139032728.116 5     -1173.944          32.000  
C11  20781731.231 1 108215925.031 1       940.955          42.000    20781723.742 2  83679386.441 4       727.687          33.000  
C20  19661832.282 1 102384322.616 1     -2026.283          49.000                                                                  
R06  16604467.224 1  88604625.444 2     -3283.150          41.000                                                                  
R09  18833984.384 1 100572425.251 1      3262.118          47.000    18833985.530 2  78223021.577 3      2537.215          37.000  
R15  16833233.960 1  89951697.472 1     -3711.481          50.000    16833234.324 1  69962437.950 2     -2886.731          42.000  
R24  17942074.437 1  95944330.544 1     -1329.655          43.000    17942073.400 2  74623354.603 4     -1034.198          33.000  
G17  19141850.032 1 100591084.071 2      1911.001          42.000    19141844.710 2  78382650.543 7      1489.076          29.000  
G21  20709971.336 1 108831622.856 2       212.597          39.000                                                                  
G23  18956214.496 1  99615580.134 2     -1165.267          38.000    18956210.084 2  77622504.792 5      -908.324          33.000  
G24  18460039.255 1  97008159.623 1      2470.338          45.000    18460037.851 1  75590767.325 3      1925.154          35.000  
G30  20050646.240 1 105366843.741 2     -4145.172          41.000    20050642.713 2  82104028.097 7     -3229.651          28.000  
C23  18679904.870 1  97271166.608 1     -2120.201          50.000                                                                  
C12  21357145.672 1 111212258.182 3     -1994.975          37.000    21357138.337 2  85996343.077 5     -1542.605          29.000  
C32  22090104.571 1 115028971.961 4     -4196.274          34.000                                                                  
C34  20758395.504 1 108094411.198 1      -521.988          45.000                                                                  
C37  18837876.802 1  98093766.941 1      1039.436          51.000                                                                  
R23  19595196.702 2 104821103.268 2     -4170.355          39.000                                                                  
R17  18304467.538 1  97950900.123 1      2445.220          47.000    18304466.585 2  76184032.479 2      1901.944          38.000  
R07  16726061.827 1  89535919.465 1      1069.378          50.000    16726061.719 1  69639045.579 1       831.737          43.000  
R08  20079596.903 2 107525405.130 3      3575.769          38.000    20079595.030 4               9      2781.732          27.000  
S23  36027182.797 1 189324112.333 3      -702.217          39.000  
J03  39135963.193 1 205660869.093 5      -647.254          36.000    39135957.920 2 160255195.756 7      -504.469          27.000  
G28  17055051.030 1  89624896.978 1      -622.003          48.000                                                                  
> 2021 12 15 13 51 08.9870000  0 32                     
G08  21652254.419 2 113783365.442 6     -4100.791          31.000                                                                  
G10  20029389.259 1 105255146.393 2      1103.149          43.000    20029387.484 2  82016999.070 6       859.253          29.000  
G13  17489571.084 1  91908304.967 1     -3165.700          49.000                                                                  
G14  17252712.329 1  90663600.878 1     -1959.131          49.000    17252707.729 1  70646952.431 3     -1526.019          37.000  
G15  17133036.032 1  90034703.156 1     -1853.127          49.000    17133032.558 2  70156899.683 4     -1443.697          34.000  
C25  22222213.827 1 115716896.826 2     -3949.869          41.000                                                                  
C19  20207702.971 1 105226814.850 1      1036.947          48.000                                                                  
C10  33836387.414 1 176194943.948 1     -1082.325          44.000    33836379.088 2 136245074.743 5      -836.810          32.000  
C07  34528994.003 1 179801533.063 2     -1519.343          44.000    34528982.880 2 139033902.957 6     -1175.229          32.000  
C11  20781550.476 1 108214984.291 2       940.354          42.000    20781543.035 2  83678658.979 5       727.264          33.000  
C20  19662221.434 1 102386349.315 1     -2027.077          49.000                                                                  
R06  16605082.553 1  88607909.136 2     -3284.145          41.000                                                                  
R09  18833373.543 1 100569163.317 1      3261.877          47.000    18833374.580 2  78220484.520 2      2536.986          37.000  
R15  16833928.549 1  89955409.308 1     -3712.048          51.000    16833928.780 1  69965324.925 2     -2887.347          42.000  
R24  17942323.181 1  95945660.750 1     -1330.643          43.000    17942322.267 2  74624389.220 5     -1035.356          33.000  
G17  19141486.501 1 100589173.344 1      1910.620          43.000    19141481.222 2  78381161.629 7      1489.074          29.000  
G21  20709930.989 1 108831410.527 2       211.824          39.000                                                                  
G23  18956436.346 1  99616746.066 2     -1166.430          39.000    18956431.911 2  77623413.272 4      -909.139          33.000  
G24  18459569.282 1  97005689.587 1      2469.866          45.000    18459567.834 1  75588842.625 4      1924.527          36.000  
G30  20051435.122 1 105370988.939 2     -4145.239          41.000    20051431.505 2  82107258.156 7     -3229.858          29.000  
C23  18680312.005 1  97273287.161 1     -2120.784          50.000                                                                  
C12  21357528.845 1 111214253.622 3     -1995.539          36.000    21357521.471 2  85997886.092 6     -1542.938          28.000  
C32  22090910.536 1 115033168.452 4     -4196.292          34.000                                                                  
C34  20758495.811 1 108094933.831 1      -523.042          47.000                                                                  
C37  18837677.262 1  98092727.796 1      1038.925          50.000                                                                  
R23  19595976.454 2 104825274.211 2     -4171.402          41.000                                                                  
R17  18304010.635 1  97948455.279 1      2444.604          46.000    18304009.751 2  76182130.944 2      1901.339          38.000  
R07  16725862.164 1  89534850.796 1      1068.255          50.000    16725862.155 1  69638214.392 2       830.675          43.000  
R08  20078929.224 2 107521829.917 3      3574.738          35.000    20078927.395 4  83628000.910 8      2780.536          28.000  
S23  36027316.523 1 189324814.915 3      -703.115          39.000  
J03  39136086.354 1 205661516.645 4      -647.866          38.000    39136081.298 2 160255700.286 8      -504.387          27.000  
G28  17055169.419 1  89625519.488 1      -622.839          48.000                                                                  
> 2021 12 15 13 51 09.9870000  0 32                     
G08  21653034.718 2 113787466.376 7     -4101.121          31.000                                                                  
G10  20029179.387 1 105254043.586 2      1102.283          43.000    20029177.624 2  82016139.745 7       858.710          29.000  
G13  17490173.539 1  91911470.890 1     -3166.238          49.000                                                                  
G14  17253085.186 1  90665560.287 1     -1959.796          48.000    17253080.598 1  70648479.244 3     -1526.959          37.000  
G15  17133388.873 1  90036556.655 1     -1853.899          48.000    17133385.287 2  70158343.944 4     -1443.822          34.000  
C25  22222972.304 1 115720846.697 2     -3949.913          41.000                                                                  
C19  20207503.920 1 105225778.303 1      1036.093          48.000                                                                  
C10  33836595.239 1 176196026.295 1     -1082.515          44.000    33836587.029 2 136245911.709 5      -837.043          32.000  
C07  34529285.743 1 179803052.541 1     -1519.844          43.000    34529274.750 2 139035077.866 5     -1174.742          32.000  
C11  20781370.074 1 108214044.178 2       939.743          42.000    20781362.402 2  83677932.019 5       726.710          32.000  
C20  19662610.770 1 102388376.691 1     -2027.741          49.000                                                                  
R06  16605698.072 1  88611193.705 2     -3284.801          41.000                                                                  
R09  18832762.727 1 100565901.718 1      3261.364          47.000    18832763.806 2  78217947.723 3      2536.631          37.000  
R15  16834623.402 1  89959121.685 1     -3712.683          50.000    16834623.418 1  69968212.338 2     -2887.658          42.000  
R24  17942572.060 1  95946991.992 1     -1331.784          46.000    17942571.260 2  74625424.592 4     -1035.800          34.000  
G17  19141123.093 1 100587263.170 2      1909.823          43.000    19141117.823 2  78379673.224 6      1488.271          29.000  
G21  20709890.815 1 108831198.862 2       211.293          41.000                                                                  
G23  18956658.417 1  99617912.780 3     -1167.199          39.000    18956653.924 2  77624322.394 4      -908.993          33.000  
G24  18459099.334 1  97003219.999 1      2469.342          45.000    18459097.877 1  75586918.276 3      1924.028          36.000  
G30  20052223.925 1 105375134.444 2     -4145.654          41.000    20052220.374 2  82110488.396 7     -3230.438          28.000  
C23  18680719.370 1  97275408.240 1     -2121.387          50.000                                                                  
C12  21357912.203 1 111216249.758 3     -1996.773          36.000    21357904.872 2  85999429.668 7     -1544.001          28.000  
C32  22091716.300 1 115037365.085 4     -4196.414          34.000                                                                  
C34  20758596.442 1 108095457.184 1      -523.814          47.000                                                                  
C37  18837477.790 1  98091689.179 1      1038.282          51.000                                                                  
R23  19596756.311 1 104829445.773 2     -4172.054          41.000                                                                  
R17  18303553.845 1  97946011.205 1      2443.627          46.000    18303553.015 2  76180230.009 2      1900.461          38.000  
R07  16725662.759 1  89533783.109 1      1067.180          50.000    16725662.708 1  69637383.947 2       829.985          42.000  
R08  20078261.396 2 107518255.056 4      3574.689          35.000    20078259.799 4  83625220.442 7      2780.170          28.000  
S23  36027450.192 1 189325517.607 3      -702.764          38.000  
J03  39136209.679 1 205662164.317 3      -648.298          39.000    39136204.663 2 160256204.984 8      -504.892          27.000  
G28  17055287.987 1  89626142.684 1      -623.566          48.000                                                                  
> 2021 12 15 13 51 10.9870000  0 32                     
G08  21653815.200 2 113791567.760 7     -4102.305          30.000                                                                  
G10  20028969.719 1 105252941.523 2      1101.666          43.000    20028967.797 2  82015280.961 6       858.472          29.000  
G13  17490776.145 1  91914637.483 1     -3166.842          49.000                                                                  
G14  17253458.262 1  90667520.440 1     -1960.383          48.000    17253453.601 1  70650006.672 3     -1527.979          37.000  
G15  17133741.840 1  90038411.007 1     -1854.662          48.000    17133738.106 2  70159788.922 4     -1445.076          34.000  
C25  22223730.827 1 115724796.797 2     -3950.313          41.000                                                                  
C19  20207304.954 1 105224742.410 1      1035.723          48.000                                                                  
C10  33836803.042 1 176197108.886 1     -1082.646          44.000    33836794.910 2 136246748.797 5      -836.888          32.000  
C07  34529577.555 1 179804572.229 2     -1519.827          43.000    34529566.654 2 139036253.043 5     -1175.670          32.000  
C11  20781189.704 1 108213104.726 2       939.234          42.000    20781181.754 2  83677205.574 5       727.018          32.000  
C20  19663000.351 1 102390404.777 1     -2028.384          49.000                                                                  
R06  16606313.686 1  88614479.187 2     -3285.873          41.000                                                                  
R09  18832151.971 1 100562640.486 1      3261.033          46.000    18832153.133 2  78215411.223 2      2536.068          37.000  
R15  16835318.220 1  89962834.690 1     -3713.257          50.000    16835318.307 1  69971100.207 2     -2887.848          41.000  
R24  17942821.169 1  95948324.263 1     -1332.677          45.000    17942820.392 2  74626460.817 4     -1036.664          34.000  
G17  19140759.761 1 100585353.561 2      1909.406          43.000    19140754.393 2  78378185.201 6      1487.695          29.000  
G21  20709850.640 1 108830987.885 2       210.774          40.000                                                                  
G23  18956880.630 1  99619080.399 3     -1168.104          38.000    18956876.097 2  77625232.196 5      -909.625          33.000  
G24  18458629.460 1  97000750.884 1      2469.098          45.000    18458628.062 1  75584994.303 4      1923.432          36.000  
G30  20053012.790 1 105379280.278 2     -4145.801          41.000    20053009.273 2  82113718.897 7     -3230.267          28.000  
C23  18681126.863 1  97277529.867 1     -2121.851          50.000                                                                  
C12  21358295.756 1 111218246.611 3     -1997.083          36.000    21358288.355 2  86000973.742 6     -1543.957          28.000  
C32  22092522.300 1 115041562.074 4     -4197.232          34.000                                                                  
C34  20758697.013 1 108095981.244 1      -524.232          47.000                                                                  
C37  18837278.424 1  98090651.075 1      1037.832          51.000                                                                  
R23  19597536.326 1 104833618.073 2     -4172.641          41.000                                                                  
R17  18303097.388 1  97943567.911 1      2443.054          46.000    18303096.353 2  76178329.669 3      1899.846          38.000  
R07  16725463.577 1  89532716.403 1      1066.288          50.000    16725463.455 1  69636554.286 2       829.590          42.000  
R08  20077593.602 2 107514680.550 3      3574.433          35.000    20077591.799 4  83622440.238 8      2780.213          27.000  
S23  36027583.957 1 189326220.459 3      -703.044          38.000  
J03  39136332.941 1 205662812.136 4      -647.453          39.000    39136327.912 2 160256709.787 8      -504.601          27.000  
G28  17055406.741 1  89626766.600 1      -624.200          48.000                                                                  
> 2021 12 15 13 51 11.9870000  0 32                     
G08  21654595.735 4               9     -4102.697          30.000                                                                  
G10  20028760.054 1 105251840.204 1      1100.745          43.000    20028758.101 2  82014422.745 6       858.234          29.000  
G13  17491378.829 1  91917804.757 1     -3167.793          49.000                                                                  
G14  17253831.446 1  90669481.361 1     -1961.510          48.000    17253826.750 1  70651534.615 3     -1528.002          37.000  
G15  17134094.831 1  90040266.203 1     -1855.947          48.000    17134091.067 2  70161234.504 4     -1445.840          34.000  
C25  22224489.467 1 115728747.160 2     -3950.647          41.000                                                                  
C19  20207106.078 1 105223707.212 1      1034.813          48.000                                                                  
C10  33837011.116 1 176198191.754 1     -1083.216          44.000    33837002.928 2 136247586.161 5      -837.580          32.000  
C07  34529869.480 1 179806092.181 1     -1520.284          43.000    34529858.328 2 139037428.345 5     -1175.427          32.000  
C11  20781009.445 1 108212165.978 1       938.230          42.000    20781001.453 2  83676479.694 6       725.983          33.000  
C20  19663390.045 1 102392433.577 1     -2029.329          49.000                                                                  
R06  16606929.521 1  88617765.616 2     -3286.896          41.000                                                                  
R09  18831541.430 1 100559379.663 1      3260.507          47.000    18831542.324 2  78212875.001 3      2536.045          37.000  
R15  16836013.236 1  89966548.308 1     -3714.111          51.000    16836013.290 1  69973988.601 2     -2888.715          41.000  
R24  17943070.413 1  95949657.639 1     -1334.111          45.000    17943069.787 2  74627497.874 5     -1037.288          34.000  
G17  19140396.517 1 100583444.539 1      1908.577          42.000    19140391.299 2  78376697.638 6      1487.333          29.000  
G21  20709810.729 1 108830777.617 2       209.677          39.000                                                                  
G23  18957102.915 1  99620248.866 2     -1169.340          39.000    18957098.562 2  77626142.717 5      -911.033          33.000  
G24  18458159.717 1  96998282.278 1      2468.140          45.000    18458158.266 1  75583070.681 3      1923.402          36.000  
G30  20053801.714 1 105383426.465 3     -4146.362          41.000    20053798.382 2  82116949.700 7     -3230.841          28.000  
C23  18681534.568 1  97279652.070 1     -2122.715          51.000                                                                  
C12  21358679.375 1 111220244.211 3     -1998.107          36.000    21358671.983 2  86002518.401 6     -1544.706          28.000  
C32  22093328.310 1 115045759.339 4     -4197.448          34.000                                                                  
C34  20758797.851 1 108096506.089 1      -525.338          47.000                                                                  
C37  18837079.164 1  98089613.544 1      1037.072          51.000                                                                  
R23  19598316.439 1 104837791.112 2     -4173.599          39.000                                                                  
R17  18302640.873 1  97941125.438 1      2441.901          46.000    18302639.951 2  76176429.964 2      1899.292          38.000  
R07  16725264.534 1  89531650.715 1      1065.043          50.000    16725264.391 1  69635725.435 1       828.330          43.000  
R08  20076925.961 2 107511106.448 4      3573.810          36.000    20076924.234 4  83619660.450 8      2779.810          27.000  
S23  36027717.737 1 189326923.398 3      -703.057          39.000  
J03  39136456.256 1 205663460.200 4      -648.203          38.000    39136451.166 2 160257214.764 8      -505.252          27.000  
G28  17055525.601 1  89627391.284 1      -625.293          48.000                                                                  
> 2021 12 15 13 51 12.9870000  0 33                     
G19  20819257.450 9               9      3212.840          25.000                                                                  
G08  21655376.220 2 113799771.905 8     -4102.859          29.000                                                                  
G10  20028550.554 1 105250739.833 1      1100.146          43.000    20028548.865 2  82013565.318 6       857.434          29.000  
G13  17491981.734 1  91920972.888 1     -3168.337          49.000                                                                  
G14  17254204.833 1  90671443.222 1     -1962.180          49.000    17254200.070 1  70653063.352 3     -1528.890          37.000  
G15  17134448.151 1  90042122.427 1     -1856.563          48.000    17134444.238 2  70162680.935 4     -1446.774          34.000  
C25  22225248.187 1 115732697.947 2     -3950.825          41.000                                                                  
C19  20206907.350 1 105222672.841 1      1034.171          48.000                                                                  
C10  33837219.127 1 176199275.088 1     -1083.516          45.000    33837210.874 2 136248423.824 5      -838.096          32.000  
C07  34530161.520 1 179807612.569 2     -1520.318          43.000    34530150.284 2 139038604.035 6     -1176.343          32.000  
C11  20780829.481 1 108211228.090 1       937.448          43.000    20780821.287 2  83675754.448 5       725.032          33.000  
C20  19663779.550 1 102394463.282 1     -2029.870          49.000                                                                  
R06  16607545.578 1  88621053.160 2     -3287.719          41.000                                                                  
R09  18830930.920 1 100556119.463 1      3260.018          47.000    18830931.748 2  78210339.309 3      2535.594          37.000  
R15  16836708.330 1  89970262.725 1     -3714.557          51.000    16836708.491 1  69976877.591 2     -2889.117          41.000  
R24  17943319.964 1  95950992.313 1     -1335.073          44.000    17943319.494 2  74628535.989 4     -1038.870          33.000  
G17  19140033.260 1 100581536.311 1      1907.923          42.000    19140028.240 2  78375210.754 6      1486.406          29.000  
G21  20709770.957 1 108830568.268 2       208.979          39.000                                                                  
G23  18957325.405 1  99621418.373 2     -1170.035          39.000    18957321.141 2  77627054.001 4      -911.411          33.000  
G24  18457690.013 1  96995814.350 1      2467.708          45.000    18457688.757 1  75581147.647 4      1922.513          36.000  
G30  20054590.913 1 105387573.209 3     -4146.966          41.000    20054587.571 2  82120180.949 7     -3231.799          28.000  
C23  18681942.151 1  97281775.022 1     -2123.126          50.000                                                                  
C12  21359063.057 1 111222242.697 3     -1998.410          36.000    21359055.765 2  86004063.760 6     -1545.546          28.000  
C32  22094134.450 1 115049957.083 4     -4197.389          33.000                                                                  
C34  20758898.714 1 108097031.882 1      -526.140          47.000                                                                  
C37  18836879.918 1  98088576.742 1      1036.614          50.000                                                                  
R23  19599096.658 2 104841965.039 2     -4174.263          39.000                                                                  
R17  18302184.504 1  97938683.928 1      2441.211          46.000    18302183.734 2  76174531.005 2      1898.608          39.000  
R07  16725065.631 1  89530586.206 1      1064.147          50.000    16725065.565 1  69634897.486 1       827.500          43.000  
R08  20076258.443 2 107507533.050 4      3573.181          36.000    20076256.925 4  83616881.109 8      2779.267          28.000  
S23  36027851.615 1 189327626.764 3      -703.314          39.000  
J03  39136579.592 1 205664108.685 4      -648.906          38.000    39136574.632 2 160257720.045 8      -505.432          27.000  
G28  17055644.644 1  89628016.860 1      -625.836          48.000                                                                  
> 2021 12 15 13 51 13.9870000  0 33                     
G19  20818648.367 9               9      3211.884          25.000                                                                  
G08  21656156.864 2 113803874.603 6     -4103.002          29.000                                                                  
G10  20028341.296 1 105249640.092 2      1099.579          43.000    20028339.510 2  82012708.376 6       856.818          30.000  
G13  17492584.779 1  91924141.578 1     -3168.860          49.000                                                                  
G14  17254578.269 1  90673405.708 1     -1962.641          49.000    17254573.493 1  70654592.590 3     -1529.345          38.000  
G15  17134801.541 1  90043979.365 1     -1857.087          48.000    17134797.688 2  70164127.892 4     -1446.526          34.000  
C25  22226006.989 1 115736648.875 2     -3950.936          41.000                                                                  
C19  20206708.896 1 105221639.031 1      1033.501          48.000                                                                  
C10  33837427.138 1 176200358.555 1     -1083.609          44.000    33837418.998 2 136249261.615 4      -837.446          32.000  
C07  34530453.604 1 179809133.094 2     -1520.439          43.000    34530442.148 2 139039779.774 5     -1175.799          32.000  
C11  20780649.530 1 108210290.765 1       937.135          43.000    20780641.444 2  83675029.662 5       724.315          33.000  
C20  19664169.487 1 102396493.582 1     -2030.455          49.000                                                                  
R06  16608161.799 1  88624341.528 2     -3288.813          41.000                                                                  
R09  18830320.358 1 100552859.480 1      3259.997          47.000    18830321.232 2  78207803.760 3      2535.651          37.000  
R15  16837403.465 1  89973977.618 1     -3714.996          51.000    16837403.668 1  69979766.949 2     -2889.410          41.000  
R24  17943569.834 1  95952328.008 1     -1336.144          43.000    17943569.277 2  74629574.868 5     -1039.817          33.000  
G17  19139670.124 1 100579628.537 1      1907.637          42.000    19139665.130 2  78373724.146 6      1486.402          29.000  
G21  20709731.226 1 108830359.488 2       208.936          39.000                                                                  
G23  18957548.070 1  99622588.625 2     -1170.675          39.000    18957543.866 1  77627965.922 4      -912.528          33.000  
G24  18457220.542 1  96993346.782 1      2467.480          45.000    18457219.143 1  75579224.850 3      1923.008          36.000  
G30  20055380.086 1 105391720.151 3     -4147.083          41.000    20055376.839 2  82123412.323 6     -3231.409          28.000  
C23  18682349.902 1  97283898.416 1     -2123.529          50.000                                                                  
C12  21359446.944 1 111224241.780 3     -1999.231          36.000    21359439.647 2  86005609.593 7     -1546.046          28.000  
C32  22094940.595 1 115054154.999 4     -4197.587          34.000                                                                  
C34  20758999.810 1 108097558.320 1      -526.748          47.000                                                                  
C37  18836680.900 1  98087540.362 1      1036.190          50.000                                                                  
R23  19599877.012 2 104846139.595 2     -4174.749          40.000                                                                  
R17  18301728.354 1  97936243.105 1      2440.619          46.000    18301727.580 2  76172632.581 3      1898.390          39.000  
R07  16724866.882 1  89529522.563 1      1063.281          50.000    16724866.877 1  69634070.204 1       827.014          43.000  
R08  20075590.958 2 107503959.908 3      3573.505          36.000    20075589.567 4  83614102.029 7      2779.010          28.000  
S23  36027985.554 1 189328330.129 2      -703.541          39.000  
J03  39136703.039 1 205664757.194 4      -648.704          37.000    39136698.102 2 160258225.437 8      -505.603          27.000  
G28  17055763.739 1  89628643.075 1      -626.447          48.000                                                                  
> 2021 12 15 13 51 14.9870000  0 33                     
G19  20818043.980 9               9      3211.623          25.000                                                                  
G08  21656937.640 2 113807977.746 7     -4103.707          29.000                                                                  
G10  20028132.212 1 105248541.105 2      1098.267          43.000    20028130.396 2  82011852.053 7       856.024          29.000  
G13  17493187.845 1  91927310.965 1     -3169.923          49.000                                                                  
G14  17254951.863 1  90675368.995 1     -1964.116          48.000    17254947.008 1  70656122.391 3     -1530.152          37.000  
G15  17135154.996 1  90045837.180 1     -1858.513          48.000    17135151.289 2  70165575.545 4     -1447.795          34.000  
C25  22226765.865 1 115740600.072 2     -3951.542          41.000                                                                  
C19  20206510.468 1 105220605.898 1      1032.559          48.000                                                                  
C10  33837635.239 1 176201442.281 1     -1083.683          44.000    33837627.043 2 136250099.675 5      -838.417          32.000  
C07  34530745.617 1 179810653.892 1     -1521.058          43.000    34530734.328 2 139040955.743 6     -1176.323          31.000  
C11  20780469.575 1 108209354.129 2       935.907          42.000    20780461.506 2  83674305.440 5       723.410          33.000  
C20  19664559.585 1 102398524.608 1     -2031.589          49.000                                                                  
R06  16608778.230 1  88627630.809 2     -3289.884          41.000                                                                  
R09  18829709.973 1 100549599.913 1      3259.192          46.000    18829710.931 2  78205268.555 3      2534.409          37.000  
R15  16838098.832 1  89977693.133 1     -3716.052          51.000    16838098.933 1  69982656.783 2     -2890.149          41.000  
R24  17943819.872 1  95953664.878 1     -1337.754          43.000    17943819.187 2  74630614.603 5     -1040.613          33.000  
G17  19139307.267 1 100577721.357 1      1907.018          43.000    19139302.212 2  78372238.067 5      1485.516          29.000  
G21  20709691.599 1 108830151.461 2       207.516          38.000                                                                  
G23  18957770.894 1  99623759.750 2     -1172.026          39.000    18957766.702 2  77628878.471 5      -913.210          33.000  
G24  18456751.096 1  96990879.736 1      2466.689          45.000    18456749.747 1  75577302.508 3      1921.718          36.000  
G30  20056169.320 1 105395867.441 2     -4147.320          41.000    20056166.022 2  82126643.974 6     -3231.683          29.000  
C23  18682757.851 1  97286022.407 1     -2124.675          50.000                                                                  
C12  21359830.973 1 111226241.629 3     -2000.205          36.000    21359823.508 2  86007156.038 6     -1547.110          28.000  
C32  22095746.848 1 115058353.200 3     -4198.274          34.000                                                                  
C34  20759101.084 1 108098085.548 1      -527.822          47.000                                                                  
C37  18836481.928 1  98086504.558 1      1035.380          50.000                                                                  
R23  19600657.549 1 104850314.881 2     -4176.400          40.000                                                                  
R17  18301272.394 1  97933803.125 1      2439.525          46.000    18301271.627 2  76170734.856 3      1896.659          38.000  
R07  16724668.388 1  89528459.939 1      1061.974          50.000    16724668.383 1  69633243.707 1       826.060          43.000  
R08  20074923.697 2 107500387.215 3      3572.425          37.000    20074922.303 4  83611323.230 7      2778.675          28.000  
S23  36028119.456 1 189329033.680 2      -703.760          39.000  
J03  39136826.589 1 205665405.901 4      -648.636          37.000    39136821.644 2 160258730.978 7      -506.180          27.000  
G28  17055883.028 1  89629270.052 1      -627.649          48.000                                                                  
> 2021 12 15 13 51 15.9870000  0 33                     
G19  20817431.630 9               9      3211.442          26.000                                                                  
G08  21657718.432 2 113812081.419 6     -4104.000          29.000                                                                  
G10  20027923.252 1 105247442.898 2      1098.303          42.000    20027921.522 4  82010996.308 8       855.133          29.000  
G13  17493791.115 1  91930481.043 1     -3170.048          49.000                                                                  
G14  17255325.602 1  90677333.017 1     -1964.065          48.000    17255320.869 1  70657652.811 3     -1530.457          37.000  
G15  17135508.644 1  90047695.844 1     -1858.787          48.000    17135505.012 2  70167023.892 5     -1449.536          34.000  
C25  22227524.721 1 115744551.545 2     -3951.302          41.000                                                                  
C19  20206312.310 1 105219573.441 1      1032.285          48.000                                                                  
C10  33837843.381 1 176202526.309 1     -1083.841          44.000    33837835.149 2 136250937.900 5      -838.072          33.000  
C07  34531037.708 1 179812174.957 2     -1520.754          43.000    34531026.437 2 139042131.901 6     -1175.776          31.000  
C11  20780289.711 1 108208418.190 2       935.929          42.000    20780281.773 2  83673581.661 5       723.957          33.000  
C20  19664949.829 1 102400556.361 1     -2031.896          49.000                                                                  
R06  16609394.929 1  88630921.057 2     -3290.385          41.000                                                                  
R09  18829099.570 1 100546340.731 1      3259.139          46.000    18829100.540 2  78202733.632 3      2534.819          37.000  
R15  16838794.162 1  89981409.271 1     -3716.168          51.000    16838794.437 1  69985547.095 1     -2890.106          41.000  
R24  17944070.037 1  95955002.838 1     -1338.220          43.000    17944069.371 2  74631655.250 4     -1041.064          34.000  
G17  19138944.485 1 100575814.809 2      1906.634          43.000    19138939.469 2  78370752.424 6      1485.387          29.000  
G21  20709652.102 1 108829944.176 2       206.942          38.000                                                                  
G23  18957993.847 1  99624931.749 3     -1171.847          39.000    18957989.778 2  77629791.745 5      -913.820          33.000  
G24  18456281.747 1  96988413.199 1      2466.607          45.000    18456280.338 1  75575380.508 3      1922.236          36.000  
G30  20056958.653 1 105400015.127 2     -4147.833          42.000    20056955.291 2  82129875.955 8     -3232.288          28.000  
C23  18683165.831 1  97288146.962 1     -2124.641          50.000                                                                  
C12  21360215.052 1 111228242.183 4     -2000.365          36.000    21360207.640 2  86008703.024 6     -1547.910          29.000  
C32  22096553.216 1 115062551.719 3     -4198.373          34.000                                                                  
C34  20759202.502 1 108098613.537 1      -528.008          47.000                                                                  
C37  18836283.239 1  98085469.319 1      1035.337          50.000                                                                  
R23  19601438.223 2 104854490.906 2     -4175.975          39.000                                                                  
R17  18300816.439 1  97931363.971 1      2439.105          46.000    18300815.835 2  76168837.714 3      1897.102          38.000  
R07  16724470.051 1  89527398.313 1      1061.347          50.000    16724470.057 1  69632418.000 1       825.494          43.000  
R08  20074256.443 2 107496814.960 3      3572.229          37.000    20074255.141 4               9      2778.321          27.000  
S23  36028253.391 1 189329737.393 3      -703.508          39.000  
J03  39136950.109 1 205666054.892 4      -648.819          38.000    39136945.229 2 160259236.649 7      -506.026          27.000  
G28  17056002.377 1  89629897.769 1      -627.832          48.000                                                                  
> 2021 12 15 13 51 16.9870000  0 33                     
G19  20816823.293 9               9      3210.512          26.000                                                                  
G08  21658499.405 2 113816185.566 5     -4104.894          30.000                                                                  
G10  20027714.417 1 105246345.507 2      1096.771          43.000    20027712.703 2  82010141.189 7       855.011          29.000  
G13  17494394.482 1  91933651.885 1     -3171.533          49.000                                                                  
G14  17255699.527 1  90679297.885 1     -1965.516          48.000    17255694.844 1  70659183.863 3     -1531.092          37.000  
G15  17135862.511 1  90049555.439 1     -1860.249          48.000    17135858.898 2  70168472.906 4     -1449.694          34.000  
C25  22228283.674 1 115748503.341 2     -3952.320          41.000                                                                  
C19  20206114.202 1 105218541.727 1      1031.097          48.000                                                                  
C10  33838051.675 1 176203610.677 1     -1084.720          44.000    33838043.269 2 136251776.430 6      -839.307          32.000  
C07  34531329.955 1 179813696.328 1     -1522.044          44.000    34531318.689 2 139043308.349 7     -1176.329          31.000  
C11  20780110.167 1 108207483.050 2       934.411          42.000    20780102.074 2  83672858.563 5       722.407          33.000  
C20  19665340.101 1 102402588.927 1     -2033.261          49.000                                                                  
R06  16610011.677 1  88634212.319 2     -3292.068          41.000                                                                  
R09  18828489.397 1 100543082.037 1      3258.066          47.000    18828490.273 2  78200199.114 3      2533.773          37.000  
R15  16839489.815 1  89985126.102 1     -3717.438          51.000    16839489.967 1  69988437.992 1     -2891.248          42.000  
R24  17944320.489 1  95956342.015 1     -1339.905          43.000    17944319.725 2  74632696.813 4     -1042.501          34.000  
G17  19138581.783 1 100573908.923 1      1905.156          43.000    19138576.621 2  78369267.312 5      1484.688          29.000  
G21  20709612.838 1 108829737.635 2       205.742          38.000                                                                  
G23  18958217.054 1  99626104.702 3     -1173.760          39.000    18958213.009 2  77630705.692 5      -914.175          33.000  
G24  18455812.505 1  96985947.242 1      2465.366          45.000    18455811.079 1  75573458.983 3      1921.011          36.000  
G30  20057748.031 1 105404163.259 2     -4148.700          41.000    20057744.776 2  82133108.220 6     -3232.483          28.000  
C23  18683573.780 1  97290272.180 1     -2125.811          50.000                                                                  
C12  21360599.493 1 111230243.557 3     -2001.863          35.000    21360591.810 2  86010250.618 6     -1548.588          28.000  
C32  22097359.533 1 115066750.604 4     -4199.260          34.000                                                                  
C34  20759304.022 1 108099142.394 1      -529.383          46.000                                                                  
C37  18836084.346 1  98084434.727 1      1034.010          51.000                                                                  
R23  19602219.105 2 104858667.759 2     -4177.604          39.000                                                                  
R17  18300360.749 1  97928925.723 1      2437.620          46.000    18300360.330 2  76166941.300 2      1895.739          38.000  
R07  16724271.991 1  89526337.784 1      1059.695          50.000    16724271.959 1  69631593.152 1       824.018          43.000  
R08  20073589.305 2 107493243.177 3      3570.856          37.000    20073588.101 4  83605766.827 8      2777.637          27.000  
S23  36028387.299 1 189330441.374 3      -704.194          39.000  
J03  39137073.642 1 205666704.135 3      -649.788          38.000    39137068.697 2 160259742.573 7      -506.375          27.000  
G28  17056122.079 1  89630526.327 1      -629.285          48.000                                                                  
> 2021 12 15 13 51 17.9870000  0 33                     
G19  20816212.725 8               9      3210.888          26.000                                                                  
G08  21659280.309 2 113820290.262 6     -4105.329          31.000                                                                  
G10  20027505.779 1 105245248.978 1      1096.143          44.000    20027504.037 2               9       854.132          28.000  
G13  17494997.948 1  91936823.510 1     -3171.805          49.000                                                                  
G14  17256073.563 1  90681263.624 1     -1966.107          48.000    17256068.928 1  70660715.630 3     -1532.149          38.000  
G15  17136216.528 1  90051416.002 1     -1860.978          48.000    17136213.118 2  70169922.688 4     -1450.411          34.000  
C25  22229042.677 1 115752455.475 2     -3952.134          41.000                                                                  
C19  20205916.284 1 105217510.784 1      1030.657          48.000                                                                  
C10  33838259.974 1 176204695.410 1     -1084.688          44.000    33838251.698 2 136252615.199 5      -838.469          32.000  
C07  34531622.159 1 179815218.065 1     -1521.740          43.000    34531610.942 2 139044485.053 5     -1176.701          32.000  
C11  20779930.728 1 108206548.664 1       934.277          42.000    20779922.586 2  83672136.014 5       722.833          33.000  
C20  19665730.642 1 102404622.303 1     -2033.617          49.000                                                                  
R06  16610628.661 1  88637504.592 2     -3292.534          41.000                                                                  
R09  18827879.166 1 100539823.819 1      3258.088          47.000    18827880.156 2  78197664.942 2      2534.011          37.000  
R15  16840185.470 1  89988843.649 1     -3717.719          51.000    16840185.692 1  69991329.422 2     -2891.797          41.000  
R24  17944571.135 1  95957682.338 1     -1340.788          44.000    17944570.305 2  74633739.302 4     -1043.035          34.000  
G17  19138219.277 1 100572003.727 1      1904.942          42.000    19138214.005 2  78367782.708 6      1484.827          29.000  
G21  20709573.715 1 108829531.929 2       205.431          38.000                                                                  
G23  18958440.551 1  99627278.607 3     -1173.931          39.000    18958436.415 2  77631620.450 5      -915.294          32.000  
G24  18455343.338 1  96983481.866 1      2465.336          45.000    18455341.939 1  75571537.938 3      1920.715          36.000  
G30  20058537.538 1 105408311.803 2     -4148.669          41.000    20058534.166 2  82136340.869 6     -3232.465          28.000  
C23  18683982.037 1  97292398.066 1     -2126.053          50.000                                                                  
C12  21360984.035 1 111232245.681 3     -2002.173          35.000    21360976.258 2  86011798.737 7     -1547.985          28.000  
C32  22098166.099 1 115070949.877 4     -4199.125          34.000                                                                  
C34  20759405.705 1 108099672.107 1      -529.968          46.000                                                                  
C37  18835885.761 1  98083400.774 1      1033.793          51.000                                                                  
R23  19603000.074 1 104862845.419 2     -4177.751          41.000                                                                  
R17  18299905.105 1  97926488.389 1      2437.054          46.000    18299904.914 2  76165045.593 3      1895.424          38.000  
R07  16724074.072 1  89525278.360 1      1059.070          50.000    16724074.178 1  69630769.163 1       823.589          43.000  
R08  20072922.254 2 107489671.849 3      3571.326          37.000    20072921.392 4  83602989.114 7      2778.009          29.000  
S23  36028521.282 1 189331145.610 2      -704.631          39.000  
J03  39137197.164 1 205667353.672 3      -649.052          39.000    39137192.236 2 160260248.670 7      -506.201          27.000  
G28  17056241.801 1  89631155.730 1      -629.773          48.000                                                                  
> 2021 12 15 13 51 18.9870000  0 33                     
G19  20815602.551 8 109386729.04837      3210.852          26.000                                                                  
G08  21660061.578 2 113824395.296 7     -4106.000          30.000                                                                  
G10  20027297.187 1 105244153.113 1      1095.972          44.000    20027295.710 2               9       853.619          27.000  
G13  17495601.601 1  91939995.733 1     -3172.147          49.000                                                                  
G14  17256447.759 1  90683230.037 1     -1966.490          48.000    17256443.116 1  70662247.884 2     -1532.170          37.000  
G15  17136570.854 1  90053277.318 1     -1861.371          48.000    17136567.234 2  70171373.110 4     -1451.209          34.000  
C25  22229801.687 1 115756407.813 2     -3952.227          41.000                                                                  
C19  20205718.280 1 105216480.444 1      1030.265          48.000                                                                  
C10  33838468.272 1 176205780.313 1     -1084.600          44.000    33838459.955 2 136253454.102 5      -838.794          32.000  
C07  34531914.469 1 179816739.967 1     -1521.715          44.000    34531903.213 2 139045661.901 6     -1177.040          32.000  
C11  20779751.317 1 108205614.910 1       933.700          43.000    20779743.346 2  83671413.983 4       722.152          33.000  
C20  19666121.250 1 102406656.321 1     -2034.148          49.000                                                                  
R06  16611245.809 1  88640797.743 2     -3293.142          41.000                                                                  
R09  18827268.899 1 100536565.917 1      3258.033          46.000    18827270.111 2  78195131.011 3      2534.097          37.000  
R15  16840881.184 1  89992561.711 1     -3718.085          51.000    16840881.429 1  69994221.244 2     -2891.858          41.000  
R24  17944821.966 1  95959023.704 1     -1341.540          44.000    17944821.181 2  74634782.599 5     -1043.988          34.000  
G17  19137856.790 1 100570099.050 2      1904.629          42.000    19137851.497 2  78366298.526 6      1484.486          29.000  
G21  20709534.677 1 108829326.868 3       204.688          38.000                                                                  
G23  18958664.146 1  99628453.352 2     -1174.902          39.000    18958660.048 2  77632535.838 4      -916.042          33.000  
G24  18454874.329 1  96981016.927 1      2464.998          46.000    18454872.814 1  75569617.184 3      1920.911          36.000  
G30  20059327.032 1 105412460.638 2     -4148.810          41.000    20059323.640 2  82139573.748 6     -3232.678          29.000  
C23  18684390.404 1  97294524.454 1     -2126.416          50.000                                                                  
C12  21361368.706 1 111234248.535 3     -2002.844          36.000    21361360.818 2  86013347.541 6     -1549.914          28.000  
C32  22098972.527 1 115075149.385 3     -4199.453          35.000                                                                  
C34  20759507.566 1 108100202.503 1      -530.444          46.000                                                                  
C37  18835687.395 1  98082367.293 1      1033.547          50.000                                                                  
R23  19603781.110 1 104867023.752 2     -4178.429          41.000                                                                  
R17  18299449.682 1  97924051.794 1      2436.528          46.000    18299449.424 2  76163150.474 3      1894.910          38.000  
R07  16723876.356 1  89524219.861 1      1058.302          50.000    16723876.506 1  69629945.894 2       822.782          43.000  
R08  20072255.304 2 107486100.918 3      3570.874          37.000    20072254.480 4  83600211.714 7      2776.764          30.000  
S23  36028655.306 1 189331849.895 3      -703.944          39.000  
J03  39137320.890 1 205668003.345 3      -649.267          39.000    39137315.990 2 160260754.955 8      -506.549          27.000  
G28  17056361.716 1  89631785.788 1      -630.048          48.000                                                                  
> 2021 12 15 13 51 19.9870000  0 33                     
G19  20814992.039 8 109383518.61427      3210.425          26.000                                                                  
G08  21660842.643 2 113828500.610 6     -4105.428          30.000                                                                  
G10  20027088.768 1 105243057.925 2      1095.386          44.000    20027087.057 2  82007579.477 8       853.015          27.000  
G13  17496205.430 1  91943168.518 1     -3172.518          49.000                                                                  
G14  17256822.003 1  90685197.099 1     -1966.940          48.000    17256817.399 1  70663780.680 3     -1532.734          38.000  
G15  17136925.267 1  90055139.376 1     -1862.006          48.000    17136921.401 2  70172823.997 4     -1450.378          34.000  
C25  22230560.818 1 115760360.284 2     -3952.132          41.000                                                                  
C19  20205520.499 1 105215450.662 1      1030.073          48.000                                                                  
C10  33838676.536 1 176206865.396 2     -1084.734          44.000    33838668.314 2 136254293.161 5      -838.529          32.000  
C07  34532206.746 1 179818262.024 2     -1521.635          44.000    34532195.683 2 139046838.801 7     -1175.864          31.000  
C11  20779572.281 1 108204681.744 2       933.226          43.000    20779564.269 2  83670692.413 4       721.810          33.000  
C20  19666511.906 1 102408690.940 1     -2034.520          49.000                                                                  
R06  16611863.034 1  88644091.712 2     -3293.783          41.000                                                                  
R09  18826658.890 1 100533308.290 1      3258.065          46.000    18826660.105 2  78192597.321 2      2533.804          37.000  
R15  16841577.108 1  89996280.280 1     -3718.292          51.000    16841577.355 1  69997113.468 2     -2892.218          41.000  
R24  17945073.055 1  95960366.043 2     -1342.116          43.000    17945072.322 2  74635826.598 4     -1043.145          34.000  
G17  19137494.426 1 100568194.841 2      1904.429          42.000    19137489.141 2  78364814.797 7      1483.344          29.000  
G21  20709495.753 1 108829122.391 2       204.531          38.000                                                                  
G23  18958887.847 1  99629628.838 2     -1175.593          39.000    18958883.757 2  77633451.794 5      -916.225          33.000  
G24  18454405.336 1  96978552.369 1      2464.893          45.000    18454403.825 1  75567696.731 4      1921.188          35.000  
G30  20060116.692 1 105416609.710 2     -4148.889          41.000    20060113.196 2  82142806.769 7     -3232.721          29.000  
C23  18684798.809 1  97296651.299 1     -2126.671          50.000                                                                  
C12  21361753.510 1 111236251.956 3     -2002.633          36.000    21361745.539 2  86014896.654 7     -1549.169          28.000  
C32  22099779.032 1 115079349.034 4     -4199.205          35.000                                                                  
C34  20759609.501 1 108100733.560 1      -530.933          46.000                                                                  
C37  18835488.914 1  98081334.273 1      1033.301          50.000                                                                  
R23  19604562.279 1 104871202.699 2     -4178.665          41.000                                                                  
R17  18298994.495 1  97921615.898 1      2436.060          46.000    18298994.161 2  76161255.872 2      1894.803          38.000  
R07  16723678.853 1  89523162.242 1      1057.681          50.000    16723678.931 1  69629123.285 2       822.782          43.000  
R08  20071588.487 2 107482530.258 3      3571.320          37.000    20071587.771 4  83597434.485 6      2777.930          30.000  
S23  36028789.322 1 189332554.276 2      -703.467          39.000  
J03  39137444.532 1 205668653.116 4      -649.292          38.000    39137439.689 2 160261261.244 8      -506.484          27.000  
G28  17056481.738 1  89632416.494 1      -630.548          48.000                                                                  
> 2021 12 15 13 51 20.9870000  0 33                     
G19  20814380.284 8               9      3210.420          25.000                                                                  
G08  21661623.651 2 113832606.287 6     -4105.516          30.000                                                                  
G10  20026880.435 1 105241963.395 1      1093.835          43.000    20026878.712 2               9       853.052          27.000  
G13  17496809.226 1  91946341.901 1     -3173.881          49.000                                                                  
G14  17257196.428 1  90687164.819 1     -1968.222          48.000    17257191.806 1  70665313.980 2     -1533.962          37.000  
G15  17137279.683 1  90057002.186 1     -1863.338          48.000    17137275.887 2  70174275.525 4     -1451.620          34.000  
C25  22231319.877 1 115764312.904 2     -3952.957          41.000                                                                  
C19  20205322.820 1 105214421.456 1      1028.683          48.000                                                                  
C10  33838884.848 1 176207950.638 1     -1085.468          44.000    33838876.674 2 136255132.325 5      -838.622          32.000  
C07  34532499.083 1 179819784.245 1     -1522.519          44.000    34532487.868 2 139048015.913 7     -1176.941          31.000  
C11  20779393.036 1 108203749.155 1       932.135          42.000    20779385.033 2  83669971.294 5       720.764          33.000  
C20  19666902.582 1 102410726.187 1     -2035.757          49.000                                                                  
R06  16612480.411 1  88647386.521 2     -3295.389          42.000                                                                  
R09  18826049.003 1 100530050.979 1      3257.073          47.000    18826050.043 2  78190063.839 3      2533.794          37.000  
R15  16842273.131 1  89999999.394 1     -3719.574          51.000    16842273.264 1  70000006.105 2     -2893.042          41.000  
R24  17945324.384 1  95961709.357 2     -1344.074          43.000    17945323.569 2  74636871.446 4     -1046.058          34.000  
G17  19137132.212 1 100566291.131 2      1903.298          43.000    19137126.882 2  78363331.350 6      1483.355          29.000  
G21  20709456.845 1 108828918.547 2       202.974          39.000                                                                  
G23  18959111.652 1  99630805.021 3     -1175.837          41.000    18959107.530 2  77634368.341 5      -917.186          33.000  
G24  18453936.375 1  96976088.211 1      2463.806          45.000    18453935.022 1  75565776.611 3      1920.061          36.000  
G30  20060906.310 1 105420759.023 2     -4149.701          41.000    20060902.801 2  82146040.014 6     -3233.411          29.000  
C23  18685207.334 1  97298778.609 1     -2127.689          50.000                                                                  
C12  21362138.340 1 111238256.015 3     -2004.521          36.000    21362130.485 2  86016446.272 7     -1550.078          28.000  
C32  22100585.679 1 115083548.939 4     -4200.432          34.000                                                                  
C34  20759711.655 1 108101265.279 1      -532.371          46.000                                                                  
C37  18835290.687 1  98080301.698 1      1032.230          50.000                                                                  
R23  19605343.619 1 104875382.285 2     -4179.914          41.000                                                                  
R17  18298539.469 1  97919180.701 1      2434.904          46.000    18298539.110 2  76159361.849 2      1893.549          38.000  
R07  16723481.534 1  89522105.525 1      1056.136          50.000    16723481.575 1  69628301.388 1       821.384          42.000  
R08  20070921.657 2 107478959.948 3      3569.617          38.000    20070921.009 4  83594657.623 7      2777.100          30.000  
S23  36028923.406 1 189333258.726 2      -704.449          39.000  
J03  39137568.237 1 205669302.960 4      -649.820          38.000    39137563.277 2 160261767.686 8      -507.254          27.000  
G28  17056601.970 1  89633047.839 1      -631.885          48.000                                                                  
> 2021 12 15 13 51 21.9870000  0 33                     
G19  20813767.371 8               9      3209.971          25.000                                                                  
G08  21662404.842 2 113836712.237 7     -4105.689          29.000                                                                  
G10  20026672.297 1 105240869.494 1      1093.591          42.000    20026670.648 2  82005874.214 8       851.807          28.000  
G13  17497413.177 1  91949515.862 1     -3174.355          49.000                                                                  
G14  17257570.942 1  90689133.217 1     -1968.853          48.000    17257566.387 1  70666847.790 3     -1534.342          37.000  
G15  17137634.274 1  90058865.752 1     -1863.977          49.000    17137630.694 2  70175727.701 4     -1452.604          34.000  
C25  22232078.954 1 115768265.709 2     -3952.915          41.000                                                                  
C19  20205125.307 1 105213392.847 1      1028.245          48.000                                                                  
C10  33839093.314 1 176209036.083 1     -1085.413          44.000    33839085.067 2 136255971.658 5      -838.956          32.000  
C07  34532791.412 1 179821306.630 2     -1522.456          44.000    34532780.157 2 139049193.101 6     -1176.723          32.000  
C11  20779214.083 1 108202817.159 1       931.930          43.000    20779205.973 2  83669250.596 5       720.792          33.000  
C20  19667293.622 1 102412762.061 1     -2035.992          49.000                                                                  
R06  16613097.926 1  88650682.171 2     -3295.811          41.000                                                                  
R09  18825439.094 1 100526793.950 1      3256.790          47.000    18825440.052 2  78187530.598 2      2533.567          37.000  
R15  16842969.160 1  90003719.036 1     -3719.848          51.000    16842969.363 1  70002899.176 1     -2893.365          41.000  
R24  17945575.775 1  95963053.710 1     -1345.167          44.000    17945574.967 2  74637916.992 4     -1045.453          34.000  
G17  19136770.000 1 100564387.937 1      1902.983          43.000    19136764.894 2  78361848.330 6      1483.152          29.000  
G21  20709418.130 1 108828715.330 2       202.770          39.000                                                                  
G23  18959335.644 1  99631982.076 2     -1177.161          39.000    18959331.534 2  77635285.514 4      -917.746          33.000  
G24  18453467.522 1  96973624.457 1      2463.607          45.000    18453466.233 1  75563856.831 3      1919.734          36.000  
G30  20061695.925 1 105424908.589 2     -4149.493          41.000    20061692.268 2  82149273.449 6     -3233.459          29.000  
C23  18685615.829 1  97300906.408 1     -2127.980          50.000                                                                  
C12  21362523.331 1 111240260.697 3     -2004.344          37.000    21362515.464 2  86017996.439 8     -1550.343          28.000  
C32  22101392.340 1 115087748.987 4     -4199.625          34.000                                                                  
C34  20759814.006 1 108101797.672 1      -532.761          46.000                                                                  
C37  18835092.265 1  98079269.605 1      1031.823          50.000                                                                  
R23  19606125.165 1 104879562.497 2     -4180.341          41.000                                                                  
R17  18298084.655 1  97916746.232 1      2434.216          46.000    18298084.158 2  76157468.363 2      1893.079          38.000  
R07  16723284.320 1  89521049.726 1      1055.480          50.000    16723284.241 1  69627480.205 2       820.904          42.000  
R08  20070254.795 2 107475389.931 3      3569.672          37.000    20070254.569 4  83591880.950 7      2776.508          31.000  
S23  36029057.516 1 189333963.254 2      -704.661          39.000  
J03  39137691.877 1 205669952.980 3      -650.300          38.000    39137686.918 2 160262274.079 8      -506.564          27.000  
G28  17056722.282 1  89633679.832 1      -632.080          48.000                                                                  
> 2021 12 15 13 51 22.9870000  0 33                     
G19  20813153.928 8               9      3208.962          25.000                                                                  
G08  21663186.127 2 113840818.717 6     -4106.900          28.000                                                                  
G10  20026464.325 1 105239776.400 1      1092.578          43.000    20026462.410 2  82005022.432 7       851.636          29.000  
G13  17498017.229 1  91952690.526 1     -3175.168          49.000                                                                  
G14  17257945.713 1  90691102.397 1     -1969.721          48.000    17257941.097 1  70668382.193 3     -1534.442          37.000  
G15  17137989.140 1  90060730.208 1     -1865.088          49.000    17137985.414 2  70177180.494 4     -1452.543          34.000  
C25  22232838.130 1 115772218.769 2     -3953.378          41.000                                                                  
C19  20204927.964 1 105212364.917 1      1027.394          48.000                                                                  
C10  33839301.764 1 176210121.831 1     -1086.184          44.000    33839293.563 2 136256811.197 5      -839.263          32.000  
C07  34533083.760 1 179822829.278 1     -1522.847          43.000    34533072.503 2 139050370.528 6     -1177.960          32.000  
C11  20779035.371 1 108201885.925 1       930.823          43.000    20779027.115 2  83668530.522 6       719.141          32.000  
C20  19667684.679 1 102414798.688 1     -2037.135          49.000                                                                  
R06  16613715.825 1  88653978.808 2     -3297.465          41.000                                                                  
R09  18824829.200 1 100523537.345 1      3256.119          46.000    18824830.108 2  78184997.713 2      2532.284          37.000  
R15  16843665.300 1  90007439.296 1     -3720.789          51.000    16843665.581 1  70005792.693 2     -2893.958          41.000  
R24  17945827.320 1  95964399.226 1     -1346.349          45.000    17945826.623 2  74638963.514 3     -1046.835          34.000  
G17  19136408.059 1 100562485.360 1      1901.868          43.000    19136402.693 2  78360365.838 5      1481.950          29.000  
G21  20709379.602 1 108828512.839 2       202.009          39.000                                                                  
G23  18959559.793 1  99633159.998 3     -1178.602          40.000    18959555.683 2  77636203.332 5      -918.610          33.000  
G24  18452998.758 1  96971161.243 1      2462.776          45.000    18452997.408 1  75561937.431 3      1919.283          35.000  
G30  20062485.578 1 105429058.545 2     -4150.378          41.000    20062481.961 2  82152507.182 6     -3233.997          28.000  
C23  18686024.513 1  97303034.807 1     -2128.814          50.000                                                                  
C12  21362908.459 1 111242266.170 3     -2005.899          37.000    21362900.616 2  86019547.158 7     -1550.941          28.000  
C32  22102198.992 1 115091949.372 4     -4200.996          34.000                                                                  
C34  20759916.454 1 108102330.890 1      -533.912          47.000                                                                  
C37  18834894.196 1  98078238.075 1      1031.054          50.000                                                                  
R23  19606906.815 1 104883743.465 2     -4181.786          41.000                                                                  
R17  18297629.850 1  97914312.584 1      2433.069          46.000    18297629.371 2  76155575.521 2      1892.362          38.000  
R07  16723087.327 1  89519994.996 1      1054.020          50.000    16723087.158 1  69626659.861 1       819.736          42.000  
R08  20069587.971 2 107471820.357 3      3568.964          37.000    20069587.869 4  83589104.586 8      2775.983          30.000  
S23  36029191.686 1 189334667.958 2      -705.024          39.000  
J03  39137815.607 1 205670603.194 4      -650.639          37.000    39137810.645 2               9      -506.365          27.000  
G28  17056842.697 1  89634312.611 1      -633.319          48.000                                                                  
> 2021 12 15 13 51 23.9870000  0 33                     
G19  20812542.283 8               9      3208.893          25.000                                                                  
G08  21663967.313 2 113844925.543 8     -4106.392          28.000                                                                  
G10  20026256.450 1 105238684.016 1      1092.126          43.000    20026254.523 2  82004171.201 7       850.854          28.000  
G13  17498621.412 1  91955865.834 1     -3175.586          49.000                                                                  
G14  17258320.476 1  90693072.270 1     -1970.141          48.000    17258315.965 1  70669917.156 3     -1534.860          37.000  
G15  17138344.037 1  90062595.453 1     -1865.557          49.000    17138340.267 2  70178633.954 4     -1453.891          34.000  
C25  22233597.381 1 115776172.033 2     -3953.078          41.000                                                                  
C19  20204730.646 1 105211337.609 1      1027.109          48.000                                                                  
C10  33839510.377 1 176211207.776 1     -1085.955          44.000    33839502.140 2 136257650.934 5      -839.238          33.000  
C07  34533376.176 1 179824352.137 1     -1522.894          44.000    34533364.976 2 139051548.067 5     -1177.138          32.000  
C11  20778856.658 1 108200955.281 2       930.443          43.000    20778848.429 2  83667810.878 5       719.671          32.000  
C20  19668075.941 1 102416835.981 1     -2037.573          49.000                                                                  
R06  16614333.817 1  88657276.317 2     -3297.826          41.000                                                                  
R09  18824219.530 1 100520281.076 1      3256.294          47.000    18824220.315 2  78182465.046 2      2532.740          37.000  
R15  16844361.567 1  90011160.079 1     -3720.941          51.000    16844361.980 1  70008686.630 2     -2893.915          41.000  
R24  17946079.002 1  95965745.821 1     -1346.925          44.000    17946078.449 2  74640010.901 4     -1047.510          34.000  
G17  19136046.127 1 100560583.304 1      1901.808          43.000    19136040.783 2  78358883.680 6      1482.372          29.000  
G21  20709341.121 1 108828311.004 2       201.644          39.000                                                                  
G23  18959784.122 1  99634338.702 3     -1178.986          40.000    18959779.922 2  77637121.832 4      -919.188          33.000  
G24  18452530.173 1  96968698.460 1      2462.646          45.000    18452528.715 1  75560018.391 3      1918.607          36.000  
G30  20063275.362 1 105433208.789 2     -4150.274          41.000    20063271.738 2  82155741.161 6     -3234.540          28.000  
C23  18686433.427 1  97305163.719 1     -2128.971          50.000                                                                  
C12  21363293.733 1 111244272.292 3     -2006.645          37.000    21363285.781 2  86021098.459 7     -1551.373          28.000  
C32  22103005.699 1 115096150.011 4     -4200.765          34.000                                                                  
C34  20760018.940 1 108102864.776 1      -534.064          47.000                                                                  
C37  18834696.241 1  98077207.062 1      1030.861          50.000                                                                  
R23  19607688.514 1 104887925.140 2     -4182.100          41.000                                                                  
R17  18297175.281 1  97911879.684 1      2432.568          46.000    18297174.465 2  76153683.255 2      1892.242          38.000  
R07  16722890.494 1  89518941.229 1      1053.326          50.000    16722890.322 1  69625840.263 1       819.213          42.000  
R08  20068921.380 2 107468251.177 2      3569.055          38.000    20068921.164 4  83586328.538 8      2776.740          30.000  
S23  36029325.772 1 189335372.735 2      -704.457          39.000  
J03  39137939.376 1 205671253.580 4      -650.700          37.000    39137934.332 2 160263287.531 8      -506.740          27.000  
G28  17056963.205 1  89634946.082 1      -633.691          48.000                                                                  
> 2021 12 15 13 51 24.9870000  0 33                     
G19  20811931.746 8               9      3208.656          25.000                                                                  
G08  21664748.896 2 113849032.879 8     -4107.480          28.000                                                                  
G10  20026048.691 1 105237592.403 2      1091.272          42.000    20026046.855 2  82003320.585 6       850.452          29.000  
G13  17499225.883 1  91959041.830 1     -3176.565          49.000                                                                  
G14  17258695.396 1  90695042.932 1     -1971.150          48.000    17258691.030 1  70671452.758 3     -1536.152          37.000  
G15  17138699.147 1  90064461.568 1     -1866.603          48.000    17138695.300 2  70180088.054 4     -1454.289          34.000  
C25  22234356.617 1 115780125.598 2     -3953.948          41.000                                                                  
C19  20204533.622 1 105210310.993 1      1026.278          48.000                                                                  
C10  33839719.027 1 176212294.014 1     -1086.287          44.000    33839710.927 2 136258490.923 5      -840.422          32.000  
C07  34533668.695 1 179825875.247 1     -1523.377          44.000    34533657.481 2 139052725.850 6     -1177.295          32.000  
C11  20778678.125 1 108200025.359 1       929.602          42.000    20778669.799 2  83667091.796 4       719.183          33.000  
C20  19668467.351 1 102418873.999 1     -2038.460          49.000                                                                  
R06  16614951.923 1  88660574.769 2     -3299.111          42.000                                                                  
R09  18823609.839 1 100517025.209 1      3255.560          46.000    18823610.695 2  78179932.703 3      2532.303          37.000  
R15  16845057.950 1  90014881.483 1     -3721.832          51.000    16845058.356 1  70011581.072 2     -2894.824          41.000  
R24  17946331.008 1  95967093.564 1     -1348.195          43.000    17946330.637 2  74641059.139 4     -1049.167          34.000  
G17  19135684.293 1 100558681.875 2      1901.115          43.000    19135679.026 2  78357402.053 6      1481.579          29.000  
G21  20709302.868 1 108828109.935 2       200.447          39.000                                                                  
G23  18960008.658 1  99635518.337 2     -1180.167          40.000    18960004.452 2  77638041.036 5      -920.659          33.000  
G24  18452061.646 1  96966236.192 1      2462.026          45.000    18452060.152 1  75558099.706 3      1918.572          36.000  
G30  20064065.203 1 105437359.421 2     -4150.934          41.000    20064061.781 2  82158975.419 6     -3234.991          29.000  
C23  18686842.493 1  97307293.225 1     -2129.803          50.000                                                                  
C12  21363679.151 1 111246279.147 3     -2006.971          37.000    21363670.989 2  86022650.260 8     -1551.739          28.000  
C32  22103812.450 1 115100350.927 4     -4200.615          35.000                                                                  
C34  20760121.566 1 108103399.475 1      -535.226          46.000                                                                  
C37  18834498.374 1  98076176.604 1      1030.037          50.000                                                                  
R23  19608470.315 1 104892107.556 2     -4182.938          41.000                                                                  
R17  18296720.762 1  97909447.677 1      2431.425          46.000    18296720.004 2  76151791.697 2      1891.338          38.000  
R07  16722693.773 1  89517888.464 1      1052.240          51.000    16722693.658 1  69625021.457 2       818.457          42.000  
R08  20068254.869 2 107464682.451 2      3568.207          38.000    20068254.656 4  83583552.931 6      2774.549          30.000  
S23  36029459.945 1 189336077.786 2      -705.254          39.000  
J03  39138062.957 1 205671904.133 3      -651.060          38.000    39138058.183 2 160263794.555 8      -508.043          27.000  
G28  17057083.860 1  89635580.308 1      -634.686          48.000                                                                  
> 2021 12 15 13 51 25.9870000  0 33                     
G19  20811319.911 8               9      3209.069          25.000                                                                  
G08  21665530.520 2 113853140.754 8     -4108.111          28.000                                                                  
G10  20025841.173 1 105236501.620 2      1090.613          42.000    20025839.317 2  82002470.614 8       849.927          29.000  
G13  17499830.394 1  91962218.605 1     -3177.100          49.000                                                                  
G14  17259070.549 1  90697014.444 1     -1971.799          48.000    17259066.220 1  70672989.014 3     -1536.792          37.000  
G15  17139054.471 1  90066328.610 1     -1867.361          48.000    17139050.402 2  70181542.890 4     -1455.103          34.000  
C25  22235115.958 1 115784079.492 2     -3953.834          41.000                                                                  
C19  20204336.656 1 105209285.139 1      1025.616          48.000                                                                  
C10  33839927.575 1 176213380.611 1     -1086.724          44.000    33839919.568 2 136259331.141 5      -840.965          32.000  
C07  34533961.234 1 179827398.760 1     -1523.651          43.000    34533950.257 2 139053903.911 5     -1177.584          32.000  
C11  20778499.689 1 108199096.236 1       928.751          43.000    20778491.417 2  83666373.366 5       717.886          33.000  
C20  19668858.917 1 102420912.834 1     -2039.105          49.000                                                                  
R06  16615570.338 1  88663874.227 2     -3299.793          41.000                                                                  
R09  18823000.206 1 100513769.847 1      3255.222          46.000    18823001.051 2  78177400.770 3      2531.955          37.000  
R15  16845754.498 1  90018603.630 1     -3722.418          51.000    16845754.905 1  70014476.067 2     -2895.087          41.000  
R24  17946583.243 1  95968442.449 1     -1349.396          44.000    17946582.945 2  74642108.303 4     -1049.974          34.000  
G17  19135322.500 1 100556781.125 1      1900.475          43.000    19135317.385 4  78355920.951 7      1481.937          29.000  
G21  20709264.812 1 108827909.633 2       200.239          39.000                                                                  
G23  18960233.274 1  99636698.912 2     -1181.126          40.000    18960229.029 2  77638960.921 4      -920.307          33.000  
G24  18451593.143 1  96963774.530 1      2461.481          45.000    18451591.783 1  75556181.564 3      1917.555          36.000  
G30  20064855.099 1 105441510.459 2     -4151.336          41.000    20064851.763 2  82162209.976 6     -3234.686          29.000  
C23  18687251.530 1  97309423.400 1     -2130.294          50.000                                                                  
C12  21364064.824 1 111248286.838 3     -2007.777          37.000    21364056.554 2  86024202.779 7     -1552.937          28.000  
C32  22104619.245 1 115104552.242 4     -4201.267          34.000                                                                  
C34  20760224.425 1 108103935.034 1      -535.934          46.000                                                                  
C37  18834300.566 1  98075146.806 1      1029.604          50.000                                                                  
R23  19609252.332 1 104896290.800 2     -4183.668          40.000                                                                  
R17  18296266.468 1  97907016.549 1      2430.850          46.000    18296265.718 2  76149900.831 2      1890.854          38.000  
R07  16722497.240 1  89516836.772 1      1051.257          50.000    16722497.142 1  69624203.480 2       817.671          43.000  
R08  20067588.408 2 107461114.234 2      3568.341          38.000    20067588.335 4  83580777.665 6      2774.939          30.000  
S23  36029594.092 1 189336783.058 2      -705.535          39.000  
J03  39138186.793 1 205672555.013 3      -651.021          38.000    39138182.139 2               9      -507.690          27.000  
G28  17057204.725 1  89636215.371 1      -635.400          48.000                                                                  
> 2021 12 15 13 51 26.9870000  0 33                     
G19  20810707.181 8               9      3208.663          25.000                                                                  
G08  21666312.192 2 113857249.000 7     -4108.073          28.000                                                                  
G10  20025633.818 1 105235411.543 2      1089.948          42.000    20025631.938 2  82001621.210 7       849.402          29.000  
G13  17500434.994 1  91965395.990 1     -3177.581          49.000                                                                  
G14  17259445.853 1  90698986.660 1     -1972.385          48.000    17259441.593 1  70674525.786 3     -1537.110          37.000  
G15  17139409.902 1  90068196.449 1     -1868.115          49.000    17139405.699 2  70182998.360 4     -1455.729          34.000  
C25  22235875.229 1 115788033.572 2     -3954.011          41.000                                                                  
C19  20204139.782 1 105208259.879 1      1025.080          48.000                                                                  
C10  33840136.216 1 176214467.387 1     -1086.575          44.000    33840128.166 2 136260171.494 5      -840.076          32.000  
C07  34534253.984 1 179828922.407 1     -1523.442          43.000    34534242.774 2 139055082.103 5     -1177.731          32.000  
C11  20778321.375 1 108198167.720 1       928.243          43.000    20778313.002 2  83665655.379 5       716.880          33.000  
C20  19669250.573 1 102422952.327 1     -2039.673          49.000                                                                  
R06  16616188.812 1  88667174.557 1     -3300.605          41.000                                                                  
R09  18822390.646 1 100510514.793 1      3254.940          46.000    18822391.443 2  78174869.074 3      2531.427          37.000  
R15  16846451.108 1  90022326.359 1     -3722.815          51.000    16846451.525 1  70017371.525 2     -2895.685          41.000  
R24  17946835.627 1  95969792.405 1     -1350.289          44.000    17946835.383 2  74643158.236 4     -1050.280          34.000  
G17  19134960.975 1 100554880.905 1      1900.222          43.000    19134955.721 4               9      1481.828          29.000  
G21  20709226.855 1 108827709.998 2       199.514          39.000                                                                  
G23  18960458.057 1  99637880.252 2     -1181.101          40.000    18960453.928 2  77639881.495 5      -920.841          33.000  
G24  18451124.829 1  96961313.289 1      2461.210          45.000    18451123.447 1  75554263.721 3      1917.624          36.000  
G30  20065645.097 1 105445661.806 2     -4151.477          41.000    20065641.827 2  82165444.784 6     -3234.583          29.000  
C23  18687660.789 1  97311554.072 1     -2130.747          51.000                                                                  
C12  21364450.510 1 111250295.184 3     -2008.296          37.000    21364442.268 2  86025755.780 6     -1553.389          28.000  
C32  22105426.175 1 115108753.794 4     -4201.357          34.000                                                                  
C34  20760327.311 1 108104471.287 1      -536.367          47.000                                                                  
C37  18834102.963 1  98074117.498 1      1029.209          50.000                                                                  
R23  19610034.459 2 104900474.716 2     -4184.120          39.000                                                                  
R17  18295812.423 1  97904586.147 1      2430.213          46.000    18295811.501 2  76148010.514 3      1890.258          38.000  
R07  16722300.912 1  89515786.030 1      1050.452          50.000    16722300.865 1  69623386.232 2       816.843          42.000  
R08  20066921.966 2 107457546.386 2      3567.920          38.000    20066921.978 4  83578002.640 6      2774.732          30.000  
S23  36029728.380 1 189337488.471 2      -705.103          39.000  
J03  39138310.774 1 205673206.067 3      -650.944          38.000    39138306.028 2 160264808.980 8      -507.243          27.000  
G28  17057325.710 1  89636851.114 1      -635.956          48.000                                                                  
> 2021 12 15 13 51 27.9870000  0 33                     
G19  20810096.306 8               9      3208.786          25.000                                                                  
G08  21667093.978 2 113861357.500 7     -4108.829          29.000                                                                  
G10  20025426.507 1 105234322.074 1      1089.087          42.000    20025424.561 2  82000772.257 8       848.895          29.000  
G13  17501039.755 1  91968573.918 1     -3178.270          49.000                                                                  
G14  17259821.320 1  90700959.482 1     -1973.155          48.000    17259817.072 1  70676063.054 3     -1537.732          37.000  
G15  17139765.428 1  90070064.986 1     -1868.894          49.000    17139761.285 2  70184454.390 4     -1456.936          34.000  
C25  22236634.572 1 115791987.776 2     -3954.280          41.000                                                                  
C19  20203943.060 1 105207235.173 1      1024.294          48.000                                                                  
C10  33840345.002 1 176215554.318 1     -1087.067          44.000    33840336.638 2 136261011.975 5      -839.934          32.000  
C07  34534546.563 1 179830446.187 2     -1523.971          43.000    34534535.422 2 139056260.389 6     -1178.377          32.000  
C11  20778143.141 1 108197239.766 1       927.570          43.000    20778134.975 2  83664937.806 5       717.340          33.000  
C20  19669642.268 1 102424992.399 1     -2040.493          49.000                                                                  
R06  16616807.445 1  88670475.688 2     -3301.824          41.000                                                                  
R09  18821781.215 1 100507259.992 1      3254.711          46.000    18821781.925 2  78172337.561 3      2531.473          37.000  
R15  16847148.022 1  90026049.572 1     -3723.395          51.000    16847148.345 1  70020267.351 2     -2895.996          41.000  
R24  17947088.337 1  95971143.335 1     -1351.612          44.000    17947087.896 2  74644208.955 4     -1051.030          34.000  
G17  19134599.434 1 100552981.145 1      1899.543          43.000    19134594.222 4               9      1480.159          29.000  
G21  20709189.074 1 108827510.954 2       198.716          38.000                                                                  
G23  18960682.993 1  99639062.359 2     -1182.303          40.000    18960678.867 2  77640802.590 5      -921.287          33.000  
G24  18450656.469 1  96958852.416 1      2460.780          46.000    18450655.184 1  75552346.153 3      1917.239          36.000  
G30  20066435.105 1 105449813.360 2     -4151.739          41.000    20066431.752 2  82168679.722 6     -3234.967          28.000  
C23  18688070.037 1  97313685.175 1     -2131.289          51.000                                                                  
C12  21364836.329 1 111252304.121 3     -2009.254          38.000    21364828.057 2  86027309.139 6     -1553.391          29.000  
C32  22106232.989 1 115112955.500 4     -4201.680          34.000                                                                  
C34  20760430.428 1 108105008.173 1      -537.341          47.000                                                                  
C37  18833905.377 1  98073088.606 1      1028.602          50.000                                                                  
R23  19610816.699 2 104904659.204 2     -4184.822          39.000                                                                  
R17  18295358.417 1  97902156.398 1      2429.259          46.000    18295357.433 2  76146120.697 3      1889.638          38.000  
R07  16722104.830 1  89514736.150 1      1049.468          50.000    16722104.813 1  69622569.653 1       816.222          42.000  
R08  20066255.654 2 107453978.771 3      3567.432          39.000    20066255.721 4  83575227.846 7      2774.640          30.000  
S23  36029862.594 1 189338193.895 2      -705.526          39.000  
J03  39138434.846 1 205673857.151 3      -651.464          38.000    39138429.917 2 160265316.280 7      -506.887          27.000  
G28  17057446.817 1  89637487.460 1      -636.786          48.000                                                                  
> 2021 12 15 13 51 28.9870000  0 33                     
G19  20809485.892 8               9      3208.545          25.000                                                                  
G08  21667875.793 2 113865466.529 6     -4109.437          28.000                                                                  
G10  20025219.352 1 105233233.411 2      1088.196          42.000    20025217.519 2  81999923.950 8       847.784          29.000  
G13  17501644.592 1  91971752.574 1     -3179.087          49.000                                                                  
G14  17260196.959 1  90702933.105 1     -1974.072          48.000    17260192.586 1  70677600.949 3     -1538.657          37.000  
G15  17140121.225 1  90071934.419 1     -1869.906          49.000    17140116.983 2  70185911.035 4     -1456.945          34.000  
C25  22237394.094 1 115795942.274 2     -3954.802          41.000                                                                  
C19  20203746.519 1 105206211.159 1      1023.669          48.000                                                                  
C10  33840553.769 1 176216641.564 1     -1087.332          44.000    33840545.555 2 136261852.724 5      -840.565          33.000  
C07  34534839.174 1 179831970.262 2     -1524.338          43.000    34534828.167 2 139057438.888 5     -1178.660          32.000  
C11  20777965.096 1 108196312.513 1       926.908          43.000    20777957.004 2  83664220.787 5       716.967          33.000  
C20  19670034.284 1 102427033.221 1     -2041.330          49.000                                                                  
R06  16617426.130 1  88673777.781 2     -3302.509          42.000                                                                  
R09  18821171.736 1 100504005.644 1      3254.253          46.000    18821172.543 2  78169806.402 3      2530.830          37.000  
R15  16847844.871 1  90029773.401 1     -3724.145          51.000    16847845.244 1  70023163.647 1     -2896.509          41.000  
R24  17947341.249 1  95972495.378 1     -1352.654          44.000    17947340.800 2  74645260.567 4     -1052.287          34.000  
G17  19134238.092 1 100551082.037 1      1898.676          43.000    19134232.879 2  78351480.145 7      1479.422          29.000  
G21  20709151.315 1 108827312.663 3       197.913          39.000                                                                  
G23  18960908.140 1  99640245.390 2     -1183.757          40.000    18960903.861 2  77641724.377 4      -921.256          33.000  
G24  18450188.330 1  96956392.082 1      2460.075          46.000    18450186.923 1  75550429.016 3      1916.743          36.000  
G30  20067225.150 1 105453965.312 2     -4152.277          41.000    20067221.816 2  82171915.051 7     -3235.620          28.000  
C23  18688479.490 1  97315816.896 1     -2131.992          51.000                                                                  
C12  21365222.284 1 111254313.810 3     -2010.208          37.000    21365214.011 2  86028863.191 6     -1554.580          29.000  
C32  22107040.043 1 115117157.524 4     -4202.301          35.000                                                                  
C34  20760533.815 1 108105545.862 1      -538.223          47.000                                                                  
C37  18833707.951 1  98072060.295 1      1028.131          50.000                                                                  
R23  19611599.073 2 104908844.478 2     -4185.849          39.000                                                                  
R17  18294904.603 1  97899727.501 1      2428.222          46.000    18294903.533 2  76144231.551 2      1889.143          38.000  
R07  16721908.842 1  89513687.335 1      1048.369          50.000    16721908.862 1  69621753.914 2       815.258          42.000  
R08  20065589.420 2 107450411.601 3      3566.461          38.000    20065589.774 4  83572453.346 7      2774.634          30.000  
S23  36029996.948 1 189338899.488 2      -705.504          39.000  
J03  39138558.765 1 205674508.457 3      -650.971          38.000    39138553.935 2 160265823.844 7      -507.742          27.000  
G28  17057568.110 1  89638124.588 1      -637.604          48.000                                                                  
> 2021 12 15 13 51 29.9870000  0 33                     
G19  20808875.152 8               9      3208.007          25.000                                                                  
G08  21668657.798 2 113869575.816 6     -4109.797          29.000                                                                  
G10  20025012.242 1 105232145.332 2      1087.701          42.000    20025010.682 2  81999076.079 7       847.430          29.000  
G13  17502249.518 1  91974931.725 1     -3179.543          49.000                                                                  
G14  17260572.654 1  90704907.303 1     -1974.626          48.000    17260568.304 1  70679139.287 3     -1538.840          37.000  
G15  17140477.071 1  90073804.527 1     -1870.590          49.000    17140472.660 2  70187368.301 4     -1457.666          34.000  
C25  22238153.518 1 115799896.844 2     -3954.770          41.000                                                                  
C19  20203549.819 1 105205187.657 1      1023.104          48.000                                                                  
C10  33840762.612 1 176217728.922 1     -1087.546          44.000    33840754.377 2 136262693.553 5      -841.436          33.000  
C07  34535131.782 1 179833494.406 2     -1524.231          43.000    34535120.867 2 139058617.505 6     -1179.477          32.000  
C11  20777787.087 1 108195385.824 1       926.215          43.000    20777779.136 2  83663504.231 5       716.042          33.000  
C20  19670426.326 1 102429074.593 1     -2041.780          49.000                                                                  
R06  16618045.062 1  88677080.644 2     -3303.173          41.000                                                                  
R09  18820562.373 1 100500751.512 1      3253.895          46.000    18820563.031 2  78167275.398 3      2531.166          37.000  
R15  16848541.716 1  90033497.608 1     -3724.493          51.000    16848542.152 1  70026060.265 2     -2896.869          41.000  
R24  17947594.225 1  95973848.320 1     -1353.735          45.000    17947593.924 2  74646312.827 4     -1052.598          34.000  
G17  19133876.756 1 100549183.333 1      1898.391          43.000    19133871.579 2  78350000.590 7      1479.804          30.000  
G21  20709113.643 1 108827114.928 2       197.295          39.000                                                                  
G23  18961133.346 1  99641429.068 2     -1183.743          40.000    18961129.235 2  77642646.806 5      -923.406          33.000  
G24  18449720.183 1  96953932.072 1      2459.812          45.000    18449718.781 1  75548512.116 3      1916.425          36.000  
G30  20068015.193 1 105458117.436 2     -4152.313          41.000    20068011.908 2  82175150.400 6     -3235.400          28.000  
C23  18688888.949 1  97317949.025 1     -2132.452          50.000                                                                  
C12  21365608.272 1 111256323.988 2     -2010.360          39.000    21365599.863 2  86030417.589 6     -1555.208          29.000  
C32  22107846.959 1 115121359.638 4     -4202.401          35.000                                                                  
C34  20760637.165 1 108106084.149 1      -538.689          47.000                                                                  
C37  18833510.500 1  98071032.393 1      1027.511          50.000                                                                  
R23  19612381.431 2 104913030.275 2     -4186.425          40.000                                                                  
R17  18294450.885 1  97897299.290 1      2427.697          46.000    18294449.754 2  76142342.951 3      1888.171          38.000  
R07  16721713.044 1  89512639.366 1      1047.379          51.000    16721713.063 1  69620938.839 2       814.331          42.000  
R08  20064923.400 2 107446844.614 2      3566.730          38.000    20064923.756 4  83569679.035 8      2774.365          30.000  
S23  36030131.273 1 189339605.123 2      -705.750          39.000  
J03  39138682.819 1 205675159.843 3      -651.127          38.000    39138677.857 2 160266331.374 8      -507.512          27.000  
G28  17057689.439 1  89638762.302 1      -638.049          48.000                                                                  
> 2021 12 15 13 51 30.9870000  0 33                     
G19  20808263.206 8               9      3208.702          25.000                                                                  
G08  21669439.597 2 113873685.438 7     -4109.588          29.000                                                                  
G10  20024805.371 1 105231057.912 2      1087.317          42.000    20024803.896 2  81998228.782 6       846.973          30.000  
G13  17502854.544 1  91978111.471 1     -3179.874          49.000                                                                  
G14  17260948.408 1  90706882.187 1     -1975.101          48.000    17260944.147 1  70680678.140 3     -1538.964          37.000  
G15  17140833.052 1  90075675.400 1     -1871.209          49.000    17140828.541 2  70188826.098 4     -1458.016          34.000  
C25  22238912.915 1 115803851.583 2     -3954.681          41.000                                                                  
C19  20203353.416 1 105204164.736 1      1022.785          48.000                                                                  
C10  33840971.436 1 176218816.438 1     -1087.628          44.000    33840963.400 2 136263534.489 5      -841.743          32.000  
C07  34535424.456 1 179835018.751 1     -1524.390          43.000    34535413.507 2 139059796.206 5     -1178.970          32.000  
C11  20777609.232 1 108194459.712 1       925.907          43.000    20777601.337 2  83662788.075 5       716.160          33.000  
C20  19670818.499 1 102431116.603 1     -2042.219          50.000                                                                  
R06  16618664.287 1  88680384.373 2     -3303.930          41.000                                                                  
R09  18819953.122 1 100497497.688 1      3253.703          46.000    18819953.737 2  78164744.681 3      2530.528          37.000  
R15  16849238.898 1  90037222.335 1     -3724.981          51.000    16849239.122 1  70028957.288 2     -2897.388          41.000  
R24  17947847.368 1  95975202.265 1     -1354.221          45.000    17947847.173 2  74647365.946 4     -1053.563          34.000  
G17  19133515.594 1 100547285.144 1      1897.999          43.000    19133510.484 2  78348521.540 7      1478.816          30.000  
G21  20709076.155 1 108826917.782 2       196.925          39.000                                                                  
G23  18961358.742 1  99642613.583 2     -1184.760          40.000    18961354.627 2  77643569.755 5      -923.114          33.000  
G24  18449252.149 1  96951472.483 1      2459.463          45.000    18449250.793 1  75546595.562 3      1916.174          36.000  
G30  20068805.344 1 105462269.831 2     -4152.478          41.000    20068802.262 2  82178386.079 6     -3235.681          29.000  
C23  18689298.385 1  97320081.622 1     -2132.756          50.000                                                                  
C12  21365994.359 1 111258334.867 3     -2011.074          38.000    21365986.115 2  86031972.495 7     -1554.905          29.000  
C32  22108653.977 1 115125562.011 3     -4202.110          35.000                                                                  
C34  20760740.575 1 108106623.113 1      -539.174          47.000                                                                  
C37  18833313.283 1  98070004.945 1      1027.301          50.000                                                                  
R23  19613164.048 2 104917216.691 2     -4186.655          39.000                                                                  
R17  18293997.218 1  97894871.834 1      2427.114          47.000    18293996.173 2  76140454.934 2      1887.788          38.000  
R07  16721517.439 1  89511592.334 1      1046.653          50.000    16721517.459 1  69620124.460 2       813.980          42.000  
R08  20064257.232 2 107443277.974 2      3566.693          39.000    20064257.731 4  83566905.026 7      2773.377          30.000  
S23  36030265.442 1 189340310.849 2      -705.834          39.000  
J03  39138806.778 1 205675811.333 4      -651.674          37.000    39138801.872 2 160266839.056 8      -507.794          28.000  
G28  17057810.846 1  89639400.658 1      -638.623          48.000                                                                  
> 2021 12 15 13 51 31.9870000  0 33                     
G19  20807653.497 8               9      3207.643          25.000                                                                  
G08  21670221.546 2 113877795.459 6     -4110.371          29.000                                                                  
G10  20024598.556 1 105229971.235 2      1086.700          42.000    20024597.148 2  81997381.972 6       847.113          30.000  
G13  17503459.779 1  91981291.896 1     -3180.521          49.000                                                                  
G14  17261324.319 1  90708857.812 1     -1975.755          48.000    17261320.069 1  70682217.583 3     -1539.166          37.000  
G15  17141189.173 1  90077547.093 1     -1871.913          49.000    17141184.714 2  70190284.598 4     -1459.061          34.000  
C25  22239672.323 1 115807806.578 2     -3955.032          41.000                                                                  
C19  20203157.129 1 105203142.477 1      1022.225          48.000                                                                  
C10  33841180.478 1 176219904.203 1     -1087.777          44.000    33841172.417 2 136264375.577 4      -840.710          32.000  
C07  34535717.246 1 179836543.301 1     -1524.457          43.000    34535706.259 2 139060975.068 5     -1178.507          32.000  
C11  20777431.478 1 108193534.271 1       925.439          43.000    20777423.505 2  83662072.462 5       715.594          33.000  
C20  19671210.900 1 102433159.317 1     -2042.766          49.000                                                                  
R06  16619283.558 1  88683689.010 2     -3304.895          41.000                                                                  
R09  18819343.917 1 100494244.227 1      3253.436          46.000    18819344.620 2  78162214.212 3      2530.561          37.000  
R15  16849936.030 1  90040947.686 1     -3725.458          51.000    16849936.352 1  70031854.779 2     -2897.674          41.000  
R24  17948100.860 1  95976557.335 1     -1355.239          44.000    17948100.600 2  74648419.879 5     -1054.188          33.000  
G17  19133154.516 1 100545387.535 1      1897.372          43.000    19133149.562 2  78347042.870 6      1478.081          30.000  
G21  20709038.697 1 108826721.356 2       196.245          39.000                                                                  
G23  18961584.288 1  99643798.920 3     -1185.168          41.000    18961580.232 2  77644493.425 5      -923.922          33.000  
G24  18448784.217 1  96949013.371 1      2459.110          46.000    18448782.879 1  75544679.374 3      1915.897          36.000  
G30  20069595.605 1 105466422.552 2     -4152.643          41.000    20069592.527 2  82181621.980 7     -3235.926          29.000  
C23  18689707.895 1  97322214.782 1     -2133.202          50.000                                                                  
C12  21366380.589 1 111260346.446 3     -2011.179          38.000    21366372.393 2  86033528.019 7     -1556.019          28.000  
C32  22109461.004 1 115129764.649 3     -4202.760          34.000                                                                  
C34  20760844.325 1 108107162.832 1      -539.802          47.000                                                                  
C37  18833116.043 1  98068978.044 1      1026.864          50.000                                                                  
R23  19613946.772 2 104921403.850 2     -4187.114          39.000                                                                  
R17  18293543.823 1  97892445.162 1      2426.565          47.000    18293542.650 2  76138567.532 3      1887.266          38.000  
R07  16721322.066 1  89510546.300 1      1045.640          50.000    16721322.004 1  69619310.870 1       813.502          42.000  
R08  20063591.160 2 107439711.774 3      3566.101          39.000    20063591.887 4  83564131.260 6      2773.889          29.000  
S23  36030399.752 1 189341016.718 2      -705.586          39.000  
J03  39138930.833 1 205676462.989 4      -651.377          36.000    39138925.885 2               9      -507.535          28.000  
G28  17057932.414 1  89640039.759 1      -639.258          48.000                                                                  
> 2021 12 15 13 51 32.9870000  0 33                     
G19  20807042.720 8               9      3207.201          26.000                                                                  
G08  21671003.582 2 113881905.840 7     -4111.025          28.000                                                                  
G10  20024391.840 1 105228885.203 2      1085.822          40.000    20024390.471 2  81996535.799 7       845.331          30.000  
G13  17504065.034 1  91984472.911 1     -3181.400          49.000                                                                  
G14  17261700.387 1  90710834.117 1     -1976.686          48.000    17261696.081 1  70683757.572 3     -1540.431          37.000  
G15  17141545.363 1  90079419.561 1     -1872.923          48.000    17141541.021 2  70191743.651 4     -1459.812          34.000  
C25  22240431.841 1 115811761.740 2     -3955.418          41.000                                                                  
C19  20202960.946 1 105202120.806 1      1021.406          48.000                                                                  
C10  33841389.270 1 176220992.138 1     -1087.980          44.000    33841381.559 2 136265216.857 6      -841.068          32.000  
C07  34536010.164 1 179838068.012 1     -1524.775          43.000    34535998.931 2 139062154.102 6     -1178.973          32.000  
C11  20777253.886 1 108192609.431 2       924.488          43.000    20777245.773 2  83661357.346 5       714.666          33.000  
C20  19671603.131 1 102435202.662 1     -2043.660          49.000                                                                  
R06  16619903.002 1  88686994.463 2     -3305.657          41.000                                                                  
R09  18818734.623 1 100490991.051 1      3253.106          46.000    18818735.492 2  78159683.964 3      2530.105          37.000  
R15  16850633.287 1  90044673.589 1     -3726.178          51.000    16850633.690 1  70034752.697 2     -2898.212          41.000  
R24  17948354.533 1  95977913.475 2     -1356.702          43.000    17948354.260 2  74649474.680 5     -1056.385          33.000  
G17  19132793.489 1 100543490.422 1      1896.760          43.000    19132788.530 2  78345564.587 7      1478.027          30.000  
G21  20709001.380 1 108826525.563 2       195.582          39.000                                                                  
G23  18961810.134 1  99644985.032 2     -1186.178          41.000    18961806.078 2  77645417.647 5      -924.438          33.000  
G24  18448316.329 1  96946554.667 1      2458.601          46.000    18448315.040 1  75542763.488 3      1915.832          36.000  
G30  20070385.911 1 105470575.517 2     -4153.149          41.000    20070382.877 2  82184858.070 5     -3236.353          29.000  
C23  18690117.776 1  97324348.420 1     -2133.884          51.000                                                                  
C12  21366767.070 1 111262358.682 3     -2012.637          37.000    21366758.824 2  86035083.934 8     -1555.756          28.000  
C32  22110268.133 1 115133967.456 4     -4202.719          34.000                                                                  
C34  20760948.100 1 108107703.239 1      -540.848          47.000                                                                  
C37  18832918.878 1  98067951.607 1      1026.205          50.000                                                                  
R23  19614729.702 2 104925591.624 2     -4188.135          39.000                                                                  
R17  18293090.460 1  97890019.178 1      2425.714          47.000    18293089.397 2  76136680.694 3      1886.193          38.000  
R07  16721126.880 1  89509501.165 1      1044.762          50.000    16721126.614 1  69618497.997 1       812.684          43.000  
R08  20062925.266 2 107436145.927 2      3565.497          38.000    20062926.269 4  83561357.838 5      2773.389          30.000  
S23  36030534.065 1 189341722.690 2      -706.003          39.000  
J03  39139054.888 1 205677114.783 4      -652.188          37.000    39139049.747 2 160267854.741 8      -508.193          27.000  
G28  17058054.114 1  89640679.493 1      -639.972          48.000                                                                  
> 2021 12 15 13 51 33.9870000  0 33                     
G19  20806430.963 8               9      3206.990          25.000                                                                  
G08  21671785.920 2 113886016.462 8     -4110.575          28.000                                                                  
G10  20024185.390 1 105227799.864 2      1085.150          40.000    20024183.956 2  81995690.026 6       846.008          31.000  
G13  17504670.380 1  91987654.521 1     -3181.885          49.000                                                                  
G14  17262076.538 1  90712811.085 1     -1977.253          48.000    17262072.270 1  70685298.078 3     -1540.740          37.000  
G15  17141901.879 1  90081292.787 1     -1873.524          48.000    17141897.584 2  70193203.289 4     -1459.909          34.000  
C25  22241191.385 1 115815717.062 2     -3955.405          41.000                                                                  
C19  20202764.792 1 105201099.669 1      1020.847          46.000                                                                  
C10  33841598.278 1 176222080.293 1     -1088.393          44.000    33841590.245 2 136266058.262 5      -841.169          32.000  
C07  34536302.912 1 179839592.920 1     -1524.847          43.000    34536291.397 2 139063333.250 5     -1179.572          32.000  
C11  20777076.282 1 108191685.203 1       923.867          43.000    20777068.332 2  83660642.693 5       713.343          33.000  
C20  19671995.638 1 102437246.650 1     -2044.302          50.000                                                                  
R06  16620522.502 1  88690300.788 2     -3306.692          41.000                                                                  
R09  18818125.445 1 100487738.220 1      3252.858          46.000    18818126.375 2  78157154.002 3      2529.527          35.000  
R15  16851330.629 1  90048400.016 1     -3726.709          50.000    16851330.998 1  70037651.033 2     -2898.621          41.000  
R24  17948608.438 1  95979270.666 1     -1357.835          42.000    17948608.083 2  74650530.211 5     -1055.302          32.000  
G17  19132432.525 1 100541593.819 1      1896.562          43.000    19132427.694 2  78344086.731 8      1478.061          29.000  
G21  20708964.241 1 108826330.412 2       195.092          40.000                                                                  
G23  18962036.085 1  99646171.953 2     -1186.926          40.000    18962031.945 2  77646342.509 5      -924.733          33.000  
G24  18447848.600 1  96944096.381 1      2457.982          46.000    18447847.232 1  75540847.920 4      1915.487          35.000  
G30  20071176.235 1 105474728.792 2     -4153.717          41.000    20071173.285 2  82188094.385 5     -3236.511          29.000  
C23  18690527.626 1  97326482.560 1     -2134.516          51.000                                                                  
C12  21367153.601 1 111264371.535 3     -2013.537          36.000    21367145.333 2  86036640.465 8     -1556.972          27.000  
C32  22111075.315 1 115138170.522 4     -4202.629          34.000                                                                  
C34  20761051.984 1 108108244.320 1      -541.339          46.000                                                                  
C37  18832721.818 1  98066925.647 1      1025.592          50.000                                                                  
R23  19615512.717 2 104929780.028 2     -4188.674          41.000                                                                  
R17  18292637.330 1  97887593.909 1      2425.046          46.000    18292636.248 2  76134794.352 3      1886.057          38.000  
R07  16720931.917 1  89508456.904 1      1043.672          49.000    16720931.534 1  69617685.807 1       811.826          42.000  
R08  20062259.381 2 107432580.406 3      3565.717          38.000    20062260.435 4  83558584.673 6      2773.017          31.000  
S23  36030668.536 1 189342428.733 2      -706.206          39.000  
J03  39139178.858 1 205677766.689 4      -651.644          37.000    39139173.838 2 160268362.729 7      -508.335          27.000  
G28  17058176.039 1  89641319.911 1      -640.625          48.000                                                                  
> 2021 12 15 13 51 34.9870000  0 33                     
G19  20805823.326 8 109335389.04618      3207.116          26.000                                                                  
G08  21672568.248 2 113890127.467 7     -4111.358          27.000                                                                  
G10  20023978.985 1 105226715.145 2      1084.369          42.000    20023977.610 2  81994844.829 7       844.910          29.000  
G13  17505275.877 1  91990836.675 1     -3182.618          49.000                                                                  
G14  17262452.818 1  90714788.680 1     -1978.010          48.000    17262448.610 1  70686839.064 3     -1541.208          37.000  
G15  17142258.464 1  90083166.728 1     -1874.298          48.000    17142254.148 2  70194663.512 4     -1459.991          34.000  
C25  22241951.027 1 115819672.492 2     -3955.492          41.000                                                                  
C19  20202568.944 1 105200079.151 1      1020.144          42.000                                                                  
C10  33841807.299 1 176223168.573 1     -1088.424          44.000    33841799.260 2 136266899.822 5      -841.584          32.000  
C07  34536595.710 1 179841117.934 1     -1525.048          44.000    34536584.086 2 139064512.448 5     -1178.921          32.000  
C11  20776898.895 1 108190761.538 1       923.251          43.000    20776890.992 2  83659928.453 4       713.416          33.000  
C20  19672388.250 1 102439291.205 1     -2044.947          50.000                                                                  
R06  16621142.302 1  88693607.908 2     -3307.841          41.000                                                                  
R09  18817516.344 1 100484485.658 1      3252.362          46.000    18817517.321 2  78154624.188 3      2529.628          36.000  
R15  16852028.171 1  90052126.893 1     -3727.124          51.000    16852028.431 1  70040549.712 2     -2898.700          41.000  
R24  17948862.402 1  95980628.763 2     -1358.287          42.000    17948861.938 2  74651586.543 5     -1057.164          32.000  
G17  19132071.628 1 100539697.682 1      1895.937          43.000    19132066.915 2  78342609.222 7      1477.057          29.000  
G21  20708927.146 1 108826135.827 2       194.232          40.000                                                                  
G23  18962262.119 1  99647359.511 3     -1187.334          36.000    18962257.925 2  77647267.912 5      -925.671          32.000  
G24  18447380.878 1  96941638.463 1      2457.665          45.000    18447379.492 2  75538932.638 4      1915.215          35.000  
G30  20071966.620 1 105478882.228 2     -4153.558          41.000    20071963.792 2  82191330.836 6     -3236.542          29.000  
C23  18690937.588 1  97328617.116 1     -2134.824          50.000                                                                  
C12  21367540.324 1 111266384.972 3     -2013.489          36.000    21367531.976 2               9     -1557.585          27.000  
C32  22111882.570 1 115142373.708 3     -4203.330          35.000                                                                  
C34  20761156.093 1 108108786.028 1      -542.037          46.000                                                                  
C37  18832524.918 1  98065900.092 1      1025.156          49.000                                                                  
R23  19616295.863 1 104933969.035 2     -4189.362          41.000                                                                  
R17  18292184.256 1  97885169.346 1      2423.955          46.000    18292183.185 2  76132908.571 2      1885.323          38.000  
R07  16720736.986 1  89507413.501 1      1042.826          49.000    16720736.550 1  69616874.282 2       810.878          42.000  
R08  20061593.470 2 107429015.207 3      3565.234          37.000    20061594.608 4  83555811.710 7      2773.120          31.000  
S23  36030802.844 1 189343134.793 2      -706.091          39.000  
J03  39139302.857 1 205678418.702 4      -652.739          38.000    39139297.948 2 160268870.727 8      -507.923          27.000  
G28  17058298.072 1  89641960.928 1      -641.418          48.000                                                                  
> 2021 12 15 13 51 35.9870000  0 33                     
G19  20805212.853 8 109332182.165 7      3206.588          26.000                                                                  
G08  21673350.705 2               9     -4111.513          27.000                                                                  
G10  20023772.613 1 105225631.168 2      1083.630          41.000    20023771.390 2  81994000.172 8       843.860          29.000  
G13  17505881.483 1  91994019.483 1     -3183.114          49.000                                                                  
G14  17262829.259 1  90716766.996 1     -1978.557          48.000    17262825.093 1  70688380.602 3     -1542.059          37.000  
G15  17142615.273 1  90085041.490 1     -1875.050          49.000    17142611.047 2  70196124.357 4     -1461.236          34.000  
C25  22242710.756 1 115823628.174 2     -3955.849          41.000                                                                  
C19  20202373.055 1 105199059.246 2      1019.533          42.000                                                                  
C10  33842016.416 1 176224257.059 1     -1088.551          44.000    33842008.176 2 136267741.494 5      -841.584          32.000  
C07  34536888.653 1 179842643.167 1     -1525.398          44.000    34536877.006 2 139065691.898 5     -1179.521          32.000  
C11  20776721.609 1 108189838.524 1       922.765          43.000    20776713.620 2  83659214.718 5       712.846          33.000  
C20  19672781.093 1 102441336.452 1     -2045.558          50.000                                                                  
R06  16621762.189 1  88696915.919 2     -3308.417          41.000                                                                  
R09  18816907.204 1 100481233.448 1      3251.823          46.000    18816908.319 2  78152094.686 3      2529.512          36.000  
R15  16852725.637 1  90055854.344 1     -3727.698          51.000    16852725.947 1  70043448.844 2     -2899.463          41.000  
R24  17949116.598 1  95981987.935 1     -1359.656          42.000    17949116.203 4  74652643.678 6     -1057.934          32.000  
G17  19131710.986 1 100537802.124 1      1895.190          43.000    19131706.227 2  78341132.130 7      1476.987          29.000  
G21  20708890.362 1 108825941.938 2       193.594          40.000                                                                  
G23  18962488.385 1  99648548.003 3     -1189.163          35.000    18962484.081 2  77648194.020 6      -926.619          31.000  
G24  18446913.266 1  96939181.006 1      2457.240          45.000    18446911.772 2  75537017.749 4      1914.769          35.000  
G30  20072757.065 1 105483036.004 2     -4153.937          41.000    20072754.344 2  82194567.509 5     -3236.353          29.000  
C23  18691347.512 1  97330752.221 1     -2135.412          50.000                                                                  
C12  21367927.064 1 111268399.102 3     -2014.212          36.000    21367918.582 2               9     -1557.583          26.000  
C32  22112689.759 1 115146577.115 4     -4202.555          35.000                                                                  
C34  20761260.424 1 108109328.497 1      -542.889          46.000                                                                  
C37  18832328.076 1  98064875.084 1      1024.714          50.000                                                                  
R23  19617079.016 1 104938158.756 2     -4189.875          41.000                                                                  
R17  18291731.300 1  97882745.565 1      2423.424          46.000    18291730.253 2  76131023.403 2      1885.006          38.000  
R07  16720542.152 1  89506371.085 1      1041.898          49.000    16720541.704 1  69616063.494 2       810.621          43.000  
R08  20060927.739 2 107425450.402 3      3564.813          37.000    20060928.730 4  83553039.091 7      2772.278          30.000  
S23  36030937.250 1 189343841.009 2      -706.287          39.000  
J03  39139426.934 1 205679070.834 3      -652.245          38.000    39139422.075 2 160269378.908 7      -508.265          27.000  
G28  17058420.260 1  89642602.663 1      -642.090          48.000                                                                  
> 2021 12 15 13 51 36.9870000  0 33                     
G19  20804606.235 8 109328975.446 7      3206.520          26.000                                                                  
G08  21674133.398 2 113898350.635 8     -4112.046          27.000                                                                  
G10  20023566.492 1 105224547.832 2      1083.228          41.000    20023565.259 2  81993155.974 6       843.939          29.000  
G13  17506487.381 1  91997202.857 1     -3183.597          49.000                                                                  
G14  17263205.891 1  90718745.971 1     -1979.296          48.000    17263201.665 1  70689922.656 3     -1542.188          37.000  
G15  17142972.147 1  90086916.982 1     -1875.562          49.000    17142967.828 2  70197585.782 4     -1461.431          34.000  
C25  22243470.533 1 115827583.977 2     -3955.855          41.000                                                                  
C19  20202177.281 1 105198039.885 1      1019.279          42.000                                                                  
C10  33842225.405 1 176225345.716 1     -1088.527          44.000    33842217.017 2 136268583.341 5      -842.050          32.000  
C07  34537181.606 1 179844168.549 1     -1525.310          44.000    34537170.191 2 139066871.394 6     -1179.581          32.000  
C11  20776544.503 1 108188916.093 1       922.416          43.000    20776536.495 2  83658501.424 4       713.275          33.000  
C20  19673173.873 1 102443382.308 1     -2045.996          49.000                                                                  
R06  16622382.319 1  88700224.744 2     -3308.854          42.000                                                                  
R09  18816298.164 1 100477981.513 1      3251.921          46.000    18816299.204 2  78149565.413 3      2529.431          37.000  
R15  16853423.331 1  90059582.296 1     -3728.027          51.000    16853423.617 1  70046348.368 2     -2899.542          41.000  
R24  17949371.057 1  95983348.061 2     -1360.251          42.000    17949370.599 2  74653701.555 5     -1058.624          32.000  
G17  19131350.379 1 100535907.029 1      1895.103          43.000    19131345.509 2  78339655.471 7      1476.287          29.000  
G21  20708853.628 1 108825748.646 2       193.030          40.000                                                                  
G23  18962714.747 1  99649737.242 5     -1189.705          34.000    18962710.452 2  77649120.673 7      -926.560          31.000  
G24  18446445.849 1  96936723.950 1      2456.901          45.000    18446444.315 2  75535103.137 4      1914.601          35.000  
G30  20073547.545 1 105487190.013 2     -4154.010          42.000    20073544.911 2  82197804.423 5     -3236.835          29.000  
C23  18691757.521 1  97332887.791 1     -2135.706          50.000                                                                  
C12  21368314.003 1 111270413.877 4     -2014.802          36.000    21368305.256 2               9     -1558.090          26.000  
C32  22113496.894 1 115150780.774 3     -4203.177          35.000                                                                  
C34  20761364.680 1 108109871.611 1      -543.397          46.000                                                                  
C37  18832131.348 1  98063850.510 1      1024.456          50.000                                                                  
R23  19617862.353 1 104942349.105 2     -4190.329          41.000                                                                  
R17  18291278.490 1  97880322.512 1      2422.711          46.000    18291277.428 2  76129138.815 2      1884.395          38.000  
R07  16720347.593 1  89505329.571 1      1041.124          49.000    16720347.211 1  69615253.434 1       809.869          43.000  
R08  20060261.896 2 107421885.847 3      3564.923          37.000    20060263.118 8               9      2772.187          30.000  
S23  36031071.678 1 189344547.269 2      -706.316          39.000  
J03  39139551.008 1 205679723.059 3      -651.880          38.000    39139546.196 2 160269887.098 8      -507.631          27.000  
G28  17058542.516 1  89643245.033 1      -642.645          48.000                                                                  
> 2021 12 15 13 51 37.9870000  0 33                     
G19  20803997.074 8 109325768.862 7      3206.958          26.000                                                                  
G08  21674916.103 2 113902462.697 8     -4112.099          27.000                                                                  
G10  20023360.460 1 105223465.112 2      1083.002          41.000    20023359.234 2  81992312.301 5       843.555          29.000  
G13  17507093.243 1  92000386.794 1     -3184.102          49.000                                                                  
G14  17263582.585 1  90720725.579 1     -1979.778          48.000    17263578.296 1  70691465.209 3     -1542.837          37.000  
G15  17143329.206 1  90088793.212 1     -1876.449          49.000    17143324.771 2  70199047.784 4     -1462.240          34.000  
C25  22244230.284 1 115831539.925 2     -3955.808          41.000                                                                  
C19  20201981.724 1 105197021.105 2      1018.492          42.000                                                                  
C10  33842434.452 1 176226434.540 1     -1088.616          44.000    33842426.049 2 136269425.288 4      -842.135          33.000  
C07  34537474.436 1 179845694.074 2     -1525.371          44.000    34537463.157 2 139068051.020 6     -1179.243          32.000  
C11  20776367.510 1 108187994.244 1       921.753          43.000    20776359.277 2  83657788.586 4       712.562          33.000  
C20  19673566.955 1 102445428.771 1     -2046.594          50.000                                                                  
R06  16623002.526 1  88703534.413 2     -3310.126          42.000                                                                  
R09  18815689.226 1 100474729.866 1      3251.583          46.000    18815690.349 2  78147036.349 3      2529.224          37.000  
R15  16854120.900 1  90063310.755 1     -3728.613          50.000    16854121.378 1  70049248.271 2     -2900.037          41.000  
R24  17949625.727 1  95984709.145 2     -1361.433          43.000    17949625.122 2  74654760.159 5     -1059.060          32.000  
G17  19130989.852 1 100534012.427 1      1894.461          43.000    19130984.909 2  78338179.131 7      1476.138          29.000  
G21  20708816.920 1 108825555.960 2       192.285          40.000                                                                  
G23  18962941.247 2  99650927.174 5     -1189.903          34.000    18962936.737 2  77650047.895 7      -927.268          31.000  
G24  18445978.399 1  96934267.273 1      2456.423          45.000    18445976.872 2  75533188.867 4      1914.272          35.000  
G30  20074338.111 1 105491344.269 2     -4154.278          42.000    20074335.536 2  82201041.510 6     -3237.225          29.000  
C23  18692167.758 1  97335023.817 1     -2136.129          50.000                                                                  
C12  21368701.126 1 111272429.219 4     -2015.160          36.000    21368692.301 2               9     -1558.676          26.000  
C32  22114304.037 1 115154984.589 3     -4203.380          35.000                                                                  
C34  20761469.060 1 108110415.372 1      -543.987          46.000                                                                  
C37  18831934.713 1  98062826.378 1      1024.034          50.000                                                                  
R23  19618645.850 1 104946540.086 2     -4191.070          41.000                                                                  
R17  18290825.839 1  97877900.135 1      2422.010          46.000    18290824.685 2  76127254.735 2      1883.896          38.000  
R07  16720153.048 1  89504288.950 1      1040.314          49.000    16720152.897 1  69614444.059 2       809.304          43.000  
R08  20059596.116 2 107418321.557 3      3564.496          37.000    20059597.606 4  83547514.44038      2772.193          30.000  
S23  36031206.060 1 189345253.592 2      -705.924          39.000  
J03  39139675.170 1 205680375.409 3      -652.601          38.000    39139670.372 2               9      -508.374          27.000  
G28  17058664.847 1  89643888.033 1      -643.207          48.000                                                                  
> 2021 12 15 13 51 38.9870000  0 33                     
G19  20803388.116 8 109322562.498 7      3206.042          27.000                                                                  
G08  21675698.669 2 113906574.830 8     -4111.673          28.000                                                                  
G10  20023154.518 1 105222382.981 2      1081.970          40.000    20023153.219 2  81991469.086 6       842.413          29.000  
G13  17507699.289 1  92003571.225 1     -3185.006          49.000                                                                  
G14  17263959.396 1  90722705.766 1     -1980.747          48.000    17263955.048 1  70693008.216 3     -1543.319          37.000  
G15  17143686.362 1  90090670.100 1     -1877.402          49.000    17143681.966 2  70200510.288 4     -1462.927          34.000  
C25  22244989.898 1 115835495.950 2     -3956.060          41.000                                                                  
C19  20201786.270 1 105196002.821 2      1017.946          41.000                                                                  
C10  33842643.517 1 176227523.461 1     -1089.144          44.000    33842635.197 2 136270267.294 6      -842.501          32.000  
C07  34537767.517 1 179847219.666 1     -1525.832          44.000    34537756.177 2 139069230.699 6     -1179.294          32.000  
C11  20776190.693 1 108187072.906 1       921.103          43.000    20776182.286 2  83657076.162 5       712.111          33.000  
C20  19673960.125 1 102447475.769 1     -2047.382          50.000                                                                  
R06  16623622.902 1  88706844.800 2     -3311.057          42.000                                                                  
R09  18815080.256 1 100471478.404 1      3251.222          46.000    18815081.410 2  78144507.469 3      2528.494          37.000  
R15  16854818.625 1  90067039.664 1     -3729.297          51.000    16854819.133 1  70052148.539 2     -2900.684          41.000  
R24  17949880.449 1  95986071.128 2     -1362.573          43.000    17949879.940 2  74655819.486 5     -1059.659          32.000  
G17  19130629.447 1 100532118.233 1      1893.777          43.000    19130624.535 2  78336703.133 6      1476.108          29.000  
G21  20708780.369 1 108825363.796 2       191.818          40.000                                                                  
G23  18963167.887 1  99652117.856 5     -1190.877          34.000    18963163.322 2  77650975.736 6      -928.697          30.000  
G24  18445510.990 1  96931810.899 1      2456.121          45.000    18445509.415 1  75531274.786 4      1914.524          35.000  
G30  20075128.777 1 105495498.683 2     -4154.688          41.000    20075126.035 2  82204278.721 6     -3237.451          29.000  
C23  18692577.968 1  97337160.240 1     -2136.796          50.000                                                                  
C12  21369088.159 1 111274445.137 3     -2016.580          37.000    21369079.220 2               9     -1558.311          26.000  
C32  22115111.342 1 115159188.540 4     -4204.052          34.000                                                                  
C34  20761573.680 1 108110959.722 1      -544.779          46.000                                                                  
C37  18831738.135 1  98061802.627 1      1023.467          50.000                                                                  
R23  19619429.505 1 104950731.593 2     -4191.956          42.000                                                                  
R17  18290373.168 1  97875478.352 1      2421.152          46.000    18290372.056 2  76125371.137 3      1883.103          38.000  
R07  16719958.789 1  89503249.198 1      1039.232          50.000    16719958.680 1  69613635.388 2       808.048          42.000  
R08  20058930.410 2 107414757.468 3      3563.935          37.000    20058931.981 4  83544742.44327      2771.479          30.000  
S23  36031340.455 1 189345959.865 2      -706.648          39.000  
J03  39139799.318 1 205681027.775 3      -652.922          38.000    39139794.531 2 160270903.802 8      -508.479          27.000  
G28  17058787.286 1  89644531.589 1      -644.061          48.000                                                                  
> 2021 12 15 13 51 39.9870000  0 33                     
G19  20802779.440 8 109319356.239 7      3205.907          27.000                                                                  
G08  21676481.201 2 113910687.548 7     -4112.878          28.000                                                                  
G10  20022948.797 1 105221301.497 2      1081.073          41.000    20022947.535 2  81990626.343 6       842.365          29.000  
G13  17508305.342 1  92006756.225 1     -3185.129          49.000                                                                  
G14  17264336.301 1  90724686.599 1     -1981.005          48.000    17264331.955 1  70694551.723 3     -1543.756          37.000  
G15  17144043.640 1  90092547.734 1     -1877.949          49.000    17144039.326 2  70201973.368 4     -1463.445          34.000  
C25  22245749.715 1 115839452.133 2     -3956.246          41.000                                                                  
C19  20201590.785 1 105194985.078 2      1017.557          41.000                                                                  
C10  33842852.642 1 176228612.513 1     -1088.875          44.000    33842844.418 2 136271109.414 5      -842.391          32.000  
C07  34538060.490 1 179848745.416 1     -1525.555          43.000    34538049.238 2 139070410.517 6     -1179.439          32.000  
C11  20776013.803 1 108186152.135 1       920.896          43.000    20776005.497 2  83656364.120 5       712.802          33.000  
C20  19674353.453 1 102449523.379 1     -2047.840          50.000                                                                  
R06  16624243.410 1  88710156.024 2     -3311.500          42.000                                                                  
R09  18814471.486 1 100468227.239 1      3251.102          46.000    18814472.734 2  78141978.781 3      2528.650          37.000  
R15  16855516.603 1  90070769.053 1     -3729.388          51.000    16855517.060 1  70055049.169 2     -2900.446          41.000  
R24  17950135.359 1  95987434.172 1     -1363.369          43.000    17950134.736 2  74656879.639 5     -1060.905          33.000  
G17  19130269.022 1 100530224.521 1      1893.457          43.000    19130264.332 2  78335227.559 6      1475.445          29.000  
G21  20708743.981 1 108825172.261 2       191.172          39.000                                                                  
G24  18445043.675 1  96929354.924 1      2455.937          46.000    18445041.994 1  75529361.090 3      1913.080          35.000  
G30  20075919.350 1 105499653.337 2     -4154.565          42.000    20075916.801 2  82207516.115 6     -3237.445          29.000  
C23  18692988.422 1  97339297.104 1     -2136.868          50.000                                                                  
C12  21369475.298 1 111276461.625 3     -2016.689          37.000    21369466.615 2  86045989.285 8     -1559.443          27.000  
C32  22115918.659 1 115163392.633 4     -4204.342          34.000                                                                  
C34  20761678.273 1 108111504.727 1      -545.219          46.000                                                                  
C37  18831541.633 1  98060779.312 1      1023.339          50.000                                                                  
R23  19620213.197 1 104954923.719 2     -4191.941          41.000                                                                  
R17  18289920.706 1  97873057.227 1      2421.233          46.000    18289919.474 2  76123488.050 3      1882.939          38.000  
R07  16719764.717 1  89502210.351 1      1038.514          50.000    16719764.673 1  69612827.373 2       807.639          42.000  
R08  20058264.862 2 107411193.710 3      3563.397          37.000    20058266.479 4  83541970.55327      2771.790          29.000  
S23  36031474.822 1 189346666.201 2      -706.559          39.000  
J03  39139923.566 1 205681680.205 3      -651.972          38.000    39139918.739 2               9      -507.794          28.000  
G28  17058909.869 1  89645175.785 1      -644.342          48.000                                                                  
G23                                                                  18963390.050 2  77651904.107 6      -928.253          30.000  
> 2021 12 15 13 51 40.9870000  0 33                     
G19  20802168.594 8 109316150.243 7      3205.428          27.000                                                                  
G08  21677263.814 2 113914800.547 7     -4112.845          28.000                                                                  
G10  20022743.073 1 105220220.676 2      1080.542          42.000    20022741.803 2  81989784.171 6       841.638          28.000  
G13  17508911.583 1  92009941.827 1     -3185.822          49.000                                                                  
G14  17264713.370 1  90726668.108 1     -1981.736          48.000    17264709.018 1  70696095.757 3     -1544.196          37.000  
G15  17144401.120 1  90094426.119 1     -1878.689          49.000    17144396.864 2  70203437.050 4     -1463.884          34.000  
C25  22246509.432 1 115843408.456 2     -3956.360          41.000                                                                  
C19  20201395.283 1 105193967.904 2      1016.846          42.000                                                                  
C10  33843061.639 1 176229701.760 1     -1089.211          44.000    33843053.636 2 136271951.719 5      -842.651          32.000  
C07  34538353.585 1 179850271.341 1     -1526.051          44.000    34538342.306 2 139071590.498 6     -1180.556          32.000  
C11  20775837.043 1 108185231.979 1       919.976          42.000    20775828.660 2  83655652.644 4       710.560          32.000  
C20  19674746.823 1 102451571.616 1     -2048.456          50.000                                                                  
R06  16624864.183 1  88713468.103 2     -3312.433          42.000                                                                  
R09  18813862.739 1 100464976.358 1      3250.743          46.000    18813863.985 2  78139450.307 3      2528.431          37.000  
R15  16856214.593 1  90074498.950 1     -3729.980          50.000    16856215.052 1  70057950.202 2     -2901.104          41.000  
R24  17950390.460 1  95988798.287 1     -1364.610          43.000    17950389.845 2  74657940.574 5     -1060.953          33.000  
G17  19129908.670 1 100528331.292 1      1893.211          43.000    19129904.223 2  78333752.312 6      1474.737          29.000  
G21  20708707.706 1 108824981.326 2       190.843          40.000                                                                  
G23  18963621.846 2  99654504.48015     -1193.006          34.000    18963617.038 4  77652833.030 7      -927.657          30.000  
G24  18444576.415 1  96926899.377 1      2455.324          46.000    18444574.616 2  75527447.664 4      1913.366          35.000  
G30  20076709.982 1 105503808.240 2     -4154.980          41.000    20076707.389 2  82210753.718 6     -3237.762          29.000  
C23  18693398.844 1  97341434.467 1     -2137.467          50.000                                                                  
C12  21369862.540 1 111278478.787 3     -2017.504          37.000    21369853.885 2  86047549.008 8     -1559.697          27.000  
C32  22116726.036 1 115167596.912 4     -4204.080          34.000                                                                  
C34  20761783.054 1 108112050.431 1      -546.094          47.000                                                                  
C37  18831345.198 1  98059756.475 1      1022.682          50.000                                                                  
R23  19620997.000 1 104959116.488 2     -4192.988          42.000                                                                  
R17  18289468.442 1  97870636.908 1      2419.990          46.000    18289467.148 2  76121605.576 2      1882.423          38.000  
R07  16719570.948 1  89501172.438 1      1037.518          50.000    16719570.712 1  69612020.099 1       806.920          42.000  
R08  20057599.413 2 107407630.275 3      3563.031          36.000    20057601.147 4  83539199.057 6      2771.027          29.000  
S23  36031609.367 1 189347372.601 2      -706.173          39.000  
J03  39140047.814 1 205682332.798 3      -652.625          38.000    39140042.989 2               9      -508.078          27.000  
G28  17059032.608 1  89645820.636 1      -645.038          48.000                                                                  
