     3.03           OBSERVATION DATA    M: Mixed            RINEX VERSION / TYPE
RTKCONV demo5 b34c                      20211215 160044 UTC PGM / RUN BY / DATE 
format: u-blox UBX                                          COMMENT             
log: C:\Users\Admin\Desktop\data test 1\Test\Test 4\R004.UBXCOMMENT             
                                                            MARKER NAME         
                                                            MARKER NUMBER       
                                                            MARKER TYPE         
                                                            OBSERVER / AGENCY   
                                                            REC # / TYPE / VERS 
                                                            ANT # / TYPE        
        0.0000        0.0000        0.0000                  APPROX POSITION XYZ 
        0.0000        0.0000        0.0000                  ANTENNA: DELTA H/E/N
G    8 C1C L1C D1C S1C C2X L2X D2X S2X                      SYS / # / OBS TYPES 
R    8 C1C L1C D1C S1C C2C L2C D2C S2C                      SYS / # / OBS TYPES 
E    8 C1X L1X D1X S1X C7X L7X D7X S7X                      SYS / # / OBS TYPES 
J    8 C1C L1C D1C S1C C2X L2X D2X S2X                      SYS / # / OBS TYPES 
S    4 C1C L1C D1C S1C                                      SYS / # / OBS TYPES 
C    8 C2I L2I D2I S2I C7I L7I D7I S7I                      SYS / # / OBS TYPES 
  2021    12    15    13    50   36.9930000     GPS         TIME OF FIRST OBS   
  2021    12    15    14    04   09.9930000     GPS         TIME OF LAST OBS    
G L1C                                                       SYS / PHASE SHIFT   
G L2X  0.00000                                              SYS / PHASE SHIFT   
R L1C                                                       SYS / PHASE SHIFT   
R L2C                                                       SYS / PHASE SHIFT   
E L1X  0.00000                                              SYS / PHASE SHIFT   
E L7X  0.00000                                              SYS / PHASE SHIFT   
J L1C                                                       SYS / PHASE SHIFT   
J L2X  0.00000                                              SYS / PHASE SHIFT   
S L1C                                                       SYS / PHASE SHIFT   
C L2I                                                       SYS / PHASE SHIFT   
C L7I                                                       SYS / PHASE SHIFT   
  8 R06 -4 R07  5 R08  6 R09 -2 R15  0 R17  4 R23  3 R24  2 GLONASS SLOT / FRQ #
 C1C    0.000 C1P    0.000 C2C    0.000 C2P    0.000        GLONASS COD/PHS/BIS 
                                                            END OF HEADER       
> 2021 12 15 13 50 36.9930000  0 36                     
G10  21705278.105 4 114062006.22312      1446.942          41.000    21705272.985 1  88879464.41213      1127.051          37.000  
G13  19139461.307 1 100578547.45312     -2824.391          41.000                                                                  
G14  18909955.974 1  99372488.69612     -1615.407          42.000    18909949.973 1  77433083.48311     -1258.899          45.000  
G15  18790935.315 1  98747030.59711     -1506.744          45.000    18790927.217 1  76945705.36912     -1173.792          41.000  
C07  36188788.279 1 188444516.74034     -1194.909          34.000    36188775.941 1 145717204.62312      -924.064          38.000  
C10  35498868.450 1 184851922.68414      -756.997          35.000    35498860.183 1 142939199.76312      -585.636          40.000  
C11  22456503.837 1 116936907.77812      1278.740          41.000    22456496.112 1  90423003.21912       988.818          44.000  
C12  23014439.550 2 119842225.91332     -1656.258          40.000    23014431.945 1  92669579.23511     -1280.752          44.000  
C19  21883245.442 1 113951800.71012      1374.658          42.000                                                                  
C20  21318942.118 1 111013324.98311     -1687.328          46.000                                                                  
R06  18254590.163 2  97409990.03013     -2930.096          37.000                                                                  
R09  20522065.693 1 109586684.94612      3598.636          40.000    20522052.494 1  85234033.87212      2799.100          42.000  
R23  21240211.271 8 113620807.07214     -3822.445          35.000                                                                  
R15  18480866.014 1  98756143.64812     -3367.984          43.000    18480853.190 1  76810280.10412     -2619.374          39.000  
R24  19603575.105 1 104829125.20812      -970.482          43.000    19603564.206 1  81533718.96712      -754.466          40.000  
R17  19987814.526 1 106958831.61212      2795.523          42.000    19987800.541 1  83190145.01111      2174.141          44.000  
G21  22380389.207 4 117609737.84913       554.320          34.000                                                                  
G23  20618519.505 1 108351050.66411      -819.384          46.000    20618506.112 4  84429335.74912      -638.654          39.000  
G24  20143758.857 1 105856166.26812      2805.200          43.000    20143754.442 1  82485306.82011      2185.783          43.000  
S23  37692155.610 1 198073613.73832      -378.423          40.000  
C23  20336441.488 1 105897186.06711     -1786.189          43.000                                                                  
C25  23867072.826 1 124282110.01213     -3625.669          36.000                                                                  
R08  21769428.974 8 116574302.59112      3913.428          39.000    21769416.126 8  90668848.25413      3043.268          36.000  
R07  18401447.770 1  98504389.73511      1425.614          47.000    18401440.866 1  76614496.64412      1108.536          42.000  
E03  22238846.740 1 116865928.22211        79.752          45.000    22238851.725 1  89546640.26811        60.995          46.000  
E05  22983456.061 1 120778875.86812     -2781.530          38.000    22983462.405 1  92544878.95611     -2131.127          46.000  
E08  23338467.909 4 122644476.00912      2418.020          40.000    23338474.748 1  93974365.87511      1852.704          44.000  
E24  21777961.728 1 114443961.27211      -583.290          44.000    21777964.423 1  87690838.24311      -447.075          48.000  
E25  23435239.106 1 123153011.81112      2211.333          41.000    23435243.943 1  94364016.09511      1694.259          43.000  
E26  24932505.295 4 131021198.86012      -686.723          41.000    24932511.794 1 100392892.98213      -526.257          38.000  
E31  23958554.717 4 125903053.92718     -2928.655          23.000    23958560.615 1  96471195.58013     -2245.542          35.000  
E33  25264117.636 9               9      1725.165          26.000    25264121.191 1 101728146.06013      1321.171          36.000  
G08  23296422.632 1 122423526.66911     -3767.573          43.000    23296427.010 1  95394973.01512     -2935.487          39.000  
G28  18720549.881 1  98377152.74232      -279.828          41.000                                                                  
G17                                                                  20822271.885 1  85263721.20512      1751.957          40.000  
G30                                                                  21695323.257 1  88838721.35112     -2972.522          41.000  
> 2021 12 15 13 50 37.9930000  0 38                     
G30  21696039.646 9               9     -3813.379          36.000    21696049.222 1  88841694.318 2     -2973.553          38.000  
G10  21705001.707 2 114060560.358 2      1445.007          42.000    21704997.934 1  88878337.758 2      1126.105          39.000  
G13  19139999.009 1 100581372.550 2     -2825.816          41.000                                                                  
G14  18910263.636 1  99374104.818 1     -1617.220          44.000    18910257.418 1  77434342.767 1     -1259.965          44.000  
G15  18791222.226 1  98748537.953 1     -1508.557          45.000    18791214.138 1  76946879.917 2     -1175.311          41.000  
C07  36189017.679 4 188445711.28035     -1195.531          39.000    36189005.501 1 145718128.698 3      -924.607          41.000  
C10  35499013.960 1 184852680.332 3      -758.615          40.000    35499005.760 1 142939785.575 2      -586.346          43.000  
C11  22456258.452 1 116935629.647 2      1277.078          42.000    22456250.675 1  90422014.902 1       987.731          47.000  
C19  21882981.526 1 113950426.742 2      1373.163          40.000                                                                  
C20  21319266.233 1 111015013.270 1     -1689.033          46.000                                                                  
R06  18255139.250 2  97412920.698 3     -2931.503          37.000                                                                  
R09  20521391.928 1 109583086.690 2      3597.564          43.000    20521378.600 1  85231235.250 2      2797.954          43.000  
R23  21240923.996 8 113624630.407 4     -3824.193          35.000                                                                  
R15  18481496.412 1  98759511.969 2     -3369.271          46.000    18481483.467 2  76812899.871 3     -2620.412          41.000  
R24  19603756.833 1 104830096.768 2      -972.201          37.000    19603745.625 2  81534474.628 3      -755.927          34.000  
R17  19987292.252 1 106956036.881 2      2794.108          41.000    19987278.201 1  83187971.348 1      2173.232          44.000  
G21  22380289.587 9               9       560.261          24.000                                                                  
G23  20618675.463 1 108351870.665 1      -820.772          44.000    20618662.599 4  84429974.705 2      -640.002          39.000  
G24  20143225.195 1 105853361.811 2      2803.735          42.000    20143220.681 1  82483121.535 1      2184.573          43.000  
S23  37692227.714 1 198073992.02723      -378.895          38.000  
C23  20336784.540 1 105898972.747 1     -1787.404          44.000                                                                  
C25  23867769.126 1 124285735.647 2     -3626.011          43.000                                                                  
R08  21768698.566 4 116570389.558 2      3912.457          39.000    21768683.376 8  90665804.773 4      3043.463          36.000  
R07  18401181.953 1  98502964.990 1      1423.981          45.000    18401174.524 1  76613388.553 2      1107.255          41.000  
G01  22591617.841 9               9      2624.115          25.000                                                                  
E03  22238831.675 1 116865849.121 1        78.421          44.000    22238836.665 1  89546579.649 1        59.914          46.000  
E05  22983985.210 1 120781657.732 2     -2782.669          38.000    22983991.630 1  92547010.554 1     -2132.152          46.000  
E08  23338004.379 4 122642058.530 2      2416.485          39.000    23338014.776 1  93972513.550 1      1851.760          44.000  
E24  21778072.845 1 114444545.365 1      -585.097          44.000    21778075.550 1  87691285.803 1      -448.168          48.000  
E25  23434818.564 1 123150801.289 2      2209.595          41.000    23434823.328 1  94362322.298 2      1693.179          44.000  
E26  24932632.884 4 131021886.304 3      -688.500          34.000    24932642.413 1 100393419.663 5      -527.421          30.000  
E31  23959112.830 2 125905984.212 4     -2930.821          40.000    23959118.635 1  96473440.671 3     -2245.799          44.000  
E33  25263795.390 8 132762140.34915      1722.849          37.000    25263793.134 1 101726825.438 3      1319.999          38.000  
G08  23297139.757 1 122427294.595 3     -3768.765          35.000    23297143.813 1  95397909.042 3     -2936.473          37.000  
G28  18720603.322 1  98377433.130 2      -281.342          43.000                                                                  
C12                                                                  23014750.279 1  92670860.588 4     -1281.563          32.000  
E13                                                                  26309942.835 8               9     -2314.536          25.000  
G17                                                                  20821844.078 1  85261969.506 2      1751.122          39.000  
> 2021 12 15 13 50 38.9930000  0 37                     
G30  21696776.813 9 114017331.23934     -3817.352          38.000    21696775.399 1  88844668.188 2     -2974.316          38.000  
G10  21704728.127 2 114059116.136 2      1443.286          41.000    21704723.183 1  88877212.382 2      1124.579          39.000  
G13  19140536.867 1 100584199.148 2     -2827.807          41.000                                                                  
G14  18910571.662 1  99375722.567 1     -1618.666          46.000    18910565.311 1  77435603.338 1     -1261.359          46.000  
G15  18791509.377 1  98750046.950 1     -1509.814          44.000    18791501.431 1  76948055.810 2     -1176.569          42.000  
G17  20821424.816 9 109417325.80134      2245.856          36.000    20821416.525 1  85260218.871 2      1750.102          38.000  
C07  36189246.747 2 188446907.637 2     -1197.193          41.000    36189235.279 1 145719053.783 2      -925.613          43.000  
C10  35499159.673 1 184853439.122 2      -759.387          42.000    35499151.542 1 142940372.345 1      -587.365          44.000  
C11  22456013.326 1 116934352.974 1      1275.524          43.000    22456005.488 1  90421027.697 1       986.368          46.000  
C19  21882718.027 1 113949054.154 2      1371.844          42.000                                                                  
C20  21319590.775 1 111016703.066 1     -1690.816          46.000                                                                  
R06  18255688.706 2  97415853.182 3     -2933.532          37.000                                                                  
R09  20520718.448 1 109579489.760 2      3596.421          40.000    20520704.950 1  85228437.654 2      2797.052          42.000  
R23  21241636.927 4 113628455.355 3     -3826.017          37.000                                                                  
R15  18482127.163 1  98762881.848 1     -3370.699          47.000    18482114.088 1  76815520.916 2     -2621.889          42.000  
R24  19603938.766 1 104831069.985 2      -974.188          38.000    19603927.642 2  81535231.605 4      -757.485          35.000  
R17  19986770.201 1 106953243.767 2      2792.382          40.000    19986756.149 1  83185798.915 1      2171.583          44.000  
G21  22380217.915 9               9       556.955          23.000                                                                  
G23  20618831.820 1 108352692.341 1      -822.601          46.000    20618820.011 4  84430615.004 2      -641.084          37.000  
G24  20142691.739 1 105850558.726 1      2802.190          44.000    20142687.201 1  82480937.321 1      2183.510          43.000  
S23  37692300.005 1 198074371.41322      -379.894          39.000  
C23  20337127.824 1 105900760.909 2     -1788.838          43.000                                                                  
C25  23868465.705 1 124289362.374 1     -3627.638          43.000                                                                  
R08  21767968.081 4 116566477.881 2      3910.919          41.000    21767950.888 8  90662762.334 5      3042.176          34.000  
R07  18400916.501 1  98501542.136 1      1421.708          46.000    18400908.547 1  76612281.819 2      1105.690          41.000  
E03  22238816.813 1 116865771.491 1        76.770          44.000    22238821.946 1  89546520.179 1        58.536          46.000  
E05  22984514.799 1 120784440.963 3     -2783.529          38.000    22984521.330 1  92549143.132 1     -2133.267          46.000  
E08  23337547.306 2 122639642.250 2      2415.474          41.000    23337554.990 1  93970662.090 1      1850.846          43.000  
E24  21778184.161 1 114445130.891 1      -586.347          44.000    21778187.075 1  87691734.443 1      -449.338          48.000  
E25  23434397.916 1 123148591.956 2      2208.361          41.000    23434402.862 1  94360629.436 1      1692.043          44.000  
E26  24932765.702 4 131022575.250 4      -689.477          34.000    24932773.745 1 100393947.591 5      -528.240          31.000  
E31  23959671.640 1 125908915.640 2     -2932.359          40.000    23959676.583 1  96475686.819 2     -2246.602          44.000  
E33  25263467.568 4 132760418.430 3      1720.936          37.000    25263465.537 1 101725506.005 2      1318.797          39.000  
G08  23297857.032 1 122431063.805 3     -3769.976          37.000    23297860.941 1  95400846.057 4     -2937.438          35.000  
G28  18720657.120 1  98377715.133 2      -283.130          41.000                                                                  
C12                                                                  23015068.938 1  92672142.907 5     -1282.311          33.000  
E13                                                                  26310517.492 8               9     -2318.209          25.000  
> 2021 12 15 13 50 42.9930000  0 36                     
G10  21703630.732 1 114053354.298 2      1437.567          39.000    21703627.119 1  88872722.647 2      1120.392          39.000  
G13  19142691.383 1 100595520.333 2     -2832.464          39.000                                                                  
G14  18911806.181 1  99382208.756 2     -1623.980          41.000    18911799.520 1  77440657.558 2     -1265.758          43.000  
G15  18792661.097 1  98756099.399 1     -1515.717          46.000    18792652.992 1  76952771.994 2     -1181.372          41.000  
G17  20819723.812 8 109408390.88928      2241.488          30.000    20819708.948 1  85253226.977 3      1746.260          36.000  
C07  36190168.082 4               9     -1200.981          26.000    36190156.577 1 145722762.358 3      -929.111          33.000  
C10  35499744.520 1 184856484.672 5      -762.911          30.000    35499736.588 1 142942727.411 2      -589.985          38.000  
C11  22455035.311 1 116929260.814 2      1270.381          40.000    22455027.560 1  90417090.087 1       982.373          42.000  
C19  21881666.208 1 113943578.425 2      1366.242          42.000                                                                  
C20  21320891.973 1 111023477.275 1     -1696.168          46.000                                                                  
R06  18257889.904 2  97427600.390 3     -2939.907          35.000                                                                  
R09  20518026.489 1 109565113.532 2      3592.415          41.000    20518012.574 1  85217256.171 2      2793.579          40.000  
R23  21244499.748 2 113643770.454 4     -3831.533          34.000                                                                  
R15  18484652.448 2  98776375.267 3     -3375.758          34.000    18484639.051 2  76826015.906 3     -2625.605          36.000  
R24  19604669.820 2 104834981.758 3      -981.371          39.000    19604658.953 2  81538274.109 2      -763.091          39.000  
R17  19984684.649 2 106942087.301 2      2786.612          36.000    19984671.423 1  83177121.713 1      2167.074          42.000  
G21  22379763.320 4 117606449.70635       545.637          39.000                                                                  
G23  20619460.390 1 108355995.552 1      -828.774          45.000    20619449.341 1  84433188.893 2      -646.106          37.000  
G24  20140560.370 1 105839358.966 2      2798.080          42.000    20140555.641 1  82472210.240 2      2180.070          42.000  
S23  37692590.671 1 198075898.22823      -383.335          38.000  
C23  20338503.749 1 105907926.676 1     -1793.910          41.000                                                                  
C25  23871253.602 1 124303879.357 2     -3631.228          37.000                                                                  
R08  21765048.210 2 116550842.935 3      3906.623          38.000    21765030.185 2  90650601.802 3      3038.294          37.000  
R07  18399857.558 1  98495868.648 1      1415.289          44.000    18399847.936 1  76607869.104 2      1100.744          43.000  
E03  22238760.404 1 116865475.058 1        71.841          43.000    22238765.649 1  89546292.993 1        54.797          46.000  
E05  22986635.930 1 120795586.405 2     -2788.415          39.000    22986642.339 1  92557683.115 1     -2136.521          46.000  
E08  23335713.379 1 122629988.540 2      2411.700          42.000    23335717.960 1  93963265.061 1      1847.827          42.000  
E24  21778632.706 1 114447486.480 1      -591.281          43.000    21778635.122 1  87693539.414 1      -453.065          47.000  
E25  23432718.405 1 123139766.508 2      2204.329          43.000    23432723.442 1  94353867.079 1      1688.755          43.000  
E26  24933297.538 2 131025345.679 4      -695.218          40.000    24933301.216 1 100396070.409 6      -532.563          37.000  
E31  23961905.060 2 125920652.710 5     -2935.679          28.000    23961909.843 1  96484680.311 5     -2249.729          29.000  
E33  25262168.494 4 132753543.762 4      1716.855          33.000    25262157.375 1 101720238.574 4      1315.134          33.000  
G08  23300728.961 1 122446152.664 3     -3774.101          40.000    23300730.597 4  95412603.593 5     -2941.118          34.000  
G28  18720874.685 1  98378858.215 2      -288.550          42.000                                                                  
C12                                                                  23016347.573 4  92677293.59834     -1287.565          41.000  
G30                                                                  21699682.309 1  88856572.505 2     -2977.637          40.000  
> 2021 12 15 13 50 43.9930000  0 37                     
G10  21703357.419 1 114051917.337 2      1436.847          39.000    21703353.698 1  88871603.065 2      1119.257          39.000  
G13  19143230.573 1 100598354.000 2     -2834.606          41.000                                                                  
G14  18912115.467 1  99383833.780 3     -1625.887          33.000    18912108.902 1  77441924.075 2     -1267.932          34.000  
G15  18792949.740 1  98757616.356 2     -1518.011          45.000    18792941.616 1  76953953.985 2     -1182.672          42.000  
G17  20819294.486 8 109406150.39416      2239.245          31.000    20819282.583 1  85251481.532 3      1744.916          39.000  
C07  36190398.600 4               9     -1200.504          26.000    36190387.377 1 145723691.322 4      -929.329          33.000  
C10  35499891.269 2 184857248.466 7      -765.099          29.000    35499883.339 1 142943318.174 3      -591.964          32.000  
C11  22454791.488 1 116927991.205 4      1268.676          33.000    22454783.778 1  90416108.516 2       980.474          38.000  
C12  23016673.971 9 119853861.18735     -1666.757          40.000    23016667.363 2  92678581.56422     -1287.946          40.000  
C19  21881403.910 1 113942212.813 2      1364.581          41.000                                                                  
C20  21321217.878 1 111025174.310 1     -1697.947          47.000                                                                  
R06  18258441.049 2  97430541.278 3     -2942.029          35.000                                                                  
R09  20517354.131 1 109561522.297 2      3590.949          41.000    20517339.881 1  85214462.943 2      2793.357          42.000  
R23  21245215.894 2 113647602.899 3     -3833.718          37.000                                                                  
R15  18485284.615 2  98779752.142 3     -3380.307          30.000    18485270.876 4  76828642.315 6     -2626.219          32.000  
R24  19604853.435 2 104835964.246 3      -983.215          37.000    19604842.549 2  81539038.317 3      -764.552          39.000  
R17  19984163.937 2 106939301.870 3      2783.545          35.000    19984150.998 2  83174955.393 3      2166.320          36.000  
G21  22379658.820 4 117605905.03325       543.787          38.000                                                                  
G23  20619618.218 1 108356825.230 2      -830.909          46.000    20619607.415 1  84433835.451 2      -647.019          39.000  
G24  20140028.028 1 105836561.987 2      2796.282          44.000    20140023.345 1  82470030.757 2      2179.100          42.000  
S23  37692663.696 1 198076281.99323      -384.714          40.000  
C23  20338848.502 1 105909721.192 2     -1795.915          34.000                                                                  
C25  23871950.958 1 124307510.612 3     -3629.375          32.000                                                                  
R08  21764318.764 2 116546936.935 2      3905.615          36.000    21764300.927 2  90647563.849 4      3037.744          35.000  
R07  18399593.554 1  98494454.465 1      1413.149          45.000    18399583.663 1  76606769.212 2      1099.356          42.000  
E03  22238746.857 1 116865404.207 1        70.096          44.000    22238752.250 1  89546238.740 1        53.751          47.000  
E05  22987166.836 1 120798375.725 3     -2790.648          36.000    22987173.162 1  92559820.344 1     -2137.649          47.000  
E08  23335255.166 1 122627577.805 2      2409.488          42.000    23335259.113 1  93961417.786 1      1846.961          43.000  
E24  21778745.396 1 114448078.595 1      -593.296          41.000    21778747.744 1  87693993.068 1      -454.156          45.000  
E25  23432298.738 1 123137562.884 2      2203.373          42.000    23432304.150 1  94352178.585 1      1688.241          44.000  
E26  24933430.506 1 131026041.722 2      -696.693          40.000    24933433.946 1 100396603.810 6      -534.309          37.000  
E31  23962463.482 2 125923589.144 6     -2934.163          28.000    23962468.468 1  96486930.986 6     -2250.112          31.000  
E33  25261842.745 4 132751828.176 7      1716.516          28.000    25261831.113 1 101718924.315 6      1310.986          30.000  
G08  23301447.370 1 122449927.634 3     -3774.964          41.000    23301448.042 4  95415545.142 4     -2942.471          36.000  
G28  18720929.795 1  98379147.546 2      -290.607          41.000                                                                  
G01                                                                  22588575.136 9               9      2037.829          25.000  
G30                                                                  21700409.533 1  88859550.514 2     -2978.412          37.000  
> 2021 12 15 13 50 44.9930000  0 36                     
G30  21701141.863 4 114040269.35023     -3823.743          38.000    21701136.906 1  88862529.470 3     -2979.639          38.000  
G10  21703084.421 1 114050482.018 3      1434.631          40.000    21703080.607 1  88870484.515 3      1117.926          38.000  
G13  19143770.062 1 100601189.123 2     -2835.997          42.000                                                                  
G14  18912425.076 2               9     -1627.017          36.000    18912418.358 1  77443191.420 3     -1267.826          36.000  
G15  18793238.733 1  98759134.815 1     -1519.141          44.000    18793230.646 1  76955137.237 2     -1184.003          41.000  
G17  20818870.149 9               9      2238.602          25.000    20818856.584 1  85249737.073 2      1743.861          39.000  
C07  36190628.868 4 188454100.82837     -1206.287          25.000    36190618.235 1 145724620.839 5      -929.415          34.000  
C10  35500038.147 2               9      -766.137          29.000    35500030.149 1 142943909.205 5      -590.731          32.000  
C11  22454547.926 2 116926722.832 7      1268.290          28.000    22454540.266 1  90415127.760 2       980.280          39.000  
C12  23016994.108 9 119855528.35623     -1667.660          36.000    23016987.550 2  92679870.22812     -1289.470          39.000  
C19  21881141.944 1 113940848.591 2      1362.872          38.000                                                                  
C20  21321544.207 1 111026872.744 1     -1698.952          45.000                                                                  
R06  18258992.378 2  97433483.766 3     -2943.401          36.000                                                                  
R09  20516681.757 1 109557931.999 2      3589.798          42.000    20516667.563 1  85211670.547 2      2792.100          43.000  
R23  21245932.267 2 113651436.509 4     -3834.188          36.000                                                                  
R15  18485916.849 4  98783129.808 8     -3378.914          37.000    18485903.049 2  76831269.453 6     -2626.878          31.000  
R24  19605037.530 2 104836948.588 2      -985.452          37.000    19605026.541 2  81539803.890 3      -766.518          36.000  
R17  19983641.537 8 106936501.54036      2782.883          37.000    19983630.698 2  83172790.115 4      2164.995          35.000  
G21  22379552.707 4 117605361.80024       542.679          33.000                                                                  
G23  20619776.303 1 108357656.492 1      -831.909          45.000    20619765.735 1  84434483.134 3      -648.317          37.000  
G24  20139495.915 1 105833766.182 2      2795.109          43.000    20139491.192 1  82467852.248 2      2177.939          39.000  
S23  37692736.985 1 198076666.779 2      -384.567          37.000  
C23  20339193.517 1 105911517.008 3     -1796.598          40.000                                                                  
C25  23872648.786 1 124311143.524 5     -3634.050          36.000                                                                  
R08  21763589.541 2 116543032.084 3      3904.327          38.000    21763571.889 2  90644526.706 4      3036.408          34.000  
R07  18399329.790 1  98493041.996 1      1411.643          45.000    18399319.853 1  76605670.693 2      1098.129          39.000  
E03  22238733.345 1 116865334.712 1        68.871          43.000    22238738.977 1  89546185.482 1        52.812          46.000  
E05  22987697.759 1 120801166.050 3     -2790.990          37.000    22987704.097 1  92561958.486 1     -2138.562          46.000  
E08  23334796.338 1 122625167.961 3      2409.572          40.000    23334800.582 1  93959571.382 1      1846.037          43.000  
E24  21778858.298 1 114448671.893 1      -593.990          43.000    21778860.772 1  87694447.683 1      -454.971          46.000  
E25  23431879.732 1 123135360.355 2      2202.085          43.000    23431884.977 1  94350490.968 1      1687.182          43.000  
E26  24933563.521 1 131026739.204 2      -698.077          38.000    24933566.548 1 100397138.133 3      -534.423          34.000  
E31  23963023.577 2 125926527.721 8     -2940.926          21.000    23963027.294 1  96489181.960 5     -2250.063          31.000  
G08  23302166.020 1 122453703.918 3     -3777.203          37.000    23302166.348 2  95418487.634 4     -2942.825          33.000  
G28  18720985.131 1  98379438.338 2      -291.571          43.000                                                                  
E33                                                                  25261504.342 4               7      1313.738          29.000  
> 2021 12 15 13 50 45.9930000  0 37                     
G30  21701865.626 4 114044093.29623     -3824.689          37.000    21701864.453 1  88865509.143 2     -2980.377          39.000  
G10  21702811.799 1 114049048.014 2      1433.057          42.000    21702807.750 1  88869367.074 2      1116.510          41.000  
G13  19144309.802 1 100604025.525 2     -2837.146          42.000                                                                  
G14  18912734.966 1  99387092.47133     -1628.906          41.000    18912728.074 1  77444459.971 2     -1269.346          40.000  
G15  18793527.947 1  98760654.778 1     -1520.917          45.000    18793519.945 1  76956321.628 2     -1185.364          41.000  
C07  36190866.082 9               9     -1202.292          24.000    36190849.383 1 145725551.119 5      -931.245          32.000  
C10  35500185.208 1 184858780.12035      -766.143          35.000    35500177.408 1 142944501.192 3      -592.707          37.000  
C11  22454304.540 2 116925455.922 6      1266.487          28.000    22454296.957 1  90414148.080 2       978.982          39.000  
C12  23017316.277 4 119857196.807 3     -1669.286          34.000    23017308.225 4  92681160.358 2     -1290.837          38.000  
C19  21880880.166 1 113939485.568 3      1362.219          38.000                                                                  
C20  21321870.601 1 111028572.529 1     -1700.714          46.000                                                                  
R06  18259544.257 2  97436427.856 3     -2945.071          37.000                                                                  
R09  20516009.674 1 109554342.816 2      3588.336          40.000    20515995.326 1  85208878.938 2      2790.854          43.000  
R23  21246649.019 2 113655271.700 4     -3836.018          36.000                                                                  
R15  18486549.350 2  98786509.046 3     -3380.048          42.000    18486535.222 4  76833897.664 5     -2629.415          31.000  
R24  19605221.954 1 104837934.672 2      -986.895          40.000    19605210.785 2  81540570.812 4      -768.124          35.000  
R17  19983119.114 8 106933719.12623      2781.939          39.000    19983110.507 2  83170626.029 3      2163.435          37.000  
G21  22379449.485 4 117604819.83727       540.778          30.000                                                                  
G23  20619934.594 1 108358489.216 1      -833.524          45.000    20619924.424 1  84435132.029 2      -649.697          40.000  
G24  20138964.134 1 105830971.528 1      2793.773          43.000    20138959.361 1  82465674.557 2      2176.894          41.000  
S23  37692810.326 1 198077052.224 3      -385.642          37.000  
C23  20339538.624 1 105913314.037 2     -1797.737          45.000                                                                  
C25  23873346.395 1 124314776.984 4     -3633.580          36.000                                                                  
R08  21762860.436 2 116539128.237 2      3902.771          37.000    21762843.030 2  90641490.402 4      3035.291          35.000  
R07  18399066.383 1  98491631.173 1      1409.858          44.000    18399056.197 1  76604573.365 2      1096.442          41.000  
G01  22587662.042 9 118698964.39237      2615.569          25.000                                                                  
E03  22238720.176 1 116865266.443 1        67.429          44.000    22238726.086 1  89546133.188 1        51.713          46.000  
E05  22988229.127 1 120803957.591 2     -2792.098          37.000    22988235.134 1  92564097.468 1     -2139.371          47.000  
E08  23334338.268 1 122622759.164 2      2407.997          40.000    23334342.229 1  93957725.721 1      1845.283          43.000  
E24  21778971.390 1 114449266.417 1      -595.235          45.000    21778973.707 1  87694903.240 1      -456.156          48.000  
E25  23431460.770 1 123133158.868 2      2200.682          43.000    23431466.088 1  94348804.090 1      1686.494          44.000  
E26  24933696.744 1 131027437.973 3      -699.834          36.000    24933699.770 1 100397673.559 7      -536.289          25.000  
E31  23963582.266 4 125929466.477 7     -2938.248          30.000    23963586.305 1  96491433.906 6     -2252.694          32.000  
G08  23302884.856 1 122457481.180 3     -3777.992          38.000    23302884.984 2  95421430.947 5     -2943.945          32.000  
G28  18721040.664 1  98379730.516 1      -292.749          44.000                                                                  
E33                                                                  25261179.193 2 101716296.74314      1311.809          35.000  
G17                                                                  20818430.790 1  85247993.562 2      1742.812          41.000  
> 2021 12 15 13 50 46.9930000  0 38                     
G30  21702597.495 4 114047918.04622     -3824.872          39.000    21702592.213 1  88868489.545 3     -2980.359          36.000  
G10  21702539.260 1 114047615.355 2      1431.940          40.000    21702535.215 1  88868250.717 2      1116.046          39.000  
G13  19144849.858 1 100606863.191 2     -2838.813          40.000                                                                  
G14  18913045.170 1  99388721.83824     -1630.271          33.000    18913038.176 1  77445729.733 3     -1270.155          35.000  
G15  18793817.345 1  98762176.229 1     -1522.070          45.000    18793809.438 1  76957507.149 2     -1186.096          42.000  
G17  20818016.429 9 109399414.33337      2235.563          31.000    20818005.115 1  85246250.889 2      1742.510          40.000  
C07  36191090.909 9 188456507.24837     -1203.912          30.000    36191080.694 1 145726482.247 3      -931.487          34.000  
C10  35500332.597 8               9      -772.471          24.000    35500324.717 2 142945094.134 5      -593.219          32.000  
C11  22454061.383 2 116924190.576 7      1263.047          28.000    22454053.950 1  90413169.478 3       978.291          36.000  
C12  23017636.303 2 119858866.595 3     -1670.640          38.000    23017628.981 2  92682451.523 2     -1291.571          39.000  
C19  21880618.690 1 113938123.937 2      1360.565          39.000                                                                  
C20  21322197.307 1 111030273.695 1     -1702.195          44.000                                                                  
R06  18260096.312 2  97439373.480 2     -2946.194          37.000                                                                  
R09  20515337.856 1 109550754.655 2      3588.025          42.000    20515323.481 1  85206088.173 2      2790.241          42.000  
R23  21247366.175 2 113659108.213 3     -3836.948          36.000                                                                  
R15  18487182.337 2  98789889.542 5     -3382.935          30.000    18487167.656 4  76836527.194 5     -2629.924          32.000  
R24  19605406.660 1 104838922.474 3      -988.970          38.000    19605395.538 2  81541339.139 3      -769.096          37.000  
R17  19982597.309 8 106930937.64413      2780.174          38.000    19982590.699 2  83168463.175 3      2162.076          35.000  
G21  22379348.039 4 117604279.24824       539.478          37.000                                                                  
G23  20620093.326 1 108359323.442 1      -835.208          44.000    20620083.432 1  84435782.116 2      -650.621          39.000  
G24  20138432.450 1 105828177.946 1      2793.219          44.000    20138427.700 1  82463497.755 1      2176.327          41.000  
S23  37692883.940 1 198077438.384 2      -386.720          40.000  
C23  20339884.012 1 105915112.235 2     -1798.816          37.000                                                                  
C25  23874044.203 1 124318411.012 4     -3634.592          32.000                                                                  
R08  21762131.595 2 116535225.461 3      3902.234          37.000    21762114.154 2  90638454.828 5      3035.730          29.000  
R07  18398803.218 1  98490222.015 1      1408.219          44.000    18398792.846 1  76603477.352 2      1095.391          40.000  
G01  22587168.028 9 118696349.86226      2613.828          27.000                                                                  
E03  22238707.543 1 116865199.454 1        66.394          44.000    22238713.454 1  89546081.865 1        50.845          46.000  
E05  22988760.656 1 120806750.405 2     -2793.463          39.000    22988766.609 1  92566237.302 1     -2140.493          44.000  
E08  23333880.191 1 122620351.389 2      2407.049          40.000    23333883.910 1  93955880.787 1      1844.475          43.000  
E24  21779084.788 1 114449862.212 2      -596.369          41.000    21779087.294 1  87695359.760 1      -456.988          45.000  
E25  23431042.082 1 123130958.375 1      2199.827          44.000    23431047.386 1  94347118.038 1      1685.718          44.000  
E26  24933830.082 1 131028138.113 3      -700.856          39.000    24933832.885 1 100398210.064 4      -536.886          36.000  
E31  23964142.638 4 125932406.317 7     -2940.524          30.000    23964145.788 1  96493686.826 5     -2253.265          35.000  
G08  23303603.887 1 122461259.426 2     -3779.313          38.000    23303603.822 2  95424375.092 5     -2944.737          33.000  
G28  18721096.607 1  98380023.997 1      -294.305          42.000                                                                  
E33                                                                  25260853.627 4               9      1311.588          24.000  
E13                                                                  26315125.633 8               9     -2321.919          25.000  
> 2021 12 15 13 50 47.9930000  0 38                     
G30  21703325.732 4 114051743.91723     -3825.842          35.000    21703320.114 1  88871470.675 3     -2981.494          39.000  
G10  21702266.979 1 114046183.867 2      1430.792          44.000    21702262.835 1  88867135.288 2      1114.862          41.000  
G13  19145390.084 1 100609701.967 2     -2839.112          40.000                                                                  
G14  18913355.548 1  99390352.51723     -1631.335          39.000    18913348.476 1  77447000.258 4     -1270.893          37.000  
G15  18794107.106 1  98763699.031 2     -1523.303          45.000    18794099.129 1  76958693.728 2     -1187.189          42.000  
G17  20817588.680 8 109397179.10425      2234.434          37.000    20817579.732 1  85244509.207 2      1741.697          39.000  
C07  36191322.456 8 188457711.76928     -1203.941          30.000    36191312.022 1 145727413.635 4      -931.346          34.000  
C10  35500482.112 9               9      -768.404          25.000    35500471.993 1 142945687.221 4      -593.465          35.000  
C12  23017957.052 1 119860537.533 2     -1671.869          36.000    23017950.287 2  92683743.696 2     -1292.999          39.000  
C19  21880357.480 1 113936763.566 3      1359.979          37.000                                                                  
C20  21322524.402 1 111031975.986 1     -1702.792          46.000                                                                  
R06  18260648.624 2  97442320.561 3     -2947.517          36.000                                                                  
R09  20514666.043 1 109547167.459 2      3586.933          40.000    20514651.591 1  85203298.052 1      2789.645          43.000  
R23  21248083.497 2 113662946.003 3     -3838.065          39.000                                                                  
R15  18487816.014 4  98793271.063 7     -3382.251          30.000    18487800.122 4  76839157.107 7     -2629.944          27.000  
R24  19605591.687 1 104839911.890 2      -990.323          39.000    19605580.315 2  81542108.671 3      -770.144          36.000  
R17  19982079.500 8 106928157.997 3      2778.928          38.000    19982071.074 2  83166301.113 4      2161.743          35.000  
G21  22379245.131 4 117603739.82824       538.411          35.000                                                                  
G23  20620252.317 1 108360159.054 1      -836.228          44.000    20620242.499 1  84436433.134 2      -651.550          39.000  
G24  20137901.025 1 105825385.398 1      2791.932          43.000    20137896.328 1  82461321.757 2      2175.516          42.000  
S23  37692957.737 1 198077825.346 3      -387.161          39.000  
C23  20340229.518 1 105916911.508 2     -1799.963          41.000                                                                  
C25  23874742.246 1 124322046.306 5     -3635.602          37.000                                                                  
R08  21761403.013 2 116531323.549 2      3901.374          38.000    21761385.235 4  90635420.046 7      3033.545          33.000  
R07  18398540.210 1  98488814.431 1      1406.820          44.000    18398529.653 1  76602382.519 1      1094.364          43.000  
G01  22586671.396 9               9      2613.185          26.000                                                                  
E03  22238695.118 1 116865133.576 1        65.458          45.000    22238700.796 1  89546031.341 1        50.094          47.000  
E05  22989292.362 1 120809543.991 2     -2793.967          39.000    22989298.252 1  92568377.880 1     -2140.864          46.000  
E08  23333421.962 1 122617944.468 2      2406.627          38.000    23333426.055 1  93954036.537 1      1844.190          45.000  
E24  21779198.482 1 114450458.978 2      -597.276          42.000    21779200.865 1  87695817.023 1      -457.551          45.000  
E25  23430623.364 1 123128758.822 1      2199.019          43.000    23430628.887 1  94345432.610 1      1685.256          45.000  
E26  24933963.749 1 131028839.288 2      -701.681          39.000    24933966.035 1 100398747.307 7      -537.766          28.000  
E31  23964710.416 8 125935403.10817     -2941.559          25.000    23964705.504 1  96495940.137 5     -2253.624          31.000  
G08  23304322.997 1 122465038.690 3     -3779.808          40.000    23304322.762 2  95427319.903 4     -2945.204          34.000  
G28  18721152.700 1  98380318.792 1      -295.502          44.000                                                                  
E33                                                                  25260528.082 4               9      1311.198          26.000  
C11                                                                  22453811.119 1  90412191.610 2       977.482          40.000  
E13                                                                  26315703.161 8               9     -2320.372          25.000  
> 2021 12 15 13 50 48.9930000  0 37                     
G30  21704053.190 4 114055570.47225     -3828.003          31.000    21704048.274 1  88874452.384 2     -2982.257          39.000  
G10  21701994.960 1 114044753.642 2      1429.266          41.000    21701990.665 1  88866020.826 2      1113.531          40.000  
G13  19145930.463 1 100612542.043 2     -2841.331          41.000                                                                  
G14  18913666.172 1  99391984.354 2     -1632.616          41.000    18913659.076 1  77448271.831 3     -1272.599          39.000  
G15  18794397.128 1  98765223.010 1     -1525.110          45.000    18794389.196 1  76959881.315 1     -1188.306          42.000  
G17  20817163.318 4 109394945.08524      2232.784          32.000    20817154.509 1  85242768.273 2      1740.142          40.000  
C07  36191553.197 9               9     -1206.877          22.000    36191543.412 1 145728345.647 5      -931.498          33.000  
C10  35500629.295 8 184861092.40636      -769.749          32.000    35500619.444 1 142946280.997 3      -594.387          36.000  
C12  23018278.123 1 119862209.710 4     -1673.076          35.000    23018270.658 2  92685036.681 2     -1293.791          39.000  
C19  21880096.326 1 113935404.055 2      1358.148          41.000                                                                  
C20  21322851.387 1 111033679.468 1     -1704.457          46.000                                                                  
R06  18261201.256 2  97445269.094 3     -2949.877          36.000                                                                  
R09  20513994.548 1 109543580.955 2      3586.029          39.000    20513979.914 1  85200508.600 2      2788.809          41.000  
R23  21248801.027 2 113666785.007 3     -3839.845          36.000                                                                  
R15  18488449.189 4  98796653.698 7     -3382.446          31.000    18488432.956 4  76841788.020 7     -2631.928          31.000  
R24  19605776.949 1 104840902.900 2      -992.062          41.000    19605765.683 2  81542879.370 3      -771.493          37.000  
R17  19981561.517 8 106925379.675 3      2777.122          38.000    19981551.879 2  83164140.118 3      2160.424          36.000  
G21  22379142.986 4 117603201.662 6       537.222          31.000                                                                  
G23  20620411.551 1 108360995.923 1      -837.665          44.000    20620401.893 1  84437085.314 2      -652.874          40.000  
G24  20137369.706 1 105822593.747 2      2790.712          43.000    20137365.081 1  82459146.416 2      2174.498          43.000  
S23  37693031.553 1 198078212.911 2      -388.348          42.000  
C23  20340575.335 1 105918711.823 2     -1800.993          43.000                                                                  
C25  23875440.432 1 124325682.027 3     -3636.370          39.000                                                                  
R08  21760674.613 2 116527422.475 3      3900.159          33.000    21760657.182 4  90632385.907 4      3033.539          35.000  
R07  18398277.587 1  98487408.185 1      1405.340          45.000    18398266.800 1  76601288.800 2      1092.856          41.000  
E03  22238682.891 1 116865068.768 2        64.262          44.000    22238688.374 1  89545981.717 1        49.149          46.000  
E05  22989824.314 1 120812338.513 3     -2795.104          39.000    22989830.202 1  92570519.170 1     -2142.001          46.000  
E08  23332964.072 1 122615538.306 2      2405.711          41.000    23332968.078 1  93952192.863 1      1843.104          44.000  
E24  21779311.956 1 114451056.853 1      -598.741          45.000    21779314.522 1  87696275.125 1      -458.729          47.000  
E25  23430204.807 1 123126560.072 2      2197.953          41.000    23430210.270 1  94343747.868 1      1683.778          43.000  
E26  24934097.623 1 131029541.776 2      -703.542          39.000    24934098.664 4 100399282.63916      -538.480          33.000  
E31  23965274.686 9               9     -2938.700          24.000    23965264.158 2  96498187.01516     -2254.433          30.000  
G08  23305042.471 1 122468818.870 2     -3780.904          41.000    23305041.876 2  95430265.509 4     -2946.302          34.000  
G28  18721209.073 1  98380614.768 1      -296.948          45.000                                                                  
E33                                                                  25260202.289 2 101712363.681 6      1309.921          34.000  
C11                                                                  22453568.550 1  90411214.770 2       976.130          39.000  
E13                                                                  26316280.654 4               9     -2324.144          24.000  
> 2021 12 15 13 50 49.9930000  0 38                     
G30  21704781.019 4 114059397.834 6     -3827.319          35.000    21704776.550 1  88877434.768 2     -2982.233          38.000  
G10  21701723.167 1 114043324.668 2      1428.644          41.000    21701718.823 1  88864907.348 2      1113.123          41.000  
G13  19146471.096 1 100615383.248 2     -2841.660          43.000                                                                  
G14  18913976.967 1  99393617.503 2     -1633.736          40.000    18913969.788 1  77449544.398 3     -1272.970          39.000  
G15  18794687.475 1  98766748.458 1     -1526.160          45.000    18794679.466 1  76961069.954 2     -1189.246          42.000  
G17  20816735.977 8 109392711.56117      2232.752          30.000    20816729.694 1  85241028.220 2      1739.335          39.000  
C07  36191786.015 9               9     -1205.178          25.000    36191775.063 1 145729278.319 4      -933.248          33.000  
C10  35500775.739 4 184861860.93226      -768.645          32.000    35500767.192 1 142946875.388 3      -594.671          36.000  
C11  22453333.375 1 116920398.43914      1262.325          33.000    22453326.127 1  90410238.821 2       975.367          41.000  
C12  23018599.475 1 119863883.134 4     -1673.591          35.000    23018591.864 1  92686330.685 3     -1294.292          36.000  
C19  21879835.605 1 113934045.870 2      1357.776          39.000                                                                  
C20  21323178.771 1 111035384.207 1     -1705.281          45.000                                                                  
R06  18261753.913 2  97448219.064 3     -2950.756          37.000                                                                  
R09  20513323.126 1 109539995.431 2      3585.200          41.000    20513308.479 1  85197719.844 1      2788.619          42.000  
R23  21249518.785 2 113670625.253 4     -3840.635          35.000                                                                  
R15  18489082.883 4  98800037.392 5     -3384.292          35.000    18489066.080 4  76844419.803 7     -2632.508          31.000  
R24  19605962.532 1 104841895.457 2      -993.313          40.000    19605951.155 2  81543651.357 3      -772.310          36.000  
R17  19981041.461 4 106922602.603 2      2776.544          39.000    19981032.981 2  83161980.194 3      2159.758          36.000  
G21  22379040.463 2 117602664.636 4       536.251          35.000                                                                  
G23  20620570.977 1 108361834.254 1      -838.908          45.000    20620561.628 1  84437738.527 2      -653.925          40.000  
G24  20136838.645 1 105819803.173 2      2789.999          43.000    20136833.981 1  82456971.905 2      2174.184          41.000  
S23  37693105.548 1 198078601.182 2      -388.508          40.000  
C23  20340921.214 1 105920513.190 1     -1801.922          45.000                                                                  
C25  23876138.872 1 124329318.551 2     -3636.815          40.000                                                                  
R08  21759946.299 2 116523522.390 4      3899.231          37.000    21759928.914 2  90629352.514 4      3032.953          35.000  
R07  18398015.402 1  98486003.520 1      1403.911          45.000    18398004.233 1  76600196.303 2      1092.102          41.000  
E03  22238670.769 1 116865005.095 1        63.120          45.000    22238676.309 1  89545932.943 1        48.392          47.000  
E05  22990356.270 1 120815134.078 2     -2796.347          40.000    22990362.113 1  92572661.236 1     -2142.520          47.000  
E08  23332506.742 1 122613133.065 2      2404.654          42.000    23332510.505 1  93950349.881 1      1842.639          43.000  
E24  21779425.657 1 114451655.832 1      -599.461          45.000    21779428.628 1  87696734.070 1      -459.273          48.000  
E25  23429786.537 1 123124362.345 2      2197.150          43.000    23429792.200 1  94342063.888 2      1683.654          43.000  
E26  24934231.470 1 131030245.403 2      -704.332          39.000    24934232.264 4 100399821.746 6      -539.954          32.000  
E31  23965837.541 9               9     -2924.481          20.000    23965824.258 2  96500441.635 5     -2255.517          32.000  
G08  23305762.139 1 122472599.966 2     -3781.622          39.000    23305761.177 2  95433211.778 5     -2946.977          33.000  
G28  18721265.501 1  98380912.012 1      -297.882          45.000                                                                  
J03  40802087.086 9 214416414.35937      -332.390          29.000                                                                  
E33                                                                  25259878.580 2 101711054.355 4      1308.771          35.000  
E13                                                                  26316855.987 4               9     -2324.166          24.000  
> 2021 12 15 13 50 50.9930000  0 39                     
G30  21705509.401 2 114063226.127 4     -3828.595          36.000    21705505.089 1  88880417.897 2     -2983.448          38.000  
G10  21701451.606 1 114041896.983 2      1427.130          39.000    21701447.161 1  88863794.893 2      1111.975          40.000  
G13  19147011.852 1 100618225.687 2     -2842.973          41.000                                                                  
G14  18914288.142 1  99395252.004 2     -1635.047          40.000    18914280.780 1  77450818.028 2     -1274.192          41.000  
G15  18794978.023 1  98768275.361 1     -1527.582          43.000    18794969.957 1  76962259.694 2     -1190.228          42.000  
C07  36192019.116 8 188461340.57237     -1208.175          26.000    36192006.814 1 145730211.637 5      -933.290          32.000  
C10  35500923.962 4 184862630.451 5      -769.290          31.000    35500915.038 1 142947470.484 3      -595.035          35.000  
C12  23018921.017 1 119865557.866 3     -1675.564          35.000    23018913.548 1  92687625.692 3     -1295.093          37.000  
C19  21879575.045 1 113932688.928 2      1356.323          39.000                                                                  
C20  21323506.392 1 111037090.230 1     -1706.353          47.000                                                                  
R06  18262306.991 2  97451170.485 3     -2952.237          37.000                                                                  
R09  20512651.897 1 109536410.860 2      3584.323          41.000    20512637.152 1  85194931.834 1      2788.024          44.000  
R23  21250236.760 2 113674466.789 4     -3842.080          34.000                                                                  
R15  18489716.513 2  98803422.244 5     -3384.525          33.000    18489699.607 4  76847052.577 5     -2632.935          33.000  
R24  19606148.467 1 104842889.715 2      -994.980          40.000    19606137.030 2  81544424.682 3      -774.060          36.000  
R17  19980524.111 4 106919826.966 2      2775.161          39.000    19980514.236 2  83159821.342 3      2158.393          36.000  
G21  22378938.699 2 117602128.904 5       535.807          34.000                                                                  
G23  20620730.761 1 108362673.972 1      -840.137          45.000    20620721.579 1  84438392.828 2      -654.752          39.000  
G24  20136307.836 1 105817013.588 1      2789.362          44.000    20136303.063 1  82454798.274 2      2173.353          40.000  
S23  37693179.555 1 198078990.148 2      -389.037          40.000  
C23  20341267.409 1 105922315.723 1     -1803.051          44.000                                                                  
C25  23876837.360 1 124332955.867 2     -3637.536          38.000                                                                  
R08  21759218.202 2 116519623.354 3      3898.438          38.000    21759200.869 2  90626319.874 5      3032.599          33.000  
R07  18397753.463 1  98484600.451 1      1402.398          45.000    18397742.063 1  76599104.993 2      1090.776          42.000  
G01  22585191.484 9 118685982.09837      2610.489          26.000                                                                  
E03  22238658.527 1 116864942.653 2        62.029          43.000    22238664.476 1  89545885.063 1        47.478          48.000  
E05  22990888.426 1 120817930.718 2     -2797.104          40.000    22990894.247 1  92574804.085 1     -2143.171          47.000  
E08  23332048.928 1 122610728.797 2      2403.689          41.000    23332053.055 1  93948507.586 1      1841.976          44.000  
E24  21779539.826 1 114452255.967 1      -600.414          46.000    21779542.817 1  87697193.906 1      -460.227          49.000  
E25  23429368.515 1 123122165.483 2      2196.701          44.000    23429374.134 1  94340380.612 1      1683.052          44.000  
E26  24934365.674 1 131030950.343 2      -705.495          39.000    24934367.208 2 100400361.839 6      -541.052          31.000  
E31  23966394.581 9               9     -2941.655          19.000    23966383.747 2  96502696.933 5     -2255.543          32.000  
G08  23306481.913 1 122476382.049 2     -3782.237          39.000    23306480.732 2  95436158.884 4     -2947.378          33.000  
G28  18721322.371 1  98381210.537 1      -298.853          44.000                                                                  
J03  40802157.571 8               9      -333.927          27.000                                                                  
E33                                                                  25259552.815 2 101709745.856 4      1308.334          34.000  
C11                                                                  22453083.976 1  90409263.819 2       974.432          41.000  
E13                                                                  26317434.495 8               9     -2325.306          24.000  
G17                                                                  20816304.909 1  85239289.063 2      1738.754          40.000  
> 2021 12 15 13 50 51.9930000  0 39                     
G30  21706237.992 2 114067055.500 4     -3830.591          33.000    21706233.740 1  88883401.767 2     -2984.125          39.000  
G10  21701180.331 1 114040470.731 2      1425.311          39.000    21701175.778 1  88862683.524 2      1110.529          40.000  
G13  19147552.842 1 100621069.473 2     -2843.800          40.000                                                                  
G14  18914599.517 1  99396887.835 2     -1636.384          41.000    18914592.062 1  77452092.677 2     -1275.057          42.000  
G15  18795268.890 1  98769803.672 1     -1529.028          44.000    18795260.733 1  76963450.626 2     -1191.620          41.000  
C07  36192254.253 8 188462548.16727     -1207.661          28.000    36192238.725 2 145731145.514 6      -934.844          31.000  
C10  35501070.559 4 184863400.868 5      -770.699          32.000    35501062.940 1 142948066.222 3      -596.276          35.000  
C12  23019242.960 1 119867233.892 4     -1675.798          34.000    23019235.383 1  92688921.712 2     -1296.757          38.000  
C19  21879314.647 1 113931333.239 2      1355.420          39.000                                                                  
C20  21323834.229 1 111038797.566 1     -1707.839          47.000                                                                  
R06  18262860.255 2  97454123.567 3     -2953.978          36.000                                                                  
R09  20511980.877 1 109532827.359 2      3583.061          42.000    20511966.090 1  85192144.675 1      2786.819          44.000  
R23  21250954.920 2 113678309.707 4     -3843.527          34.000                                                                  
R15  18490350.715 4  98806808.505 5     -3386.709          34.000    18490333.395 4  76849686.250 5     -2634.274          33.000  
R24  19606334.751 1 104843885.749 2      -996.933          40.000    19606323.326 2  81545199.370 3      -775.192          35.000  
R17  19980006.257 2 106917052.759 2      2773.498          41.000    19979995.802 2  83157663.602 3      2157.259          38.000  
G21  22378837.196 2 117601594.486 5       534.071          33.000                                                                  
G23  20620890.781 1 108363515.184 1      -841.835          45.000    20620881.844 1  84439048.326 2      -656.061          39.000  
G24  20135777.311 1 105814225.150 1      2787.954          44.000    20135772.432 1  82452625.476 2      2172.292          41.000  
S23  37693253.703 1 198079379.900 2      -389.832          38.000  
C23  20341613.737 1 105924119.432 1     -1804.298          44.000                                                                  
C25  23877536.076 1 124336594.047 2     -3638.540          39.000                                                                  
R08  21758490.450 2 116515725.293 3      3897.687          37.000    21758473.121 4  90623288.147 6      3031.257          31.000  
R07  18397491.836 1  98483198.992 1      1400.625          45.000    18397480.252 1  76598014.962 2      1089.519          41.000  
G01  22584707.345 9 118683372.93827      2608.776          26.000                                                                  
E03  22238646.483 1 116864881.469 2        60.516          43.000    22238652.918 1  89545838.156 1        46.570          48.000  
E05  22991420.964 1 120820728.389 2     -2798.100          39.000    22991426.840 1  92576947.791 1     -2144.057          47.000  
E08  23331591.671 1 122608325.433 2      2403.267          41.000    23331595.768 1  93946666.067 1      1841.224          44.000  
E24  21779654.086 1 114452857.295 1      -601.772          46.000    21779657.105 1  87697654.651 1      -461.197          48.000  
E25  23428950.649 1 123119969.720 2      2195.288          42.000    23428956.344 1  94338698.106 1      1682.207          44.000  
E26  24934500.089 1 131031656.540 2      -706.758          39.000    24934500.829 4 100400902.882 7      -542.054          29.000  
E31  23966948.094 9               9     -2943.173          22.000    23966944.567 2  96504953.006 5     -2256.438          32.000  
E33  25259234.719 9 132738173.93015      1706.698          30.000    25259227.747 1 101708438.254 4      1307.154          33.000  
G08  23307201.978 1 122480165.242 2     -3783.788          39.000    23307200.478 2  95439106.758 5     -2947.454          33.000  
G28  18721379.488 1  98381510.463 1      -300.354          42.000                                                                  
J03  40802226.714 8               9      -334.561          28.000                                                                  
C11                                                                  22452842.134 1  90408289.793 2       973.597          42.000  
E13                                                                  26318012.231 8               9     -2326.876          24.000  
G17                                                                  20815880.439 1  85237550.841 2      1738.288          40.000  
> 2021 12 15 13 50 52.9930000  0 38                     
G30  21706966.774 1 114070885.634 4     -3830.908          37.000    21706962.506 1  88886386.268 2     -2984.717          39.000  
G10  21700909.228 1 114039045.771 2      1424.518          40.000    21700904.640 1  88861573.153 2      1109.912          40.000  
G13  19148094.292 1 100623914.509 2     -2845.587          40.000                                                                  
G14  18914911.086 1  99398525.017 2     -1637.828          39.000    18914903.518 1  77453368.432 2     -1276.195          40.000  
G15  18795560.087 1  98771333.382 1     -1530.341          45.000    18795551.937 1  76964642.604 2     -1192.310          41.000  
G17  20815474.319 9 109386055.03536      2229.143          34.000    20815456.238 1  85235813.462 3      1736.641          36.000  
C07  36192485.985 8 188463756.73127     -1209.021          30.000    36192470.610 9               9      -936.155          22.000  
C10  35501218.737 9               9      -773.300          10.000    35501211.151 1 142948662.726 3      -596.617          35.000  
C11  22452609.821 9 116916631.09235      1258.140          33.000    22452600.550 1  90407316.719 2       972.360          40.000  
C12  23019565.081 1 119868911.164 4     -1678.020          35.000    23019557.492 1  92690218.621 3     -1297.212          37.000  
C19  21879054.682 1 113929978.755 2      1353.864          42.000                                                                  
C20  21324162.299 1 111040506.168 1     -1709.127          47.000                                                                  
R06  18263413.964 2  97457078.077 3     -2955.061          36.000                                                                  
R09  20511310.089 1 109529244.756 2      3582.263          39.000    20511295.221 1  85189358.209 1      2786.131          44.000  
R23  21251673.417 2 113682153.861 3     -3844.403          34.000                                                                  
R15  18490985.039 4  98810195.679 4     -3387.833          35.000    18490967.134 4  76852321.025 5     -2635.504          33.000  
R24  19606521.227 1 104844883.368 2      -998.105          38.000    19606509.939 2  81545975.365 4      -776.731          33.000  
R17  19979488.286 2 106914279.864 2      2772.119          40.000    19979477.702 2  83155506.943 4      2156.064          35.000  
G21  22378735.903 2 117601061.302 6       532.838          33.000                                                                  
G23  20621051.164 1 108364357.782 1      -843.121          45.000    20621042.265 1  84439704.900 2      -656.966          39.000  
G24  20135246.861 1 105811437.745 1      2786.781          44.000    20135242.087 1  82450453.473 2      2171.692          41.000  
S23  37693327.925 1 198079770.355 3      -390.694          37.000  
C23  20341960.375 1 105925924.232 2     -1805.250          42.000                                                                  
C25  23878234.885 1 124340232.993 2     -3639.368          38.000                                                                  
R08  21757762.816 2 116511828.225 3      3896.558          37.000    21757744.851 4  90620257.073 6      3030.604          31.000  
R07  18397230.438 1  98481799.088 1      1399.148          44.000    18397218.783 1  76596926.161 2      1088.033          42.000  
G01  22584216.731 8 118680764.78226      2607.808          28.000                                                                  
E03  22238634.951 1 116864821.403 2        59.642          42.000    22238641.505 1  89545792.155 1        45.635          48.000  
E05  22991953.797 1 120823527.084 2     -2798.768          40.000    22991959.228 1  92579092.254 1     -2144.969          45.000  
E08  23331134.562 1 122605923.006 2      2402.035          42.000    23331138.349 1  93944825.244 1      1840.538          44.000  
E24  21779768.879 1 114453459.704 1      -602.847          45.000    21779771.867 1  87698116.259 1      -461.943          48.000  
E25  23428532.913 1 123117774.844 2      2194.463          41.000    23428538.654 1  94337016.325 1      1681.484          44.000  
E26  24934634.656 1 131032363.978 2      -707.884          39.000    24934633.436 4 100401445.123 7      -542.630          29.000  
E31  23967497.495 8 125950048.76616     -2945.990          31.000    23967504.913 2  96507209.627 7     -2256.615          27.000  
E33  25258912.284 8 132736468.372 6      1705.987          30.000    25258902.934 1 101707131.478 4      1306.253          34.000  
G08  23307922.199 1 122483949.343 2     -3784.361          40.000    23307920.287 2  95442055.445 7     -2948.728          31.000  
G28  18721436.805 1  98381811.632 1      -301.678          42.000                                                                  
J03  40802287.268 8               7      -334.841          32.000                                                                  
> 2021 12 15 13 50 53.9930000  0 38                     
G30  21707695.777 1 114074716.748 3     -3831.543          37.000    21707691.571 1  88889371.537 2     -2985.498          40.000  
G10  21700638.347 1 114037622.110 3      1423.505          39.000    21700633.711 1  88860463.793 2      1109.369          39.000  
G13  19148635.898 1 100626760.702 2     -2846.540          42.000                                                                  
G14  18915222.913 1  99400163.475 2     -1638.880          37.000    18915215.238 1  77454645.143 2     -1276.873          41.000  
G15  18795851.547 1  98772864.502 1     -1531.714          45.000    18795843.304 1  76965835.689 2     -1193.439          41.000  
G17  20815045.965 4 109383804.63525      2228.315          34.000    20815032.131 1  85234076.999 3      1736.328          37.000  
C07  36192717.227 4 188464966.11626     -1209.021          31.000                                                                  
C11  22452366.437 9 116915373.94525      1256.975          33.000    22452359.155 1  90406344.624 2       971.609          40.000  
C12  23019887.478 1 119870589.717 4     -1678.956          35.000    23019879.821 1  92691516.605 3     -1298.018          37.000  
C19  21878794.866 1 113928625.481 2      1353.076          42.000                                                                  
C20  21324490.703 1 111042216.022 1     -1710.306          47.000                                                                  
R06  18263967.808 2  97460034.096 3     -2956.644          36.000                                                                  
R09  20510639.500 1 109525663.120 2      3581.271          39.000    20510624.550 1  85186572.476 1      2785.429          43.000  
R23  21252392.090 2 113685999.331 3     -3845.893          35.000                                                                  
R15  18491619.484 2  98813584.228 3     -3388.900          36.000    18491601.167 2  76854956.525 4     -2635.549          33.000  
R24  19606708.134 1 104845882.676 2      -999.936          38.000    19606696.871 2  81546752.639 5      -778.334          32.000  
R17  19978970.604 1 106911508.356 2      2771.009          41.000    19978959.681 2  83153351.333 3      2154.587          35.000  
G21  22378634.859 1 117600529.410 4       531.466          34.000                                                                  
G23  20621211.748 1 108365201.823 1      -844.650          45.000    20621202.931 1  84440362.609 2      -658.326          39.000  
G24  20134716.756 1 105808651.382 1      2785.964          44.000    20134711.825 1  82448282.312 2      2170.527          42.000  
S23  37693402.361 1 198080161.497 3      -391.495          37.000  
C23  20342307.077 1 105927730.147 1     -1806.200          42.000                                                                  
C25  23878933.896 1 124343872.783 2     -3640.038          38.000                                                                  
R08  21757035.334 2 116507932.123 2      3895.642          37.000    21757016.718 4  90617226.753 5      3030.432          31.000  
R07  18396969.361 1  98480400.792 1      1397.789          44.000    18396957.483 1  76595838.576 2      1087.026          41.000  
G01  22583724.231 8 118678157.76326      2606.878          29.000                                                                  
E03  22238623.588 1 116864762.536 1        58.645          42.000    22238630.234 1  89545747.029 1        45.125          48.000  
E05  22992486.627 1 120826326.838 2     -2799.898          40.000    22992492.232 1  92581237.508 1     -2145.354          46.000  
E08  23330677.898 1 122603521.468 2      2401.404          42.000    23330681.458 1  93942985.106 1      1840.016          44.000  
E24  21779883.583 1 114454063.264 1      -603.950          44.000    21779886.709 1  87698578.730 1      -462.649          47.000  
E25  23428115.201 1 123115580.949 2      2193.626          41.000    23428121.231 1  94335335.299 1      1680.880          44.000  
E26  24934769.552 1 131033072.649 3      -708.661          39.000    24934768.346 2 100401988.141 6      -543.649          28.000  
E31  23968056.572 8 125952995.026 5     -2946.710          33.000    23968064.620 2  96509467.189 6     -2257.887          29.000  
E33  25258586.987 8 132734764.049 7      1703.941          29.000    25258578.848 1 101705825.531 4      1305.455          33.000  
G08  23308642.471 1 122487734.459 2     -3785.491          40.000    23308639.627 4  95445004.906 7     -2949.889          30.000  
G28  18721494.268 1  98382114.083 2      -302.753          41.000                                                                  
J03  40802352.598 8 214417802.06037      -336.166          31.000                                                                  
C10                                                                  35501359.448 1 142949259.728 3      -597.345          35.000  
> 2021 12 15 13 50 54.9930000  0 38                     
G30  21708424.711 1 114078548.314 3     -3832.013          37.000    21708420.772 1  88892357.187 2     -2986.066          40.000  
G10  21700367.707 1 114036199.395 3      1421.893          39.000    21700363.100 1  88859355.178 3      1108.405          39.000  
G13  19149177.739 1 100629607.763 2     -2847.736          42.000                                                                  
G14  18915534.917 1  99401802.866 3     -1639.994          37.000    18915527.263 1  77455922.601 2     -1277.757          40.000  
G15  18796143.035 1  98774396.649 1     -1532.941          45.000    18796134.844 1  76967029.564 2     -1194.299          41.000  
G17  20814619.731 4 109381564.89824      2227.552          35.000    20814608.148 1  85232341.155 3      1735.426          37.000  
C07  36192949.311 4 188466175.93327     -1209.848          31.000                                                                  
C11  22452122.990 8 116914117.67825      1255.842          33.000    22452117.874 1  90405373.185 2       970.715          40.000  
C12  23020210.002 1 119872269.165 3     -1679.852          36.000    23020202.272 1  92692815.271 2     -1299.040          37.000  
C19  21878535.122 1 113927273.047 2      1351.819          42.000                                                                  
C20  21324819.319 1 111043926.786 1     -1711.329          47.000                                                                  
R06  18264521.995 2  97462991.191 3     -2957.791          36.000                                                                  
R09  20509968.829 1 109522082.048 2      3580.754          39.000    20509953.914 1  85183787.197 1      2784.839          43.000  
R23  21253110.990 2 113689845.734 3     -3847.266          35.000                                                                  
R15  18492254.001 2  98816973.540 3     -3390.103          36.000    18492235.223 4  76857592.664 4     -2636.241          33.000  
R24  19606895.229 1 104846883.227 2     -1001.099          38.000    19606883.953 2  81547530.794 5      -778.065          33.000  
R17  19978453.074 1 106908737.849 2      2769.661          41.000    19978441.797 2  83151196.482 4      2154.175          35.000  
G21  22378534.019 1 117599998.382 4       531.018          35.000                                                                  
G23  20621372.592 1 108366046.910 1      -845.876          45.000    20621363.771 1  84441021.090 2      -658.898          39.000  
G24  20134186.685 1 105805865.709 1      2785.245          44.000    20134181.673 1  82446111.643 2      2170.286          42.000  
S23  37693476.866 1 198080553.053 3      -392.486          36.000  
C23  20342653.914 1 105929536.816 2     -1807.323          42.000                                                                  
C25  23879632.919 1 124347512.989 2     -3640.945          37.000                                                                  
R08  21756307.964 2 116504036.590 3      3895.184          37.000    21756288.604 4  90614196.942 6      3029.169          31.000  
R07  18396708.596 1  98479003.679 1      1396.448          44.000    18396696.526 1  76594751.942 2      1085.954          42.000  
G01  22583230.929 8 118675551.51426      2605.398          29.000                                                                  
E03  22238612.692 1 116864704.490 1        57.366          42.000    22238619.194 1  89545702.562 1        43.877          48.000  
E05  22993019.523 1 120829127.276 2     -2800.933          39.000    22993025.267 1  92583383.289 1     -2146.062          46.000  
E08  23330220.993 1 122601120.491 2      2400.608          42.000    23330224.457 1  93941145.403 1      1839.287          44.000  
E24  21779998.611 1 114454667.582 1      -605.022          44.000    21780001.768 1  87699041.780 1      -463.463          47.000  
E25  23427697.875 1 123113387.662 2      2192.625          41.000    23427703.811 1  94333654.726 1      1680.057          44.000  
E26  24934904.657 1 131033782.246 2      -710.284          39.000    24934903.373 2 100402531.848 6      -544.083          28.000  
E31  23968618.814 8 125955941.817 5     -2947.398          33.000    23968626.787 2  96511725.133 6     -2258.261          29.000  
E33  25258260.403 4 132733060.382 6      1702.988          29.000    25258254.668 1 101704520.135 4      1305.007          33.000  
G08  23309362.816 1 122491520.199 2     -3786.186          40.000    23309359.050 4  95447954.851 8     -2950.338          29.000  
G28  18721552.095 1  98382417.470 2      -304.053          42.000                                                                  
J03  40802420.315 8 214418137.61417      -337.913          31.000                                                                  
C10                                                                  35501507.857 1 142949857.067 4      -597.530          35.000  
> 2021 12 15 13 50 55.9930000  0 38                     
G30  21709153.907 1 114082380.771 3     -3832.934          37.000    21709150.067 1  88895343.546 2     -2986.572          40.000  
G10  21700097.358 1 114034777.943 3      1420.837          38.000    21700092.646 1  88858247.581 2      1107.208          39.000  
G13  19149719.805 1 100632456.109 2     -2849.233          42.000                                                                  
G14  18915847.150 1  99403443.572 2     -1641.449          37.000    18915839.503 1  77457201.064 2     -1278.942          41.000  
G15  18796434.864 1  98775930.173 1     -1534.296          43.000    18796426.683 1  76968224.524 2     -1195.429          41.000  
G17  20814194.797 4 109379338.22923      2226.074          36.000    20814184.469 1  85230606.166 3      1734.676          37.000  
C07  36193181.493 4 188467386.53827     -1210.554          30.000                                                                  
C11  22451883.609 4 116912862.69024      1254.011          34.000    22451876.935 1  90404402.700 2       970.376          40.000  
C12  23020532.782 1 119873949.903 3     -1681.899          36.000    23020525.027 1  92694114.891 2     -1299.783          38.000  
C19  21878275.780 1 113925921.826 2      1350.903          41.000                                                                  
C20  21325148.107 1 111045638.813 1     -1712.611          47.000                                                                  
R06  18265076.534 2  97465949.804 3     -2959.457          36.000                                                                  
R09  20509298.444 1 109518501.902 2      3579.775          43.000    20509283.439 1  85181002.646 1      2784.219          44.000  
R23  21253830.084 2 113693693.435 3     -3848.426          35.000                                                                  
R15  18492888.654 2  98820364.042 4     -3391.062          35.000    18492869.694 4  76860229.779 4     -2637.397          34.000  
R24  19607082.591 1 104847885.461 2     -1002.925          38.000    19607071.414 2  81548310.320 5      -780.057          32.000  
R17  19977935.747 1 106905968.700 2      2768.675          40.000    19977924.234 2  83149042.751 4      2153.184          35.000  
G21  22378433.512 1 117599468.694 4       529.280          34.000                                                                  
G23  20621533.659 1 108366893.435 1      -847.336          44.000    20621524.967 1  84441680.720 2      -660.180          41.000  
G24  20133656.893 1 105803081.086 1      2784.139          44.000    20133651.637 1  82443941.776 2      2169.514          42.000  
S23  37693551.505 1 198080945.287 3      -392.260          36.000  
C23  20343001.020 1 105931344.591 1     -1808.428          42.000                                                                  
C25  23880332.094 1 124351153.985 3     -3641.770          36.000                                                                  
R08  21755580.567 2 116500142.020 3      3893.933          38.000    21755561.002 4  90611167.810 6      3028.638          31.000  
R07  18396448.034 1  98477608.098 1      1394.642          44.000    18396435.769 1  76593666.476 2      1084.731          42.000  
G01  22582739.986 8 118672946.364 5      2604.478          30.000                                                                  
E03  22238601.749 1 116864647.586 1        56.354          42.000    22238608.169 1  89545658.987 1        43.201          48.000  
E05  22993552.844 1 120831928.751 2     -2801.823          40.000    22993558.262 1  92585529.874 1     -2147.053          46.000  
E08  23329764.293 1 122598720.435 2      2399.761          42.000    23329767.863 1  93939306.394 1      1838.521          44.000  
E24  21780113.767 1 114455273.040 1      -606.149          44.000    21780116.992 1  87699505.701 1      -464.393          48.000  
E25  23427281.005 1 123111195.284 2      2192.213          42.000    23427286.669 1  94331974.868 1      1679.465          44.000  
E26  24935039.792 1 131034493.050 2      -711.348          39.000    24935038.904 2 100403076.502 6      -545.192          29.000  
E31  23969176.773 8 125958889.517 4     -2948.360          32.000    23969187.504 2  96513983.818 7     -2258.870          27.000  
E33  25257936.514 4 132731357.795 6      1701.983          29.000    25257930.868 1 101703215.561 4      1303.850          33.000  
G08  23310083.565 1 122495306.916 2     -3786.801          40.000    23310078.729 4  95450905.562 8     -2951.461          29.000  
G28  18721610.044 1  98382722.148 2      -305.408          42.000                                                                  
J03  40802480.582 8 214418474.249 7      -337.064          31.000                                                                  
C10                                                                  35501656.356 1 142950455.048 3      -598.033          35.000  
> 2021 12 15 13 50 56.9930000  0 38                     
G30  21709883.186 1 114086213.880 4     -3833.600          35.000    21709879.482 1  88898330.423 2     -2987.622          39.000  
G10  21699827.039 1 114033357.551 3      1419.678          37.000    21699822.357 1  88857140.810 2      1105.951          39.000  
G13  19150262.002 1 100635305.298 2     -2849.393          42.000                                                                  
G14  18916159.643 1  99405085.347 3     -1643.034          37.000    18916151.973 1  77458480.316 2     -1279.583          40.000  
G15  18796726.870 1  98777464.840 1     -1535.760          44.000    18796718.733 1  76969420.336 2     -1196.820          42.000  
G17  20813770.328 4 109377112.46425      2225.783          33.000    20813760.942 1  85228871.853 3      1733.818          37.000  
C07  36193417.808 9               9     -1209.096          23.000                                                                  
C11  22451643.186 2 116911608.54724      1253.029          35.000    22451636.126 1  90403432.994 2       968.586          39.000  
C12  23020855.748 1 119875631.579 3     -1682.238          36.000    23020847.857 1  92695415.304 2     -1301.232          39.000  
C19  21878016.470 1 113924571.551 2      1349.561          42.000                                                                  
C20  21325476.919 1 111047351.829 1     -1713.742          45.000                                                                  
R06  18265631.264 2  97468909.622 3     -2960.505          38.000                                                                  
R09  20508628.134 1 109514922.347 1      3578.864          43.000    20508613.094 1  85178218.574 1      2783.635          44.000  
R23  21254549.294 2 113697542.129 3     -3849.623          38.000                                                                  
R15  18493523.419 2  98823755.466 4     -3392.163          36.000    18493504.271 2  76862867.537 4     -2637.549          35.000  
R24  19607270.373 2 104848889.099 3     -1004.836          37.000    19607258.976 2  81549090.906 4      -781.578          35.000  
R17  19977418.717 1 106903200.570 2      2767.211          41.000    19977406.967 2  83146889.794 3      2152.142          36.000  
G21  22378332.983 1 117598939.883 4       527.977          35.000                                                                  
G23  20621694.882 1 108367741.047 1      -848.210          41.000    20621686.576 1  84442341.256 1      -661.031          42.000  
G24  20133127.097 1 105800297.234 1      2783.250          44.000    20133121.757 1  82441772.525 2      2168.665          41.000  
S23  37693626.176 1 198081337.945 3      -393.124          36.000  
C23  20343348.317 1 105933153.196 2     -1808.659          41.000                                                                  
C25  23881031.393 1 124354795.496 3     -3641.969          38.000                                                                  
R08  21754853.540 2 116496248.149 2      3892.664          38.000    21754833.753 4  90608139.240 4      3027.155          34.000  
R07  18396187.835 1  98476213.717 1      1393.256          45.000    18396175.205 1  76592581.991 2      1083.935          42.000  
G01  22582256.008 9 118670342.051 7      2603.660          29.000                                                                  
E03  22238591.143 1 116864591.614 1        54.914          43.000    22238597.610 1  89545616.104 1        42.332          48.000  
E05  22994085.965 1 120834730.993 2     -2803.165          40.000    22994091.600 1  92587677.025 1     -2147.598          47.000  
E08  23329307.622 1 122596320.994 2      2399.175          42.000    23329311.223 1  93937467.861 1      1838.093          45.000  
E24  21780229.302 1 114455879.326 1      -606.773          45.000    21780232.280 1  87699970.256 1      -464.995          48.000  
E25  23426863.852 1 123109003.647 2      2190.685          42.000    23426869.680 1  94330295.561 1      1678.680          45.000  
E26  24935175.157 1 131035204.778 2      -712.255          39.000    24935174.808 2 100403621.801 5      -545.732          31.000  
E31  23969741.186 8 125961837.813 6     -2948.137          32.000    23969748.551 9               9     -2261.775          24.000  
E33  25257611.931 4 132729656.036 7      1701.437          29.000    25257606.648 2 101701911.692 7      1303.722          26.000  
G08  23310804.295 1 122499094.347 2     -3787.985          40.000    23310798.371 4               9     -2951.917          29.000  
G28  18721668.257 1  98383027.837 2      -306.342          42.000                                                                  
J03  40802543.120 4 214418811.471 5      -338.417          31.000                                                                  
C10                                                                  35501804.983 1 142951053.400 3      -597.977          35.000  
> 2021 12 15 13 50 57.9930000  0 38                     
G30  21710612.787 2 114090047.831 5     -3833.984          37.000    21710609.059 1  88901317.959 2     -2987.994          39.000  
G10  21699556.802 2 114031938.285 5      1419.043          31.000    21699552.336 1  88856034.972 3      1105.133          37.000  
G13  19150804.536 1 100638155.706 2     -2850.968          41.000                                                                  
G14  18916472.325 1  99406728.189 3     -1643.421          39.000    18916464.575 1  77459760.533 2     -1281.049          41.000  
G15  18797019.111 1  98779000.783 1     -1536.688          45.000    18797011.057 1  76970617.240 2     -1197.614          43.000  
G17  20813345.679 4 109374887.49628      2223.721          29.000    20813337.668 1  85227138.420 2      1733.073          40.000  
C07  36193645.833 9               9     -1212.650          23.000    36193633.635 9 145736764.17336      -937.922          34.000  
C11  22451403.148 4 116910355.21216      1251.307          31.000    22451395.538 1  90402464.224 2       968.047          39.000  
C12  23021178.869 1 119877314.457 3     -1683.809          37.000    23021170.984 1  92696716.678 2     -1302.069          40.000  
C19  21877757.370 1 113923222.422 2      1348.407          43.000                                                                  
C20  21325806.022 1 111049066.021 1     -1714.858          46.000                                                                  
R06  18266186.202 2  97471870.907 2     -2962.065          38.000                                                                  
R09  20507958.028 1 109511343.778 2      3578.015          42.000    20507942.884 1  85175435.229 2      2783.080          42.000  
R23  21255268.960 2 113701392.063 3     -3850.480          37.000                                                                  
R15  18494158.445 2  98827148.198 5     -3393.077          33.000    18494139.241 2  76865506.092 4     -2639.755          32.000  
R24  19607458.345 1 104849894.368 2     -1006.316          40.000    19607446.850 2  81549872.744 3      -782.735          38.000  
R17  19976901.927 2 106900433.775 3      2765.884          39.000    19976889.974 2  83144737.883 4      2151.601          35.000  
G21  22378232.710 1 117598412.299 3       526.729          36.000                                                                  
G23  20621856.330 1 108368590.002 2      -849.661          42.000    20621848.287 1  84443002.834 2      -662.264          41.000  
G24  20132597.460 1 105797514.323 2      2782.293          43.000    20132592.175 1  82439604.024 2      2167.981          42.000  
S23  37693701.076 1 198081731.319 2      -393.551          41.000  
C23  20343695.739 1 105934962.883 2     -1810.437          43.000                                                                  
C25  23881730.796 1 124358437.820 4     -3642.897          34.000                                                                  
R08  21754126.468 2 116492355.149 3      3892.633          38.000    21754106.809 4  90605111.354 4      3027.527          33.000  
R07  18395927.861 1  98474820.874 1      1391.989          46.000    18395914.915 1  76591498.630 2      1082.461          42.000  
G01  22581756.697 8 118667738.720 6      2602.684          29.000                                                                  
E03  22238580.989 1 116864536.776 1        54.101          44.000    22238587.147 1  89545574.035 1        41.643          47.000  
E05  22994619.584 1 120837534.157 3     -2804.102          38.000    22994625.137 1  92589824.883 1     -2148.315          47.000  
E08  23328851.070 1 122593922.383 2      2398.016          42.000    23328854.865 1  93935629.975 1      1837.391          44.000  
E24  21780345.086 1 114456486.694 1      -608.113          45.000    21780347.812 1  87700435.638 1      -465.877          48.000  
E25  23426446.983 1 123106812.856 2      2190.099          42.000    23426452.649 1  94328616.886 1      1678.270          44.000  
E26  24935310.689 1 131035917.713 2      -713.708          39.000    24935311.032 1 100404168.058 5      -547.091          32.000  
E31  23970304.718 9               9     -2948.663          23.000    23970311.189 8  96518510.01417     -2260.527          31.000  
E33  25257289.201 4               9      1702.988          27.000    25257282.673 4 101700610.72117      1303.074          26.000  
G08  23311525.451 1 122502882.675 2     -3789.101          40.000    23311518.653 4  95456808.783 7     -2953.417          30.000  
G28  18721726.684 1  98383334.770 1      -307.794          44.000                                                                  
J03  40802608.948 4 214419149.251 8      -338.216          30.000                                                                  
C10                                                                  35501953.816 1 142951652.325 4      -600.067          33.000  
> 2021 12 15 13 50 58.9930000  0 39                     
G30  21711342.387 2 114093882.872 5     -3835.126          31.000    21711338.825 1  88904306.269 2     -2988.947          39.000  
G10  21699286.927 1 114030520.702 3      1416.931          39.000    21699282.438 1  88854930.210 2      1104.364          40.000  
G13  19151347.341 1 100641007.506 2     -2852.344          41.000                                                                  
G14  18916785.301 1  99408372.652 2     -1645.005          43.000    18916777.556 1  77461041.888 2     -1281.816          42.000  
G15  18797311.665 1  98780538.330 1     -1538.019          45.000    18797303.656 1  76971815.297 1     -1198.743          43.000  
G17  20812922.028 8               7      2222.241          27.000    20812914.667 1  85225405.951 3      1732.484          39.000  
C07  36193877.223 8 188471016.54937     -1213.167          29.000    36193864.716 9 145737701.86125      -938.919          34.000  
C10  35502107.999 9 184868792.59935      -775.739          33.000    35502102.769 1 142952251.951 3      -599.796          40.000  
C11  22451162.743 2 116909103.612 5      1250.792          35.000    22451155.177 1  90401496.394 2       967.019          40.000  
C12  23021502.410 1 119878998.986 5     -1685.805          31.000    23021494.496 1  92698019.144 3     -1302.536          37.000  
C19  21877498.510 1 113921874.635 2      1347.461          39.000                                                                  
C20  21326135.519 1 111050781.602 1     -1716.125          45.000                                                                  
R06  18266741.474 2  97474833.820 3     -2963.576          38.000                                                                  
R09  20507288.202 1 109507766.275 1      3577.126          42.000    20507272.947 1  85172652.747 2      2781.972          43.000  
R23  21255988.777 2 113705243.458 3     -3851.831          37.000                                                                  
R15  18494793.395 2  98830542.163 3     -3394.308          38.000    18494774.374 2  76868145.631 4     -2640.386          36.000  
R24  19607646.665 1 104850901.421 2     -1007.759          40.000    19607635.063 2  81550656.018 4      -783.391          29.000  
R17  19976385.272 2 106897668.582 3      2764.683          38.000    19976373.123 2  83142587.061 3      2150.009          40.000  
G19  22495663.126 9               9      3522.672          30.000                                                                  
G21  22378132.790 1 117597886.343 4       525.476          32.000                                                                  
G23  20622018.120 1 108369440.623 2      -850.959          41.000    20622010.250 1  84443665.569 2      -663.215          42.000  
G24  20132068.088 1 105794732.634 1      2781.150          44.000    20132062.755 1  82437436.448 2      2167.496          40.000  
S23  37693776.031 1 198082125.513 2      -394.830          39.000  
C23  20344043.676 1 105936773.857 1     -1811.361          44.000                                                                  
C25  23882430.340 1 124362081.092 3     -3643.707          38.000                                                                  
R08  21753399.946 2 116488463.336 2      3891.236          39.000    21753380.454 2  90602084.332 4      3026.453          35.000  
R07  18395668.060 1  98473429.716 1      1390.657          45.000    18395655.074 1  76590416.653 2      1081.513          41.000  
G01  22581247.059 8 118665136.729 6      2600.779          32.000                                                                  
E03  22238570.953 1 116864483.194 1        52.928          45.000    22238576.961 1  89545533.022 1        40.680          46.000  
E05  22995153.005 1 120840338.437 2     -2804.802          41.000    22995158.784 1  92591973.677 1     -2149.095          46.000  
E08  23328394.616 1 122591524.854 2      2397.115          40.000    23328398.730 1  93933792.928 1      1836.744          44.000  
E24  21780460.694 1 114457095.358 1      -609.226          45.000    21780463.749 1  87700902.010 1      -466.833          49.000  
E25  23426030.360 1 123104623.131 2      2189.217          40.000    23426036.168 1  94326939.102 1      1677.579          44.000  
E26  24935446.415 1 131036632.093 3      -714.819          35.000    24935446.985 2 100404715.394 8      -548.847          27.000  
E31  23970866.198 9               9     -2950.956          25.000    23970872.713 4  96520770.397 6     -2260.808          35.000  
E33  25256968.900 8 132726267.07018      1698.632          30.000    25256958.909 4 101699308.349 5      1301.621          35.000  
G08  23312246.699 1 122506672.257 2     -3790.079          38.000    23312239.397 4  95459761.658 7     -2953.237          30.000  
G28  18721785.366 1  98383643.115 1      -308.728          42.000                                                                  
J03  40802672.893 4 214419488.304 8      -338.149          31.000                                                                  
> 2021 12 15 13 50 59.9930000  0 39                     
G30  21712072.334 2 114097718.644 5     -3836.017          32.000    21712068.778 1  88907295.160 2     -2989.026          39.000  
G10  21699017.282 1 114029104.040 4      1415.387          33.000    21699012.927 1  88853826.402 2      1103.235          37.000  
G13  19151890.171 1 100643860.336 2     -2853.034          39.000                                                                  
G14  18917098.512 1  99410018.166 2     -1646.325          41.000    18917090.748 1  77462324.125 2     -1282.586          41.000  
G15  18797604.491 1  98782077.055 1     -1539.343          44.000    18797596.423 1  76973014.350 2     -1199.475          43.000  
G17  20812500.150 9               9      2223.084          26.000    20812491.793 1  85223674.225 2      1731.464          39.000  
C07  36194110.112 8 188472230.19427     -1213.674          29.000    36194098.048 8 145738640.31324      -938.414          34.000  
C10  35502257.907 9 184869568.69428      -775.939          28.000    35502251.929 1 142952852.237 3      -600.683          37.000  
C11  22450922.805 2 116907853.201 5      1249.620          32.000    22450915.063 1  90400529.460 2       966.732          40.000  
C12  23021826.098 1 119880684.237 4     -1686.133          35.000    23021818.143 1  92699322.352 2     -1303.400          39.000  
C19  21877239.964 1 113920527.925 2      1346.069          43.000                                                                  
C20  21326465.184 1 111052498.348 1     -1717.361          46.000                                                                  
R06  18267297.058 2  97477798.022 3     -2964.679          37.000                                                                  
R09  20506618.400 1 109504189.559 2      3576.287          42.000    20506603.186 1  85169870.851 1      2781.612          43.000  
R23  21256708.855 2 113709095.958 3     -3853.357          36.000                                                                  
R15  18495428.512 2  98833936.890 5     -3395.085          33.000    18495409.691 2  76870786.158 4     -2640.506          35.000  
R24  19607835.332 1 104851909.976 2     -1009.184          40.000    19607823.222 2  81551440.442 4      -784.638          35.000  
R17  19975868.873 2 106894904.507 3      2763.319          39.000    19975856.499 2  83140437.300 3      2149.789          37.000  
G19  22494974.666 9 118211889.29037      3522.042          31.000                                                                  
G21  22378033.015 2 117597361.111 5       524.387          32.000                                                                  
G23  20622180.253 1 108370292.371 2      -852.494          42.000    20622172.550 1  84444329.321 2      -664.255          42.000  
G24  20131538.891 1 105791951.828 1      2780.498          42.000    20131533.412 1  82435269.573 2      2166.624          42.000  
S23  37693851.241 1 198082520.216 2      -395.503          37.000  
C23  20344391.689 1 105938585.717 1     -1812.412          44.000                                                                  
C25  23883130.153 1 124365724.851 3     -3644.267          38.000                                                                  
R08  21752673.521 2 116484572.320 2      3890.485          39.000    21752653.948 2  90599058.027 3      3025.843          35.000  
R07  18395408.544 1  98472039.995 1      1389.055          46.000    18395395.399 1  76589335.704 2      1080.346          42.000  
G01  22580751.584 8 118662535.612 7      2600.861          30.000                                                                  
E03  22238560.939 1 116864430.655 1        52.030          44.000    22238566.970 1  89545492.778 1        39.660          47.000  
E05  22995687.017 1 120843143.682 2     -2805.624          42.000    22995692.559 1  92594123.123 1     -2149.846          46.000  
E08  23327938.672 1 122589128.058 2      2396.294          41.000    23327942.491 1  93931956.389 1      1836.196          44.000  
E24  21780576.781 1 114457704.947 1      -610.098          45.000    21780579.554 1  87701369.120 1      -467.564          49.000  
E25  23425613.588 1 123102434.238 2      2188.563          42.000    23425619.643 1  94325261.892 1      1676.697          44.000  
E26  24935582.427 1 131037347.444 3      -716.031          39.000    24935582.743 2 100405263.590 7      -548.558          33.000  
E31  23971428.664 8               9     -2951.341          25.000    23971433.878 4  96523031.716 5     -2261.262          34.000  
E33  25256628.722 8 132724568.290 8      1698.763          29.000    25256634.062 9               9      1300.889          25.000  
G08  23312968.067 1 122510462.461 2     -3790.877          38.000    23312960.218 4  95462715.121 7     -2954.403          30.000  
G28  18721844.224 1  98383952.616 2      -310.010          42.000                                                                  
J03  40802736.696 4 214419827.555 7      -340.244          31.000                                                                  
> 2021 12 15 13 51 00.9930000  0 38                     
G30  21712802.253 1 114101555.147 4     -3836.951          36.000    21712798.861 1  88910284.616 2     -2989.838          39.000  
G10  21698747.838 1 114027688.444 4      1414.880          31.000    21698743.472 1  88852723.398 3      1102.094          36.000  
G13  19152433.472 1 100646714.204 3     -2854.629          39.000                                                                  
G14  18917411.825 1  99411664.800 2     -1647.037          39.000    18917404.179 1  77463607.298 2     -1283.981          40.000  
G15  18797897.577 1  98783617.015 2     -1539.984          45.000    18797889.489 1  76974214.315 1     -1200.537          43.000  
G17  20812079.842 8 109368216.89738      2216.672          28.000    20812069.034 1  85221943.258 2      1730.793          38.000  
C07  36194344.312 4 188473444.23327     -1214.393          29.000    36194332.705 4 145739579.13023      -939.907          38.000  
C11  22450682.708 1 116906603.696 4      1248.759          33.000    22450675.119 1  90399563.326 2       965.535          39.000  
C12  23022149.964 1 119882370.618 3     -1686.496          37.000    23022142.037 1  92700626.508 2     -1304.761          39.000  
C19  21876981.627 1 113919182.230 2      1345.007          43.000                                                                  
C20  21326794.970 1 111054216.128 1     -1718.474          45.000                                                                  
R06  18267852.798 2  97480763.551 2     -2966.246          38.000                                                                  
R09  20505948.812 1 109500613.595 1      3575.369          43.000    20505933.537 1  85167089.551 1      2780.910          43.000  
R23  21257429.257 2 113712949.548 4     -3853.926          35.000                                                                  
R15  18496064.093 4  98837332.761 6     -3395.618          29.000    18496045.245 2  76873427.377 3     -2641.665          37.000  
R24  19608024.335 1 104852920.074 2     -1011.042          40.000    19608012.025 2  81552226.094 4      -786.525          36.000  
R17  19975352.662 2 106892141.690 2      2762.254          38.000    19975340.108 2  83138288.448 3      2148.088          37.000  
G19  22494298.356 9 118208367.51226      3521.706          31.000                                                                  
G21  22377933.405 1 117596837.029 4       522.642          38.000                                                                  
G23  20622342.644 1 108371145.411 2      -853.651          43.000    20622334.938 1  84444994.010 2      -665.135          42.000  
G24  20131009.960 1 105789171.850 2      2779.316          42.000    20131004.345 1  82433103.361 2      2165.923          42.000  
S23  37693926.495 1 198082915.494 3      -395.701          39.000  
C23  20344739.771 1 105940398.469 1     -1812.737          44.000                                                                  
C25  23883830.034 1 124369369.260 4     -3644.256          35.000                                                                  
R08  21751947.173 2 116480682.092 2      3889.673          39.000    21751927.612 2  90596032.282 5      3025.623          33.000  
R07  18395149.221 1  98470651.622 1      1387.562          45.000    18395135.962 1  76588255.893 2      1078.980          43.000  
G01  22580261.434 8 118659935.512 6      2599.957          30.000                                                                  
E03  22238550.954 1 116864379.084 2        51.471          44.000    22238557.249 1  89545453.253 1        39.272          47.000  
E05  22996220.932 1 120845949.771 2     -2806.668          40.000    22996226.560 1  92596273.199 1     -2150.298          46.000  
E08  23327482.684 1 122586731.976 2      2395.759          41.000    23327486.601 1  93930120.418 1      1835.917          45.000  
E24  21780693.177 1 114458315.504 1      -611.200          45.000    21780695.782 1  87701836.898 1      -467.980          49.000  
E25  23425197.196 1 123100246.131 2      2187.859          41.000    23425203.306 1  94323585.279 1      1676.412          45.000  
E26  24935718.643 1 131038063.873 2      -716.718          38.000    24935719.486 1 100405812.532 5      -549.746          33.000  
E31  23971990.623 9               9     -2953.775          23.000    23971996.755 2  96525293.449 4     -2262.143          34.000  
G08  23313689.611 1 122514253.528 2     -3791.775          39.000    23313681.047 4               9     -2954.516          29.000  
G28  18721903.217 1  98384263.211 2      -311.469          43.000                                                                  
E33                                                                  25256311.429 8 101696699.50017      1299.014          31.000  
C10                                                                  35502401.154 1 142953452.939 3      -601.047          36.000  
> 2021 12 15 13 51 01.9930000  0 38                     
G30  21713532.305 1 114105392.343 4     -3837.976          34.000    21713528.998 1  88913274.669 2     -2990.204          38.000  
G10  21698478.633 1 114026274.321 3      1413.617          38.000    21698474.390 1  88851621.390 3      1101.373          38.000  
G13  19152976.802 1 100649569.260 2     -2855.779          41.000                                                                  
G14  18917725.446 1  99413312.716 3     -1648.701          36.000    18917717.899 1  77464891.436 2     -1284.769          39.000  
G15  18798190.917 1  98785158.337 2     -1541.919          45.000    18798182.775 1  76975415.319 2     -1201.917          42.000  
G17  20811657.030 8               9      2219.069          28.000    20811646.470 1  85220213.115 2      1729.789          38.000  
C07  36194575.438 4 188474658.92927     -1215.499          33.000    36194563.986 4 145740518.43724      -939.902          34.000  
C10  35502574.033 9 184871219.31137      -778.282          27.000    35502550.430 1 142954054.257 3      -602.065          37.000  
C12  23022474.079 1 119884058.371 2     -1688.458          43.000    23022466.157 1  92701931.502 1     -1305.777          45.000  
C19  21876723.380 1 113917837.653 2      1343.799          40.000                                                                  
C20  21327125.067 1 111055935.078 2     -1719.701          44.000                                                                  
R06  18268408.796 2  97483730.495 3     -2967.854          37.000                                                                  
R09  20505279.324 1 109497038.511 1      3574.710          43.000    20505263.988 1  85164308.929 1      2780.208          43.000  
R23  21258149.795 2 113716804.405 4     -3855.494          35.000                                                                  
R15  18496699.625 4  98840729.903 7     -3398.440          29.000    18496681.158 2  76876069.457 3     -2642.875          37.000  
R24  19608213.436 1 104853931.572 2     -1012.437          45.000    19608201.275 2  81553012.840 3      -787.461          40.000  
R17  19974836.595 2 106889380.145 2      2760.805          40.000    19974823.987 2  83136140.497 4      2148.150          33.000  
G19  22493625.943 8 118204846.472 7      3520.940          31.000                                                                  
G21  22377833.964 1 117596314.130 3       522.163          40.000                                                                  
G23  20622505.201 1 108371999.826 2      -855.000          44.000    20622497.722 1  84445659.772 2      -666.664          42.000  
G24  20130481.081 1 105786392.862 2      2777.929          42.000    20130475.515 1  82430937.893 2      2165.189          41.000  
S23  37694001.902 1 198083311.297 2      -396.049          40.000  
C23  20345088.111 1 105942212.347 1     -1814.671          41.000                                                                  
C25  23884529.981 2 124373014.599 7     -3646.322          31.000                                                                  
R08  21751220.987 2 116476792.797 2      3888.275          39.000    21751201.438 2  90593007.278 4      3024.274          35.000  
R07  18394890.164 1  98469264.781 1      1386.212          45.000    18394876.787 1  76587177.217 1      1078.014          43.000  
G01  22579765.545 8 118657336.422 6      2597.528          30.000                                                                  
E03  22238541.326 1 116864328.697 2        49.437          45.000    22238547.647 1  89545414.633 1        38.485          47.000  
E05  22996754.977 1 120848756.742 3     -2807.412          39.000    22996760.731 1  92598424.007 1     -2151.211          46.000  
E08  23327026.934 1 122584336.771 2      2394.533          40.000    23327030.683 1  93928285.164 1      1834.954          44.000  
E24  21780809.392 1 114458927.075 1      -612.394          44.000    21780812.193 1  87702305.547 1      -469.230          47.000  
E25  23424781.040 1 123098058.929 2      2186.821          41.000    23424787.109 1  94321909.349 1      1675.588          45.000  
E26  24935855.253 1 131038781.542 2      -718.417          42.000    24935856.290 1 100406362.474 4      -550.347          38.000  
E31  23972551.354 9 125976606.93417     -2952.511          34.000    23972558.352 2  96527555.796 4     -2262.618          35.000  
G08  23314411.289 1 122518045.571 2     -3792.886          42.000    23314402.208 4  95468624.057 7     -2957.793          30.000  
G28  18721962.572 1  98384575.005 1      -312.622          45.000                                                                  
E33                                                                  25255988.664 4 101695399.441 8      1299.358          34.000  
C11                                                                  22450435.497 1  90398598.237 3       964.712          37.000  
> 2021 12 15 13 51 02.9930000  0 38                     
G30  21714259.717 8 114109204.51937     -3839.807          30.000    21714259.358 1  88916265.417 2     -2991.302          40.000  
G10  21698209.736 1 114024861.269 4      1411.786          32.000    21698205.340 1  88850520.317 3      1100.696          36.000  
G13  19153520.380 1 100652425.414 2     -2856.224          41.000                                                                  
G14  18918039.266 1  99414961.965 2     -1649.872          44.000    18918031.748 1  77466176.376 2     -1285.328          45.000  
G15  18798484.361 1  98786700.905 1     -1543.085          44.000    18798476.300 1  76976617.335 2     -1202.686          42.000  
G17  20811233.366 8               9      2215.704          29.000    20811224.139 1  85218483.793 3      1728.523          36.000  
C07  36194810.279 4 188475873.72314     -1215.241          39.000    36194797.924 2 145741458.07523      -940.049          42.000  
C10  35502707.133 8 184871997.32426      -778.610          38.000    35502699.890 1 142954655.821 2      -601.892          43.000  
C11  22450205.952 9 116904112.76537      1247.383          43.000    22450195.834 1  90397633.646 2       963.640          47.000  
C12  23022798.310 1               9     -1689.185          29.000    23022790.557 1  92703237.606 3     -1306.180          29.000  
C19  21876465.433 1 113916494.224 2      1342.664          41.000                                                                  
C20  21327455.338 1 111057655.206 1     -1720.800          44.000                                                                  
R06  18268965.048 2  97486698.805 3     -2968.878          37.000                                                                  
R09  20504609.955 1 109493464.258 2      3573.990          42.000    20504594.689 1  85161528.952 1      2779.724          42.000  
R23  21258870.621 2 113720660.351 4     -3856.185          35.000                                                                  
R15  18497335.198 2  98844127.650 4     -3398.540          45.000    18497317.109 2  76878712.110 3     -2643.225          42.000  
R24  19608402.864 4               9     -1013.122          35.000    19608390.583 2  81553800.994 7      -787.717          36.000  
R17  19974320.912 1 106886619.811 2      2759.558          41.000    19974308.177 2  83133993.572 2      2146.283          44.000  
G19  22492951.928 8 118201326.250 7      3520.454          31.000                                                                  
G21  22377734.674 1 117595792.692 4       520.996          33.000                                                                  
G23  20622668.045 1 108372855.446 2      -856.136          43.000    20622660.723 1  84446326.503 1      -667.385          43.000  
G24  20129952.519 1 105783614.776 2      2777.577          43.000    20129946.903 1  82428773.192 2      2164.084          41.000  
S23  37694077.301 1 198083707.800 3      -397.393          38.000  
C23  20345436.663 1 105944027.287 2     -1814.898          41.000                                                                  
C25  23885230.218 1 124376660.465 4     -3646.243          43.000                                                                  
R08  21750494.970 2 116472904.262 2      3888.776          40.000    21750475.401 2  90589982.899 4      3025.128          33.000  
R07  18394631.289 1  98467879.376 1      1384.617          45.000    18394617.915 1  76586099.713 1      1076.810          44.000  
G01  22579272.898 4 118654738.309 7      2597.314          31.000    22579172.913 9               9      2024.172          21.000  
E03  22238531.876 1 116864279.266 2        49.276          43.000    22238538.052 1  89545376.801 1        37.299          46.000  
E05  22997289.350 1 120851564.695 3     -2808.549          40.000    22997295.084 1  92600575.552 1     -2151.985          47.000  
E08  23326571.329 1 122581942.365 2      2393.844          41.000    23326575.110 1  93926450.442 1      1834.334          45.000  
E24  21780926.109 1 114459539.725 2      -613.079          44.000    21780928.689 1  87702774.991 1      -470.042          47.000  
E25  23424364.987 1 123095872.506 2      2185.049          42.000    23424371.181 1  94320234.060 1      1675.002          45.000  
E26  24935991.775 1 131039500.150 2      -719.069          36.000    24935993.273 1 100406912.956 3      -550.601          37.000  
E31  23973112.586 8 125979559.973 7     -2953.275          38.000    23973121.291 2  96529818.492 3     -2263.290          44.000  
G08  23315133.157 1 122521838.462 2     -3792.885          42.000    23315123.112 4               9     -2954.988          29.000  
G28  18722022.112 1  98384887.999 2      -313.708          43.000                                                                  
E33                                                                  25255666.747 4 101694099.896 5      1299.073          38.000  
> 2021 12 15 13 51 03.9930000  0 38                     
G30  21714995.003 9               9     -3840.781          25.000    21714989.940 1  88919256.714 2     -2992.212          40.000  
G10  21697940.776 1 114023449.252 4      1410.364          38.000    21697936.557 1  88849420.072 3      1099.860          36.000  
G13  19154064.157 1 100655282.648 2     -2857.614          42.000                                                                  
G14  18918353.138 1  99416612.215 2     -1651.183          42.000    18918345.821 1  77467462.308 1     -1286.384          45.000  
G15  18798778.153 1  98788244.758 1     -1544.714          45.000    18798769.974 1  76977820.306 2     -1203.699          40.000  
C07  36195045.247 2 188477089.892 2     -1216.583          40.000    36195032.109 1 145742397.94012      -940.433          43.000  
C10  35502856.064 4 184872775.76113      -779.541          37.000    35502849.585 1 142955258.130 1      -602.354          44.000  
C11  22449963.803 9 116902866.67523      1245.825          44.000    22449956.552 1  90396670.081 1       962.992          47.000  
C19  21876207.692 1 113915151.816 2      1341.681          42.000                                                                  
C20  21327785.784 1 111059376.427 1     -1722.026          45.000                                                                  
R06  18269521.614 2  97489668.404 3     -2970.273          37.000                                                                  
R09  20503940.777 1 109489890.787 2      3572.921          42.000    20503925.505 1  85158749.584 2      2779.228          42.000  
R23  21259591.533 2 113724517.525 4     -3858.399          35.000                                                                  
R15  18497970.891 1  98847526.619 2     -3399.808          46.000    18497953.288 2  76881355.705 2     -2644.064          42.000  
R24  19608592.592 4 104855956.57734     -1015.449          36.000    19608580.340 2  81554590.200 4      -789.812          35.000  
R17  19973805.385 1 106883860.679 2      2758.655          40.000    19973792.731 1  83131847.540 2      2145.567          44.000  
G19  22492280.579 4 118197806.594 7      3519.254          31.000                                                                  
G21  22377635.486 2 117595272.217 4       519.338          33.000                                                                  
G23  20622831.123 1 108373712.386 1      -857.690          43.000    20622823.896 1  84446994.250 1      -668.311          42.000  
G24  20129424.052 1 105780837.591 2      2776.687          42.000    20129418.412 1  82426609.170 2      2163.334          43.000  
S23  37694152.832 1 198084104.835 2      -397.871          39.000  
C23  20345785.405 1 105945843.066 1     -1816.457          42.000                                                                  
C25  23885930.581 1 124380306.953 2     -3646.893          42.000                                                                  
R08  21749769.150 2 116469016.582 2      3886.920          39.000    21749749.398 2  90586959.119 3      3024.488          34.000  
R07  18394372.809 1  98466495.346 1      1382.959          45.000    18394359.233 1  76585023.263 2      1076.008          43.000  
G01  22578778.952 4 118652141.096 5      2595.929          32.000    22578671.990 9               9      2022.875          23.000  
E03  22238522.617 1 116864230.914 1        47.797          43.000    22238529.039 1  89545339.733 1        36.561          47.000  
E05  22997823.912 1 120854373.422 3     -2809.436          40.000    22997829.410 1  92602727.719 1     -2152.861          47.000  
E08  23326115.737 1 122579548.636 1      2393.662          42.000    23326119.683 1  93924616.338 1      1833.546          45.000  
E33  25255341.808 9               9      1692.521          41.000    25255343.916 2 101692801.433 3      1297.612          39.000  
E24  21781042.973 1 114460153.278 1      -613.828          45.000    21781045.456 1  87703245.133 1      -470.927          47.000  
E25  23423948.858 1 123093686.895 2      2184.939          41.000    23423955.064 1  94318559.379 1      1674.279          45.000  
E26  24936128.487 1 131040220.057 4      -720.877          38.000    24936130.784 1 100407464.653 3      -552.592          35.000  
E31  23973676.100 4 125982514.164 3     -2955.073          37.000    23973682.544 1  96532082.048 2     -2263.872          44.000  
G08  23315855.353 1 122525632.223 2     -3794.123          42.000    23315843.491 9               9     -2963.641          21.000  
G28  18722081.803 1  98385202.124 2      -314.899          42.000                                                                  
C12                                                                  23023115.209 1  92704544.168 4     -1305.751          34.000  
G17                                                                  20810802.005 1  85216755.224 3      1728.096          37.000  
> 2021 12 15 13 51 04.9930000  0 38                     
G30  21715726.446 8 114116911.88035     -3839.447          35.000    21715720.570 1  88922248.280 2     -2991.962          38.000  
G10  21697672.212 1 114022038.144 4      1409.894          34.000    21697667.983 1  88848320.520 3      1099.042          39.000  
G13  19154608.009 1 100658140.657 1     -2858.350          43.000                                                                  
G14  18918667.174 1  99418263.246 2     -1651.546          38.000    18918659.857 1  77468748.881 1     -1286.850          42.000  
G15  18799072.071 1  98789789.477 1     -1545.154          45.000    18799063.919 1  76979024.001 2     -1204.254          42.000  
G17  20810374.128 9               7      2219.427          31.000    20810379.957 1  85215027.233 3      1728.335          37.000  
C07  36195277.962 2 188478306.495 3     -1216.000          34.000    36195265.823 1 145743338.793 2      -940.511          39.000  
C10  35503005.997 4 184873468.72237      -779.239          25.000    35502999.312 1 142955860.834 3      -602.737          36.000  
C11  22449725.735 8 116901621.37023      1244.700          36.000    22449717.465 1  90395707.172 1       962.550          40.000  
C12  23023446.611 4 119889127.98133     -1691.047          41.000    23023439.873 1  92705851.639 2     -1307.750          45.000  
C19  21875950.148 1 113913810.148 2      1341.321          40.000                                                                  
C20  21328116.505 1 111061098.455 1     -1722.197          45.000                                                                  
R06  18270078.411 2  97492639.091 3     -2971.342          37.000                                                                  
R09  20503271.730 1 109486317.811 2      3572.545          42.000    20503256.488 1  85155970.587 1      2779.118          42.000  
R23  21260312.697 2 113728375.391 4     -3858.367          36.000                                                                  
R15  18498607.251 2  98850926.405 3     -3399.933          33.000    18498589.620 2  76884000.040 2     -2644.136          37.000  
R24  19608784.192 4 104856972.164 3     -1016.292          44.000    19608767.257 4  81555359.12734      -790.794          41.000  
R17  19973290.055 2 106881102.463 3      2757.905          35.000    19973277.254 1  83129702.250 2      2144.958          41.000  
G19  22491610.094 4 118194287.339 6      3519.704          32.000                                                                  
G21  22377536.483 1 117594752.222 3       519.292          40.000                                                                  
G23  20622994.396 1 108374570.263 1      -858.481          44.000    20622987.074 1  84447662.721 2      -669.005          41.000  
G24  20128895.730 1 105778060.983 2      2776.278          42.000    20128890.059 1  82424445.561 2      2163.468          42.000  
S23  37694228.479 1 198084502.105 3      -397.406          39.000  
C23  20346134.124 1 105947659.492 2     -1816.523          42.000                                                                  
C25  23886630.902 1 124383953.743 3     -3646.334          38.000                                                                  
R08  21749043.306 2 116465129.355 2      3887.250          40.000    21749023.594 2  90583935.736 4      3024.005          35.000  
R07  18394114.535 1  98465112.412 1      1382.599          46.000    18394100.812 1  76583947.614 1      1075.312          43.000  
G01  22578284.324 4 118649544.609 6      2596.075          31.000    22578177.035 9               9      2019.092          22.000  
E03  22238513.538 1 116864183.293 1        47.140          44.000    22238520.033 1  89545303.226 1        36.166          48.000  
E05  22998358.566 1 120857182.753 3     -2809.572          40.000    22998364.156 1  92604880.325 1     -2152.859          47.000  
E08  23325660.346 1 122577155.437 2      2393.268          41.000    23325664.114 1  93922782.573 1      1833.373          44.000  
E33  25255016.327 9 132716005.59016      1693.259          29.000    25255022.735 2 101691503.719 3      1297.527          37.000  
E24  21781160.136 1 114460767.526 2      -614.652          44.000    21781162.345 1  87703715.799 1      -470.919          47.000  
E25  23423533.226 1 123091501.772 2      2184.834          41.000    23423539.398 1  94316885.058 1      1674.197          45.000  
E26  24936265.926 1 131040940.745 2      -720.959          44.000    24936268.177 1 100408016.932 3      -552.330          38.000  
E31  23974233.516 8 125985469.022 5     -2954.668          32.000    23974244.110 1  96534346.185 2     -2264.045          37.000  
G08  23316577.501 1 122529426.412 2     -3794.602          44.000    23316556.570 9  95477401.16117     -2956.323          30.000  
G28  18722141.797 1  98385517.031 2      -315.338          43.000                                                                  
> 2021 12 15 13 51 05.9930000  0 38                     
G30  21716457.482 8               9     -3841.610          27.000    21716451.358 1  88925240.196 2     -2992.084          41.000  
G10  21697403.775 1 114020627.857 3      1409.796          37.000    21697399.508 1  88847221.530 3      1098.578          38.000  
G13  19155152.139 1 100660999.349 1     -2859.171          42.000                                                                  
G14  18918981.568 1  99419915.130 2     -1652.515          45.000    18918974.115 1  77470035.987 1     -1287.365          45.000  
G15  18799366.144 1  98791335.054 1     -1545.941          45.000    18799358.061 1  76980228.333 2     -1204.645          42.000  
G17  20809963.057 9 109357036.60037      2217.157          26.000    20809958.072 1  85213299.610 2      1727.578          36.000  
C07  36195511.418 1 188479522.997 4     -1217.306          37.000    36195499.527 1 145744279.402 3      -940.801          37.000  
C10  35503152.128 8               9      -780.003          37.000    35503148.989 1 142956463.446 3      -603.062          41.000  
C11  22449485.672 4 116900376.76422      1244.210          40.000    22449478.405 1  90394744.700 1       962.195          46.000  
C12  23023770.676 2 119890819.60523     -1691.882          38.000    23023764.676 1  92707159.600 1     -1308.521          42.000  
C19  21875692.668 1 113912469.182 2      1340.253          41.000                                                                  
C20  21328447.259 1 111062821.218 1     -1723.190          44.000                                                                  
R06  18270635.348 2  97495610.707 3     -2972.214          37.000                                                                  
R09  20502602.740 1 109482745.198 2      3572.302          42.000    20502587.507 1  85153191.910 1      2778.459          42.000  
R23  21261034.008 2 113732234.109 4     -3858.966          30.000                                                                  
R15  18499243.711 2  98854326.502 3     -3400.563          44.000    18499225.924 2  76886644.572 2     -2645.091          39.000  
R24  19608970.861 4 104857989.194 3     -1018.675          34.000    19608956.231 4  81556150.17423      -791.716          33.000  
R17  19972774.848 2 106878345.048 3      2756.771          41.000    19972762.122 1  83127557.609 1      2144.219          43.000  
G19  22490940.763 4 118190768.361 5      3519.144          33.000                                                                  
G21  22377437.818 1 117594233.354 3       518.387          36.000                                                                  
G23  20623157.908 1 108375428.976 2      -859.176          43.000    20623150.626 1  84448331.848 2      -669.357          41.000  
G24  20128367.389 1 105775284.885 2      2775.614          42.000    20128361.800 1  82422282.375 2      2163.027          42.000  
S23  37694303.987 1 198084899.590 2      -397.748          40.000  
C23  20346483.164 1 105949476.633 1     -1817.320          44.000                                                                  
C25  23887331.246 1 124387600.849 2     -3647.260          42.000                                                                  
R08  21748317.666 1 116461242.571 2      3886.536          40.000    21748297.982 2  90580912.671 3      3022.705          35.000  
R07  18393856.402 1  98463730.432 1      1381.584          45.000    18393842.753 1  76582872.754 1      1074.337          44.000  
G01  22577790.093 4               9      2595.332          29.000    22577681.727 9               9      2024.207          20.000  
E03  22238504.799 1 116864136.266 1        46.719          44.000    22238511.185 1  89545267.195 1        35.776          47.000  
E05  22998893.326 1 120859992.608 2     -2810.144          39.000    22998898.818 1  92607033.319 1     -2153.155          46.000  
E08  23325205.032 1 122574762.542 2      2392.335          41.000    23325208.748 1  93920949.054 1      1833.416          44.000  
E33  25254695.022 9 132714312.583 6      1693.217          36.000    25254700.623 2 101690205.864 3      1297.182          37.000  
E24  21781277.241 1 114461382.333 2      -614.792          43.000    21781279.357 1  87704186.927 1      -471.283          47.000  
E25  23423117.419 1 123089317.086 2      2184.384          41.000    23423123.694 1  94315211.065 1      1673.856          44.000  
E26  24936403.106 1 131041662.083 2      -722.127          38.000    24936405.278 1 100408569.647 4      -552.725          31.000  
E31  23974799.280 4 125988423.650 5     -2954.829          39.000    23974806.928 1  96536610.099 2     -2264.352          42.000  
G08  23317299.733 1 122533221.108 2     -3795.271          43.000    23317271.816 8  95480358.043 6     -2957.549          30.000  
G28  18722201.936 1  98385832.724 2      -316.278          42.000                                                                  
> 2021 12 15 13 51 06.9930000  0 38                     
G10  21697135.572 1 114019218.558 3      1408.667          38.000    21697131.249 1  88846123.350 3      1097.992          38.000  
G13  19155696.377 1 100663859.006 1     -2860.093          42.000                                                                  
G14  18919296.067 1  99421567.985 1     -1653.392          43.000    18919288.601 1  77471323.977 1     -1288.471          43.000  
G15  18799660.563 1  98792881.796 1     -1547.607          45.000    18799652.451 1  76981433.572 2     -1205.768          42.000  
G17  20809543.355 9 109354888.29337      2215.961          32.000    20809536.474 1  85211572.718 2      1726.668          37.000  
C07  36195745.185 1 188480740.317 3     -1217.717          34.000    36195733.376 1 145745220.761 3      -941.577          37.000  
C10  35503304.233 4 184875009.14026      -780.503          30.000    35503298.835 1 142957066.697 2      -603.738          41.000  
C11  22449246.788 1 116899133.09022      1243.125          41.000    22449239.506 1  90393783.000 1       961.293          45.000  
C12  23024094.946 2 119892512.06123     -1693.125          38.000    23024089.798 1  92708468.350 2     -1309.112          44.000  
C19  21875435.401 1 113911129.139 2      1339.679          42.000                                                                  
C20  21328778.216 1 111064544.957 1     -1724.355          44.000                                                                  
R06  18271192.490 2  97498583.535 3     -2973.771          37.000                                                                  
R09  20501933.838 1 109479173.269 1      3571.439          42.000    20501918.525 1  85150413.747 2      2777.790          43.000  
R23  21261755.416 4 113736093.705 4     -3859.846          37.000                                                                  
R15  18499880.049 2  98857727.812 2     -3401.954          40.000    18499862.583 2  76889289.996 2     -2645.919          41.000  
R24  19609156.143 8 104859007.500 5     -1019.253          42.000    19609150.495 8  81556942.125 4      -792.687          38.000  
R17  19972259.878 1 106875588.699 2      2755.634          41.000    19972247.186 1  83125413.801 1      2143.482          43.000  
G19  22490271.450 2 118187249.876 5      3518.642          33.000                                                                  
G21  22377339.278 1 117593715.213 3       517.559          36.000                                                                  
G23  20623321.562 1 108376288.861 1      -860.539          43.000    20623314.331 1  84449001.898 2      -670.775          42.000  
G24  20127839.327 1 105772509.550 2      2774.852          42.000    20127833.685 1  82420119.775 1      2162.099          42.000  
S23  37694379.840 1 198085297.527 2      -398.586          39.000  
C23  20346832.191 1 105951294.450 1     -1818.285          44.000                                                                  
C25  23888031.681 1 124391248.382 2     -3647.870          43.000                                                                  
R08  21747591.974 1 116457356.475 2      3885.529          40.000    21747572.537 2  90577890.134 4      3021.979          35.000  
R07  18393598.451 1  98462349.717 1      1379.928          45.000    18393584.820 1  76581798.876 1      1073.332          43.000  
G01  22577296.142 4               9      2594.184          29.000    22577188.646 9               9      2025.919          18.000  
E03  22238496.294 1 116864090.133 1        45.528          43.000    22238502.174 1  89545231.870 1        34.854          47.000  
E05  22999428.186 1 120862803.211 2     -2811.176          40.000    22999433.558 1  92609186.877 1     -2153.952          47.000  
E08  23324749.890 1 122572370.339 2      2391.869          42.000    23324753.613 1  93919116.073 1      1832.543          45.000  
E33  25254375.948 9 132712619.875 4      1692.172          33.000    25254377.171 1 101688908.940 3      1297.115          30.000  
E24  21781394.540 1 114461998.071 1      -616.308          44.000    21781396.631 1  87704658.681 1      -472.207          47.000  
E25  23422701.964 1 123087133.063 2      2183.539          42.000    23422708.207 1  94313537.598 1      1673.171          45.000  
E26  24936540.622 1 131042384.350 2      -723.086          38.000    24936542.591 2 100409123.036 6      -553.444          31.000  
E31  23975363.192 4 125991379.188 3     -2956.057          34.000    23975369.622 1  96538874.782 2     -2264.872          36.000  
G08  23318021.984 1 122537016.442 2     -3795.546          43.000    23317991.617 8  95483277.51617     -2957.131          31.000  
G28  18722262.230 1  98386149.442 2      -317.389          42.000                                                                  
G30                                                                  21717182.140 1  88928232.554 2     -2992.822          42.000  
> 2021 12 15 13 51 07.9930000  0 38                     
G10  21696867.621 1 114017810.182 3      1406.995          38.000    21696863.217 1  88845025.987 3      1096.942          37.000  
G13  19156240.727 1 100666719.575 2     -2861.278          40.000                                                                  
G14  18919610.778 1  99423221.886 2     -1654.666          42.000    18919603.301 1  77472612.726 1     -1289.233          44.000  
G15  18799955.104 1  98794429.593 1     -1548.785          46.000    18799947.019 1  76982639.672 1     -1206.616          42.000  
G17  20809121.718 8 109352671.99637      2214.656          32.000    20809114.932 1  85209846.446 2      1725.955          38.000  
C07  36195979.105 2 188481958.139 7     -1218.042          29.000    36195967.245 1 145746162.422 2      -942.002          37.000  
C10  35503453.920 4 184875789.66526      -780.565          33.000    35503448.697 1 142957670.244 2      -603.923          40.000  
C11  22449008.195 1 116897890.33822      1241.957          42.000    22449000.846 1  90392822.022 1       960.367          43.000  
C12  23024421.738 2 119894205.48323     -1694.584          38.000    23024415.081 1  92709777.838 1     -1309.965          45.000  
C19  21875178.323 1 113909790.035 2      1338.672          42.000                                                                  
C20  21329109.303 1 111066269.680 1     -1725.400          45.000                                                                  
R06  18271749.932 2  97501557.585 3     -2975.129          37.000                                                                  
R09  20501265.114 1 109475601.975 2      3570.917          42.000    20501249.817 1  85147636.076 1      2777.448          42.000  
R23  21262477.056 2 113739954.400 5     -3861.179          33.000                                                                  
R15  18500516.530 1  98861129.825 2     -3402.530          40.000    18500499.143 1  76891936.016 2     -2646.448          40.000  
R24  19609347.339 4 104860027.236 2     -1020.556          42.000    19609342.742 4  81557735.248 2      -793.952          40.000  
R17  19971745.052 1 106872833.412 2      2755.030          40.000    19971732.469 1  83123270.820 1      2142.153          42.000  
G19  22489602.055 2 118183732.009 4      3516.841          33.000                                                                  
G21  22377240.886 1 117593198.074 3       516.199          37.000                                                                  
G23  20623485.432 1 108377149.874 1      -861.852          44.000    20623478.292 1  84449672.789 2      -671.456          41.000  
G24  20127311.355 1 105769734.960 1      2774.287          42.000    20127305.799 1  82417957.788 2      2161.574          42.000  
S23  37694455.754 1 198085695.847 3      -399.295          37.000  
C23  20347181.454 1 105953113.129 1     -1819.214          44.000                                                                  
C25  23888732.155 1 124394896.494 2     -3648.725          38.000                                                                  
R08  21746866.551 2 116453470.973 2      3885.297          40.000    21746847.180 2  90574868.138 3      3021.448          35.000  
R07  18393340.700 1  98460970.280 1      1378.701          45.000    18393327.142 1  76580725.959 1      1072.312          43.000  
G01  22576802.401 4 118641759.089 7      2594.059          29.000    22576692.579 9               9      2016.161          17.000  
E03  22238487.621 1 116864044.892 1        44.435          43.000    22238493.520 1  89545197.175 1        34.240          48.000  
E05  22999962.882 1 120865614.530 2     -2811.634          39.000    22999968.470 1  92611341.002 1     -2154.426          46.000  
E08  23324294.639 1 122569978.707 2      2391.110          41.000    23324298.533 1  93917283.513 1      1832.060          44.000  
E33  25254052.111 8               9      1692.122          27.000    25254055.638 2 101687612.760 6      1295.839          29.000  
E24  21781511.573 1 114462614.590 1      -617.000          44.000    21781513.796 1  87705131.072 1      -472.922          47.000  
E25  23422286.497 1 123084949.664 2      2183.003          41.000    23422292.710 1  94311864.622 1      1672.435          45.000  
E26  24936678.015 1 131043107.503 2      -723.748          42.000    24936680.187 1 100409677.132 5      -554.631          35.000  
E31  23975927.950 4 125994335.289 5     -2956.671          30.000    23975932.364 1  96541140.065 5     -2265.513          29.000  
G08  23318744.391 1 122540812.491 1     -3796.709          43.000    23318717.340 8  95486235.513 6     -2959.085          31.000  
G28  18722322.713 1  98386467.172 2      -318.457          41.000                                                                  
G30                                                                  21717913.076 1  88931225.354 2     -2993.219          41.000  
> 2021 12 15 13 51 08.9930000  0 38                     
G10  21696599.854 1 114016402.931 2      1406.964          42.000    21696595.452 1  88843929.405 3      1096.442          37.000  
G13  19156785.218 1 100669581.110 2     -2862.026          42.000                                                                  
G14  18919925.842 1  99424876.910 1     -1655.573          44.000    18919918.265 1  77473902.316 1     -1289.969          45.000  
G15  18800249.908 1  98795978.606 1     -1549.597          46.000    18800241.781 1  76983846.707 2     -1207.465          42.000  
C07  36196213.063 2 188483176.250 6     -1219.166          34.000    36196201.216 1 145747104.373 3      -942.106          35.000  
C10  35503605.136 4 184876570.28315      -781.724          36.000    35503598.756 1 142958274.268 2      -604.182          41.000  
C11  22448769.783 1 116896648.64222      1241.194          40.000    22448762.445 1  90391861.889 1       959.834          45.000  
C12  23024746.313 2 119895900.064 3     -1694.973          38.000    23024740.462 1  92711088.122 1     -1310.680          44.000  
C19  21874921.327 1 113908451.887 2      1337.628          41.000                                                                  
C20  21329440.483 1 111067995.435 2     -1726.455          44.000                                                                  
R06  18272307.549 2  97504532.836 3     -2975.791          37.000                                                                  
R09  20500596.613 1 109472031.409 1      3570.272          42.000    20500581.027 1  85144858.960 2      2776.857          42.000  
R23  21263198.784 2 113743816.161 5     -3862.535          32.000                                                                  
R15  18501153.185 1  98864532.728 2     -3403.358          42.000    18501136.004 1  76894582.729 2     -2647.139          39.000  
R24  19609541.190 4 104861048.381 2     -1021.643          40.000    19609536.016 8  81558529.483 3      -794.836          37.000  
R17  19971230.374 1 106870079.300 2      2753.477          42.000    19971217.838 1  83121128.688 2      2142.142          42.000  
G19  22488932.727 2 118180214.652 5      3517.033          32.000                                                                  
G21  22377142.782 1 117592682.179 4       515.399          34.000                                                                  
G23  20623649.503 1 108378012.054 2      -862.461          43.000    20623642.451 1  84450344.657 2      -672.371          41.000  
G24  20126783.464 1 105766961.213 1      2773.163          42.000    20126777.948 1  82415796.418 2      2160.913          43.000  
S23  37694531.579 1 198086094.679 3      -399.343          41.000  
C23  20347530.833 1 105954932.771 1     -1820.068          43.000                                                                  
C25  23889432.946 1 124398545.288 2     -3649.059          41.000                                                                  
R08  21746141.212 2 116449586.295 2      3883.905          40.000    21746121.785 2  90571846.675 3      3021.479          35.000  
R07  18393083.284 1  98459592.216 1      1377.391          45.000    18393069.726 1  76579654.167 1      1071.188          43.000  
G01  22576308.711 2 118639165.708 6      2593.708          28.000    22576200.606 9               9      2017.837          17.000  
E03  22238479.124 1 116864000.647 2        43.908          43.000    22238485.154 1  89545163.277 1        33.547          47.000  
E05  23000498.294 1 120868426.644 2     -2812.344          39.000    23000503.600 1  92613495.751 1     -2154.742          46.000  
E08  23323839.757 1 122567587.758 2      2390.666          41.000    23323843.481 1  93915451.514 1      1831.972          45.000  
E24  21781629.062 1 114463232.018 1      -617.837          44.000    21781631.399 1  87705604.178 1      -473.397          47.000  
E25  23421871.166 1 123082767.084 2      2182.333          42.000    23421877.406 1  94310192.238 1      1672.039          45.000  
E26  24936815.829 1 131043831.771 2      -724.949          38.000    24936818.083 2 100410232.200 7      -555.072          31.000  
E31  23976492.407 4 125997292.289 4     -2957.287          39.000    23976494.839 1  96543405.550 5     -2265.799          39.000  
G08  23319467.011 1 122544609.333 2     -3797.250          42.000    23319441.261 8  95489194.108 6     -2959.883          30.000  
G28  18722383.392 1  98386785.962 2      -319.366          42.000                                                                  
E33                                                                  25253733.821 1 101686317.024 4      1295.292          35.000  
G17                                                                  20808693.495 1  85208120.899 3      1724.969          38.000  
G30                                                                  21718644.185 1  88934218.776 2     -2993.793          42.000  
> 2021 12 15 13 51 09.9930000  0 38                     
G30  21719378.844 9 114136105.99637     -3842.163          31.000    21719375.265 1  88937212.721 2     -2994.257          41.000  
G10  21696332.402 1 114014996.791 3      1405.682          37.000    21696327.810 1  88842833.770 3      1095.331          35.000  
G13  19157329.988 1 100672443.759 2     -2863.299          43.000                                                                  
G14  18920240.954 1  99426533.041 1     -1656.445          44.000    18920233.444 1  77475192.796 1     -1290.817          46.000  
G15  18800544.845 1  98797528.818 1     -1550.708          46.000    18800536.779 1  76985054.666 2     -1208.338          41.000  
G17  20808277.309 9 109348234.44925      2212.876          36.000    20808272.283 1  85206396.110 2      1724.558          39.000  
C07  36196447.151 1 188484395.121 3     -1218.962          39.000    36196435.275 1 145748046.863 3      -942.610          38.000  
C10  35503754.628 2 184877352.061 3      -781.981          39.000    35503748.923 1 142958878.789 1      -604.701          43.000  
C11  22448531.389 1 116895407.44312      1240.369          41.000    22448524.144 1  90390902.525 1       959.078          46.000  
C12  23025071.983 2 119897595.627 2     -1695.875          38.000    23025066.073 1  92712399.244 2     -1311.476          40.000  
C19  21874664.637 1 113907114.838 2      1336.688          40.000                                                                  
C20  21329772.122 1 111069722.255 1     -1727.235          45.000                                                                  
R06  18272865.405 2  97507509.424 2     -2977.241          38.000                                                                  
R09  20499928.108 1 109468461.557 2      3569.744          42.000    20499912.456 1  85142082.445 2      2776.073          42.000  
R23  21263920.969 2 113747678.945 4     -3863.222          34.000                                                                  
R15  18501789.882 1  98867936.684 1     -3404.402          45.000    18501773.048 1  76897230.235 2     -2647.878          41.000  
R24  19609732.440 4 104862071.021 3     -1022.546          36.000    19609727.706 4  81559324.876 4      -795.968          34.000  
R17  19970716.162 1 106867326.393 1      2752.476          43.000    19970703.473 1  83118987.533 1      2140.773          43.000  
G19  22488263.656 2 118176698.012 5      3516.156          32.000                                                                  
G21  22377044.975 1 117592167.307 4       514.453          34.000                                                                  
G23  20623813.934 1 108378875.509 2      -863.846          42.000    20623806.674 1  84451017.445 2      -673.301          41.000  
G24  20126255.809 1 105764188.306 1      2772.411          43.000    20126250.328 1  82413635.702 2      2160.213          43.000  
S23  37694607.685 1 198086494.073 3      -399.383          38.000  
C23  20347880.244 1 105956753.232 2     -1820.763          40.000                                                                  
C25  23890133.816 1 124402194.606 2     -3649.525          41.000                                                                  
R08  21745415.999 1 116445702.318 2      3883.679          40.000    21745396.538 2  90568825.815 4      3020.362          35.000  
R07  18392825.993 1  98458215.536 1      1376.017          45.000    18392812.542 1  76578583.424 1      1070.274          44.000  
G01  22575815.343 2 118636573.146 7      2592.409          27.000    22575711.017 9               9      2028.514          19.000  
E03  22238470.758 1 116863957.356 2        42.948          43.000    22238476.843 1  89545130.108 1        32.857          46.000  
E05  23001033.539 1 120871239.614 2     -2813.322          39.000    23001038.861 1  92615651.139 1     -2155.677          46.000  
E08  23323385.161 1 122565197.586 2      2389.922          41.000    23323388.650 1  93913620.052 1      1831.365          45.000  
E33  25253413.243 9 132707581.30516      1689.369          33.000    25253412.402 1 101685022.043 3      1294.618          39.000  
E24  21781746.649 1 114463850.379 1      -618.860          44.000    21781748.990 1  87706077.977 1      -474.037          47.000  
E25  23421455.796 1 123080585.195 2      2181.588          40.000    23421462.342 1  94308520.432 1      1671.597          45.000  
E26  24936953.873 1 131044557.143 2      -725.821          36.000    24936956.088 1 100410787.953 5      -556.476          33.000  
E31  23977054.358 1 126000249.949 2     -2957.904          41.000    23977057.825 1  96545671.797 3     -2266.552          42.000  
G08  23320189.740 1 122548406.965 2     -3797.608          42.000    23320163.286 8  95492153.218 7     -2959.068          30.000  
G28  18722444.211 1  98387105.841 2      -320.123          42.000                                                                  
> 2021 12 15 13 51 10.9930000  0 38                     
G30  21720117.413 9               9     -3842.175          29.000    21720106.489 1  88940206.978 2     -2994.727          41.000  
G10  21696065.180 1 114013591.573 2      1404.156          40.000    21696060.393 1  88841738.760 3      1094.421          35.000  
G13  19157874.921 1 100675307.153 2     -2863.890          42.000                                                                  
G14  18920556.207 1  99428190.004 1     -1657.732          44.000    18920548.772 1  77476483.938 1     -1291.505          46.000  
G15  18800840.024 1  98799079.983 1     -1551.862          45.000    18800832.024 1  76986263.364 2     -1209.174          41.000  
G17  20807857.937 9 109346021.55024      2211.998          32.000    20807851.230 1  85204671.840 2      1723.867          39.000  
C07  36196681.311 1 188485614.416 3     -1219.750          36.000    36196669.452 1 145748989.727 3      -943.072          37.000  
C10  35503904.995 2 184878134.230 3      -782.515          39.000    35503899.158 1 142959483.606 1      -604.964          43.000  
C11  22448293.356 1 116894167.624 2      1238.807          40.000    22448286.048 1  90389943.794 1       958.309          46.000  
C12  23025397.768 1 119899292.077 2     -1697.039          39.000    23025391.850 1  92713711.042 1     -1312.332          43.000  
C19  21874408.047 1 113905778.484 2      1335.748          39.000                                                                  
C20  21330103.882 1 111071449.912 1     -1728.262          45.000                                                                  
R06  18273423.465 2  97510487.042 2     -2978.678          38.000                                                                  
R09  20499259.656 1 109464892.259 2      3568.915          42.000    20499244.108 1  85139306.306 2      2775.835          42.000  
R23  21264643.279 2 113751542.672 3     -3864.470          34.000                                                                  
R15  18502426.925 1  98871341.385 1     -3405.127          43.000    18502410.262 1  76899878.354 2     -2648.517          40.000  
R24  19609924.344 2 104863094.748 3     -1024.469          39.000    19609920.120 4  81560121.115 4      -796.978          34.000  
R17  19970202.013 1 106864574.366 2      2751.387          43.000    19970189.250 1  83116847.090 1      2139.732          43.000  
G19  22487594.464 2 118173181.642 6      3517.363          33.000                                                                  
G21  22376947.204 1 117591653.108 3       513.263          35.000                                                                  
G23  20623978.492 1 108379739.903 2      -865.262          42.000    20623971.162 1  84451691.015 2      -674.276          41.000  
G24  20125728.280 1 105761416.041 1      2771.542          43.000    20125722.848 1  82411475.483 1      2159.910          43.000  
S23  37694683.791 1 198086893.724 2      -400.156          40.000  
C23  20348229.948 1 105958574.484 2     -1821.754          41.000                                                                  
C25  23890834.638 1 124405844.268 2     -3649.935          41.000                                                                  
R08  21744690.889 1 116441818.879 2      3883.136          41.000    21744671.429 2  90565805.366 3      3020.704          35.000  
R07  18392569.008 1  98456840.013 1      1374.624          45.000    18392555.737 1  76577513.574 1      1069.229          43.000  
G01  22575321.949 2 118633981.421 8      2590.311          26.000    22575222.524 9               9      2018.223          21.000  
E03  22238462.906 1 116863914.818 1        41.939          43.000    22238468.670 1  89545097.516 1        32.069          46.000  
E05  23001568.855 1 120874053.171 2     -2813.998          40.000    23001574.329 1  92617806.975 1     -2156.052          46.000  
E08  23322930.250 1 122562807.843 2      2389.475          41.000    23322934.090 1  93911788.972 1      1830.863          45.000  
E33  25253093.806 9 132705891.949 4      1688.862          33.000    25253090.927 1 101683727.615 2      1294.131          38.000  
E24  21781864.379 1 114464469.447 1      -619.551          44.000    21781866.861 1  87706552.340 1      -474.800          47.000  
E25  23421040.599 1 123078403.876 2      2180.886          42.000    23421047.201 1  94306849.013 1      1671.165          45.000  
E26  24937091.992 1 131045283.190 3      -726.440          36.000    24937094.365 1 100411344.348 5      -556.836          33.000  
E31  23977616.929 1 126003208.019 2     -2958.584          40.000    23977620.717 1  96547938.384 2     -2266.879          40.000  
G08  23320912.684 1 122552205.124 2     -3798.679          42.000    23320886.609 8  95495112.874 6     -2960.191          31.000  
G28  18722505.251 1  98387426.593 2      -321.252          42.000                                                                  
> 2021 12 15 13 51 11.9930000  0 38                     
G30  21720848.949 9 114143831.49036     -3844.073          33.000    21720837.867 1  88943201.680 2     -2994.916          40.000  
G10  21695798.089 1 114012187.328 2      1403.564          43.000    21695793.153 1  88840644.500 3      1093.591          38.000  
G13  19158419.948 1 100678171.441 2     -2864.836          42.000                                                                  
G14  18920871.621 1  99429847.909 1     -1658.467          44.000    18920864.165 1  77477775.852 1     -1292.516          44.000  
G15  18801135.349 1  98800632.221 1     -1552.832          45.000    18801127.491 1  76987472.871 2     -1210.016          41.000  
G17  20807443.356 9 109343852.31937      2211.546          29.000    20807430.255 1  85202948.231 3      1723.374          39.000  
C07  36196915.601 1 188486834.218 4     -1220.330          32.000    36196903.673 1 145749932.988 3      -943.558          36.000  
C10  35504054.634 2 184878916.909 4      -783.047          33.000    35504049.422 1 142960088.844 2      -605.483          41.000  
C11  22448055.451 1 116892928.658 2      1238.676          41.000    22448048.135 1  90388985.727 1       957.634          46.000  
C12  23025723.743 1 119900989.410 2     -1697.850          39.000    23025717.785 1  92715023.551 1     -1312.823          43.000  
C19  21874151.731 1 113904443.057 2      1335.144          43.000                                                                  
C20  21330435.768 1 111073178.497 1     -1729.276          44.000                                                                  
R06  18273981.516 2  97513465.817 2     -2979.210          38.000                                                                  
R09  20498591.344 1 109461323.574 2      3568.336          42.000    20498575.880 1  85136530.675 2      2775.215          42.000  
R23  21265365.595 2 113755407.197 4     -3864.019          34.000                                                                  
R15  18503064.088 1  98874746.958 2     -3405.946          39.000    18503047.560 1  76902527.171 2     -2649.196          40.000  
R24  19610116.326 2 104864119.813 2     -1026.011          41.000    19610111.774 4  81560918.352 3      -797.858          36.000  
R17  19969687.968 1 106861823.353 2      2750.191          39.000    19969675.138 1  83114707.442 1      2139.245          43.000  
G19  22486925.651 2 118169665.943 5      3515.138          33.000                                                                  
G21  22376849.660 1 117591139.813 3       512.742          38.000                                                                  
G23  20624143.226 1 108380605.397 2      -866.058          43.000    20624135.794 1  84452365.425 1      -675.223          41.000  
G24  20125200.955 1 105758644.401 2      2771.324          42.000    20125195.579 1  82409315.799 2      2159.017          42.000  
S23  37694759.960 1 198087293.712 3      -400.005          38.000  
C23  20348579.807 1 105960396.444 1     -1822.508          43.000                                                                  
C25  23891535.689 1 124409494.418 1     -3650.491          42.000                                                                  
R08  21743965.891 1 116437936.073 2      3882.447          41.000    21743946.471 2  90562785.432 4      3019.068          35.000  
R07  18392312.193 1  98455465.697 1      1373.662          45.000    18392299.024 1  76576444.656 1      1068.445          42.000  
G01  22574828.633 4               9      2591.857          25.000    22574734.785 9               9      2018.485          24.000  
E03  22238455.059 1 116863873.115 1        41.094          44.000    22238460.585 1  89545065.556 1        31.473          47.000  
E05  23002104.486 1 120876867.417 2     -2814.730          39.000    23002109.700 1  92619963.350 1     -2156.784          46.000  
E08  23322475.688 1 122560418.714 2      2388.384          42.000    23322479.471 1  93909958.327 1      1830.344          45.000  
E33  25252772.242 9 132704203.232 5      1688.259          32.000    25252769.498 1 101682433.756 3      1293.516          35.000  
E24  21781982.362 1 114465089.296 1      -620.361          44.000    21781984.777 1  87707027.270 1      -475.349          47.000  
E25  23420625.415 1 123076223.138 2      2180.143          41.000    23420632.280 1  94305178.082 1      1670.402          45.000  
E26  24937230.305 1 131046010.199 3      -727.635          38.000    24937232.487 1 100411901.322 4      -557.835          32.000  
E31  23978179.331 1 126006166.683 2     -2959.225          38.000    23978183.740 1  96550205.435 2     -2267.158          38.000  
G08  23321635.532 1 122556003.890 1     -3799.319          43.000    23321609.707 8  95498072.912 6     -2960.109          32.000  
G28  18722566.507 1  98387748.286 2      -322.327          43.000                                                                  
> 2021 12 15 13 51 12.9930000  0 38                     
G30  21721579.298 8 114147675.13428     -3844.202          31.000    21721569.264 1  88946196.839 2     -2995.447          40.000  
G10  21695531.096 1 114010784.001 2      1402.966          43.000    21695526.125 1  88839551.030 3      1092.200          38.000  
G13  19158965.212 1 100681036.639 2     -2865.719          41.000                                                                  
G14  18921187.229 1  99431506.788 1     -1659.587          44.000    18921179.804 1  77479068.473 1     -1293.187          44.000  
G15  18801430.872 1  98802185.482 1     -1553.839          44.000    18801423.196 1  76988683.210 2     -1210.754          41.000  
G17  20807021.531 8 109341641.02326      2210.441          31.000    20807009.360 1  85201225.219 2      1722.537          38.000  
C07  36197149.989 2 188488054.422 6     -1220.749          31.000    36197137.989 1 145750876.528 3      -944.269          35.000  
C10  35504205.116 2 184879700.047 5      -782.928          33.000    35504199.773 1 142960694.379 2      -606.027          39.000  
C11  22447817.724 1 116891690.548 2      1237.316          43.000    22447810.272 1  90388028.338 1       956.883          45.000  
C12  23026049.876 1 119902687.697 2     -1699.009          39.000    23026043.833 1  92716336.780 1     -1313.615          44.000  
C19  21873895.400 1 113903108.494 2      1333.557          42.000                                                                  
C20  21330767.871 1 111074907.986 2     -1730.173          44.000                                                                  
R06  18274540.036 2  97516445.719 3     -2980.455          38.000                                                                  
R09  20497923.078 1 109457755.496 2      3567.601          42.000    20497907.694 1  85133755.517 2      2774.731          41.000  
R23  21266088.146 2 113759272.772 5     -3865.807          32.000                                                                  
R15  18503701.403 2  98878153.321 3     -3406.522          35.000    18503685.064 2  76905176.543 2     -2649.955          38.000  
R24  19610308.482 1 104865146.201 2     -1027.329          43.000    19610303.287 2  81561716.679 3      -799.102          37.000  
R17  19969174.288 1 106859073.390 2      2749.217          41.000    19969161.315 1  83112568.554 1      2138.413          43.000  
G19  22486256.771 2 118166150.635 5      3515.051          33.000                                                                  
G21  22376752.231 1 117590627.467 2       511.553          40.000                                                                  
G23  20624308.206 1 108381471.944 2      -867.288          44.000    20624300.725 1  84453040.656 2      -675.727          41.000  
G24  20124673.674 1 105755873.535 2      2770.219          43.000    20124668.265 1  82407156.666 2      2158.701          42.000  
S23  37694836.244 1 198087694.103 2      -400.876          40.000  
C23  20348929.821 1 105962219.205 1     -1823.248          44.000                                                                  
C25  23892236.755 1 124413144.984 1     -3651.031          43.000                                                                  
R08  21743241.020 1 116434053.920 2      3881.513          40.000    21743221.475 2  90559765.981 5      3018.390          34.000  
R07  18392055.818 1  98454092.573 1      1372.633          45.000    18392042.644 1  76575376.671 1      1067.516          43.000  
G01  22574332.271 9               9      2591.790          23.000    22574247.370 9               9      2019.112          25.000  
E03  22238447.355 1 116863832.226 2        40.155          44.000    22238453.077 1  89545034.235 1        30.823          48.000  
E05  23002640.164 1 120879682.339 2     -2815.729          39.000    23002645.426 1  92622120.238 1     -2157.338          46.000  
E08  23322021.248 1 122558030.093 2      2388.169          42.000    23322024.640 1  93908128.113 2      1829.785          45.000  
E33  25252444.979 8 132702515.352 6      1687.143          31.000    25252448.298 1 101681140.598 5      1292.743          31.000  
E24  21782100.455 1 114465709.950 1      -621.433          44.000    21782102.788 1  87707502.865 1      -476.149          48.000  
E25  23420210.596 1 123074043.028 2      2179.410          41.000    23420217.232 1  94303507.609 2      1669.770          45.000  
E26  24937368.943 1 131046738.122 2      -728.913          40.000    24937371.123 1 100412459.065 5      -557.837          31.000  
E31  23978742.383 1 126009125.915 3     -2959.981          37.000    23978746.658 1  96552472.895 3     -2267.812          35.000  
G08  23322358.503 1 122559803.335 2     -3800.039          43.000    23322332.794 4  95501033.500 4     -2960.276          32.000  
G28  18722627.878 1  98388070.880 2      -323.071          42.000                                                                  
> 2021 12 15 13 51 13.9930000  0 38                     
G30  21722317.733 8               9     -3844.641          29.000    21722300.854 1  88949192.367 2     -2995.746          41.000  
G10  21695264.277 1 114009381.568 1      1401.941          43.000    21695259.232 1  88838458.210 3      1092.212          37.000  
G13  19159510.640 1 100683902.646 2     -2866.614          41.000                                                                  
G14  18921502.993 1  99433166.597 1     -1660.394          43.000    18921495.685 1  77480361.827 1     -1293.815          44.000  
G15  18801726.496 1  98803739.738 1     -1555.041          44.000    18801718.878 1  76989894.317 2     -1211.639          41.000  
G17  20806598.785 8 109339429.99316      2210.000          29.000    20806588.656 1  85199502.754 3      1722.333          38.000  
C07  36197384.419 2 188489275.029 6     -1221.015          30.000    36197372.303 1 145751820.344 3      -944.283          35.000  
C10  35504355.606 2 184880483.570 4      -784.155          33.000    35504350.259 1 142961300.238 2      -606.179          40.000  
C11  22447580.265 1 116890453.285 1      1236.600          43.000    22447572.682 1  90387071.611 1       956.305          44.000  
C12  23026376.224 1 119904386.840 2     -1699.514          39.000    23026370.166 1  92717650.672 1     -1314.427          44.000  
C19  21873639.218 1 113901774.752 2      1332.703          41.000                                                                  
C20  21331100.241 1 111076638.357 1     -1730.904          44.000                                                                  
R06  18275098.556 2  97519426.705 3     -2981.582          37.000                                                                  
R09  20497254.998 1 109454187.919 2      3567.212          41.000    20497239.633 1  85130980.751 2      2774.322          41.000  
R23  21266810.948 2 113763139.246 5     -3867.247          33.000                                                                  
R15  18504339.025 2  98881560.410 4     -3407.226          34.000    18504322.652 1  76907826.472 2     -2649.959          39.000  
R24  19610500.740 1 104866173.866 2     -1028.501          42.000    19610495.123 2  81562515.975 3      -799.822          37.000  
R17  19968660.772 1 106856324.337 2      2748.023          41.000    19968647.678 1  83110430.399 2      2137.483          43.000  
G19  22485587.956 2 118162635.735 4      3514.595          34.000                                                                  
G21  22376654.997 1 117590116.021 2       510.699          39.000                                                                  
G23  20624473.352 1 108382339.494 2      -868.267          44.000    20624465.702 1  84453716.672 2      -676.441          41.000  
G24  20124146.477 1 105753103.282 1      2769.522          43.000    20124141.054 1  82404998.018 1      2158.451          42.000  
S23  37694912.482 1 198088094.784 2      -401.256          40.000  
C23  20349279.889 1 105964042.669 1     -1823.898          44.000                                                                  
C25  23892937.880 1 124416795.980 1     -3651.519          43.000                                                                  
R08  21742516.158 1 116430172.333 2      3881.390          40.000    21742496.781 2  90556746.992 4      3018.347          34.000  
R07  18391799.424 1  98452720.598 1      1371.373          45.000    18391786.413 1  76574309.577 1      1066.655          43.000  
E03  22238439.752 1 116863792.123 2        39.519          44.000    22238445.397 1  89545003.498 1        30.494          47.000  
E05  23003176.064 1 120882497.884 2     -2816.003          39.000    23003181.300 1  92624277.597 1     -2157.499          46.000  
E08  23321566.883 1 122555642.025 2      2387.536          42.000    23321570.422 1  93906298.284 1      1829.606          45.000  
E33  25252122.641 8 132700828.231 7      1685.769          29.000    25252127.117 1 101679847.809 6      1292.722          30.000  
E24  21782218.625 1 114466331.289 2      -621.877          44.000    21782221.061 1  87707978.966 1      -476.388          47.000  
E25  23419795.747 1 123071863.454 2      2179.014          41.000    23419802.598 1  94301837.547 1      1669.613          44.000  
E26  24937507.622 1 131047466.856 2      -729.357          40.000    24937509.976 1 100413017.456 6      -558.073          31.000  
E31  23979305.716 1 126012085.668 3     -2960.078          37.000    23979309.850 1  96554740.744 3     -2268.064          34.000  
G08  23323081.574 1 122563603.353 1     -3800.543          43.000    23323057.179 4  95503994.594 5     -2961.372          33.000  
G28  18722689.401 1  98388394.409 2      -324.261          42.000                                                                  
G01                                                                  22573759.650 9               9      2018.698          25.000  
> 2021 12 15 13 51 14.9930000  0 38                     
G30  21723045.252 8               9     -3842.008          28.000    21723032.493 1  88952188.231 2     -2995.825          42.000  
G10  21694997.711 1 114007980.017 2      1401.367          42.000    21694992.535 1  88837366.063 3      1092.432          37.000  
G13  19160056.155 1 100686769.496 2     -2867.526          42.000                                                                  
G14  18921819.062 1  99434827.370 1     -1661.664          43.000    18921811.661 1  77481655.911 1     -1294.734          44.000  
G15  18802022.481 1  98805294.973 1     -1555.359          45.000    18802014.877 1  76991106.220 2     -1212.207          42.000  
G17  20806179.062 4 109337220.223 7      2211.748          33.000    20806168.103 1  85197780.911 3      1722.182          38.000  
C07  36197619.027 2 188490496.022 6     -1222.117          31.000    36197606.834 1 145752764.525 3      -944.868          37.000  
C10  35504506.121 2 184881267.636 5      -786.293          33.000    35504500.806 1 142961906.512 2      -606.958          40.000  
C11  22447342.870 1 116889216.901 2      1235.106          40.000    22447335.182 1  90386115.548 1       955.442          44.000  
C12  23026702.765 1 119906086.902 2     -1700.577          40.000    23026696.658 1  92718965.254 1     -1315.052          45.000  
C19  21873383.227 1 113900441.819 2      1332.129          42.000                                                                  
C20  21331432.535 1 111078369.560 1     -1731.106          44.000                                                                  
R06  18275657.413 2  97522408.787 3     -2982.521          37.000                                                                  
R09  20496587.029 1 109450620.923 2      3566.951          41.000    20496571.606 1  85128206.400 2      2774.010          41.000  
R23  21267533.790 2 113767006.477 6     -3866.648          32.000                                                                  
R15  18504976.930 2  98884968.336 4     -3409.945          37.000    18504960.373 2  76910477.068 3     -2651.392          38.000  
R24  19610693.316 1 104867202.880 2     -1029.770          42.000    19610687.035 2  81563316.304 3      -800.141          37.000  
R17  19968147.346 1 106853576.192 2      2748.356          39.000    19968134.003 1  83108293.021 2      2136.399          42.000  
G19  22484919.343 2 118159121.236 4      3515.137          34.000                                                                  
G21  22376557.887 1 117589605.422 2       509.927          37.000                                                                  
G23  20624638.737 1 108383208.078 1      -868.972          43.000    20624631.058 1  84454393.496 2      -677.372          41.000  
G24  20123619.337 1 105750333.663 2      2769.801          42.000    20123614.031 1  82402839.913 1      2157.706          42.000  
S23  37694988.851 1 198088495.765 2      -400.762          40.000  
C23  20349630.168 1 105965866.843 1     -1824.731          43.000                                                                  
C25  23893639.015 1 124420447.354 2     -3651.561          41.000                                                                  
R08  21741791.430 1 116426291.333 2      3881.110          40.000    21741772.104 2  90553728.392 4      3018.732          37.000  
R07  18391543.308 1  98451349.778 1      1370.280          45.000    18391530.463 1  76573243.380 1      1065.876          43.000  
E03  22238432.047 1 116863752.775 1        39.103          44.000    22238437.997 1  89544973.353 1        30.155          47.000  
E05  23003711.786 1 120885314.058 2     -2815.961          39.000    23003717.055 1  92626435.453 1     -2157.810          46.000  
E08  23321112.709 1 122553254.450 2      2387.554          42.000    23321116.112 1  93904468.860 1      1829.333          45.000  
E33  25251799.797 8 132699141.828 7      1686.306          28.000    25251806.052 1 101678555.619 5      1290.934          34.000  
E24  21782337.025 1 114466953.393 1      -622.111          45.000    21782339.439 1  87708455.602 1      -476.569          47.000  
E25  23419381.114 1 123069684.449 2      2178.490          41.000    23419387.937 1  94300167.907 1      1669.494          44.000  
E26  24937646.560 1 131048196.481 2      -730.570          40.000    24937648.784 1 100413576.569 6      -559.762          31.000  
E31  23979869.211 1 126015045.996 3     -2961.751          37.000    23979872.910 1  96557009.082 4     -2269.393          37.000  
G08  23323804.805 1 122567403.955 1     -3800.947          43.000    23323780.652 2  95506956.113 4     -2962.287          33.000  
G28  18722751.112 1  98388718.863 1      -324.884          43.000                                                                  
G01                                                                  22573270.964 9               9      2017.158          25.000  
> 2021 12 15 13 51 15.9930000  0 38                     
G30  21723774.781 4 114159206.85936     -3844.793          33.000    21723764.319 1  88955184.522 2     -2996.582          40.000  
G10  21694731.291 1 114006579.308 2      1400.427          43.000    21694726.042 1  88836274.638 3      1091.083          37.000  
G13  19160601.906 1 100689637.061 2     -2868.104          42.000                                                                  
G14  18922135.361 1  99436488.891 1     -1661.924          45.000    18922127.811 1  77482950.605 1     -1295.060          44.000  
G15  18802318.604 1  98806851.187 1     -1556.714          45.000    18802311.054 1  76992318.848 2     -1213.342          42.000  
G17  20805758.131 8 109335011.319 8      2207.756          29.000    20805747.589 1  85196059.579 2      1720.926          38.000  
C07  36197853.644 1 188491717.376 4     -1221.466          34.000    36197841.360 1 145753708.920 3      -944.354          38.000  
C10  35504656.603 2 184882051.761 5      -784.382          32.000    35504651.379 1 142962512.949 2      -606.734          40.000  
C11  22447105.574 1 116887981.218 2      1235.199          43.000    22447097.862 1  90385160.043 1       955.146          45.000  
C12  23027029.445 1 119907787.755 2     -1701.190          39.000    23027023.274 1  92720280.469 1     -1315.687          44.000  
C19  21873127.453 1 113899109.610 2      1331.818          42.000                                                                  
C20  21331765.096 1 111080101.599 1     -1732.403          44.000                                                                  
R06  18276216.509 2  97525391.880 3     -2983.737          37.000                                                                  
R09  20495919.195 1 109447054.372 1      3566.072          42.000    20495903.695 1  85125432.428 2      2773.711          41.000  
R23  21268257.145 4 113770874.647 8     -3868.499          27.000                                                                  
R15  18505614.795 2  98888376.798 4     -3408.726          35.000    18505598.243 1  76913128.178 3     -2651.440          39.000  
R24  19610885.993 1 104868233.038 2     -1030.949          41.000    19610879.334 2  81564117.564 3      -802.187          36.000  
R17  19967633.916 2 106850829.138 3      2746.482          35.000    19967620.588 1  83106156.340 2      2136.414          42.000  
G19  22484250.585 2 118155607.229 4      3513.308          34.000                                                                  
G21  22376460.879 1 117589095.613 3       509.481          36.000                                                                  
G23  20624804.321 1 108384077.613 1      -870.083          43.000    20624796.583 1  84455071.047 2      -678.013          40.000  
G24  20123092.447 1 105747564.658 1      2768.488          43.000    20123087.123 1  82400682.220 1      2157.421          42.000  
S23  37695065.174 1 198088897.007 2      -401.615          40.000  
C23  20349980.554 1 105967691.684 2     -1825.279          41.000                                                                  
C25  23894340.242 1 124424099.140 2     -3652.011          42.000                                                                  
R08  21741066.800 1 116422410.849 2      3880.133          40.000    21741047.565 2  90550710.242 4      3017.816          34.000  
R07  18391287.449 1  98449980.049 1      1369.042          44.000    18391274.585 1  76572178.023 1      1064.787          43.000  
E03  22238424.772 1 116863714.187 1        38.114          44.000    22238430.568 1  89544943.789 1        29.121          47.000  
E05  23004247.773 1 120888130.826 2     -2817.196          39.000    23004253.004 1  92628593.757 1     -2158.539          46.000  
E08  23320658.337 1 122550867.357 2      2386.591          42.000    23320661.759 1  93902639.791 1      1828.794          45.000  
E33  25251479.768 8               9      1685.423          27.000    25251485.402 1 101677263.884 4      1291.634          35.000  
E24  21782455.413 1 114467576.160 1      -623.156          45.000    21782457.967 1  87708932.794 1      -477.517          47.000  
E25  23418966.502 1 123067505.937 2      2177.974          41.000    23418973.430 1  94298498.672 1      1668.972          44.000  
E26  24937785.429 1 131048926.840 2      -730.910          40.000    24937787.623 1 100414136.253 6      -559.785          31.000  
E31  23980432.343 1 126018006.666 4     -2961.064          36.000    23980436.443 1  96559277.645 3     -2268.896          38.000  
G08  23324528.098 1 122571205.103 1     -3801.486          43.000    23324504.113 2  95509917.982 5     -2962.060          32.000  
G28  18722812.985 1  98389044.090 2      -325.775          43.000                                                                  
G01                                                                  22572780.031 8               9      2015.906          25.000  
> 2021 12 15 13 51 16.9930000  0 38                     
G10  21694464.999 1 114005179.685 2      1399.200          42.000    21694459.784 1  88835184.029 3      1089.874          38.000  
G13  19161147.697 1 100692505.649 2     -2869.082          42.000                                                                  
G14  18922451.773 1  99438151.497 1     -1663.247          44.000    18922444.196 1  77484246.181 1     -1296.065          44.000  
G15  18802614.968 1  98808408.530 1     -1558.112          45.000    18802607.507 1  76993532.331 2     -1213.922          42.000  
G17  20805337.195 4               9      2207.626          36.000    20805327.478 1  85194338.943 2      1720.319          39.000  
C07  36198088.209 2 188492939.094 5     -1222.335          34.000    36198075.986 1 145754653.652 3      -945.070          35.000  
C10  35504807.265 1 184882836.635 4      -784.988          35.000    35504802.081 1 142963119.794 2      -607.242          41.000  
C11  22446868.316 1 116886746.503 2      1234.048          41.000    22446860.715 1  90384205.299 1       954.225          45.000  
C12  23027356.335 1 119909489.573 2     -1702.340          38.000    23027350.029 1  92721596.401 1     -1316.420          43.000  
C19  21872871.629 1 113897778.405 2      1330.481          43.000                                                                  
C20  21332097.662 1 111081834.685 2     -1733.793          44.000                                                                  
R06  18276775.797 2  97528376.214 3     -2984.827          37.000                                                                  
R09  20495251.537 1 109443488.546 2      3565.278          42.000    20495235.894 1  85122658.991 2      2773.272          41.000  
R23  21268980.191 4 113774743.836 7     -3870.014          27.000                                                                  
R15  18506252.689 2  98891786.276 2     -3410.202          41.000    18506236.348 1  76915779.914 2     -2652.328          39.000  
R24  19611079.007 1 104869264.657 2     -1032.329          41.000    19611072.031 2  81564919.948 4      -802.818          36.000  
R17  19967120.718 2 106848083.028 2      2745.644          41.000    19967107.416 1  83104020.467 2      2135.263          43.000  
G19  22483581.862 2 118152093.682 5      3513.205          33.000                                                                  
G21  22376364.247 1 117588586.844 4       508.008          32.000                                                                  
G23  20624970.088 1 108384948.320 1      -871.516          44.000    20624962.251 1  84455749.502 2      -678.878          41.000  
G24  20122565.676 1 105744796.441 1      2767.695          43.000    20122560.399 1  82398525.178 1      2156.547          42.000  
S23  37695141.494 1 198089298.764 3      -402.451          38.000  
C23  20350331.070 1 105969517.387 1     -1826.402          43.000                                                                  
C25  23895041.578 1 124427751.383 2     -3652.902          42.000                                                                  
R08  21740342.222 1 116418531.051 2      3879.102          41.000    21740322.960 2  90547692.710 5      3016.474          33.000  
R07  18391031.923 1  98448611.613 1      1367.673          44.000    18391018.958 1  76571113.683 1      1063.595          43.000  
E03  22238417.766 1 116863676.497 1        37.218          44.000    22238423.211 1  89544914.918 1        28.500          47.000  
E05  23004783.912 1 120890948.320 3     -2818.029          38.000    23004789.079 1  92630752.636 1     -2159.162          46.000  
E08  23320204.285 1 122548480.890 2      2386.075          42.000    23320207.532 1  93900811.189 1      1828.359          45.000  
E33  25251165.288 8 132695768.25917      1683.912          28.000    25251164.705 1 101675972.761 3      1290.483          36.000  
E24  21782573.846 1 114468199.807 1      -624.094          45.000    21782576.620 1  87709410.647 1      -478.303          47.000  
E25  23418552.081 1 123065328.113 2      2177.392          41.000    23418558.934 1  94296829.955 1      1668.541          45.000  
E26  24937924.665 1 131049658.181 2      -732.176          38.000    24937926.934 4               9      -558.840          24.000  
E31  23980995.680 1 126020968.004 2     -2961.931          39.000    23981000.317 1  96561546.656 2     -2269.440          40.000  
G08  23325251.552 1 122575006.960 2     -3802.274          43.000    23325227.507 2  95512880.516 6     -2961.499          31.000  
G28  18722875.041 1  98389370.404 2      -327.094          42.000                                                                  
G01                                                                  22572288.265 9               9      2016.865          25.000  
G30                                                                  21724496.241 1  88958181.303 2     -2997.168          42.000  
> 2021 12 15 13 51 17.9930000  0 38                     
G10  21694198.933 1 114003781.009 3      1397.711          39.000    21694193.670 1  88834094.218 3      1089.380          36.000  
G13  19161693.729 1 100695375.138 2     -2870.412          41.000                                                                  
G14  18922768.252 1  99439815.117 1     -1664.388          44.000    18922760.904 1  77485542.483 1     -1296.989          45.000  
G15  18802911.537 1  98809966.946 1     -1559.351          45.000    18802904.055 1  76994746.683 2     -1214.948          42.000  
G17  20804917.202 4               9      2205.820          27.000    20804907.456 1  85192618.913 2      1719.756          39.000  
C07  36198322.917 1 188494161.421 4     -1222.634          35.000    36198310.776 1 145755598.876 4      -945.767          35.000  
C10  35504958.090 1 184883621.954 3      -785.587          36.000    35504952.917 1 142963727.072 2      -607.725          41.000  
C11  22446631.345 1 116885512.750 2      1233.027          39.000    22446623.751 1  90383251.296 1       953.417          45.000  
C12  23027683.378 1 119911192.321 3     -1703.233          39.000    23027677.006 1  92722913.084 1     -1317.366          43.000  
C19  21872616.129 1 113896448.088 2      1329.242          43.000                                                                  
C20  21332430.655 1 111083568.669 1     -1734.696          44.000                                                                  
R06  18277335.332 2  97531361.713 3     -2986.360          37.000                                                                  
R09  20494583.851 1 109439923.301 2      3564.758          42.000    20494568.243 1  85119886.038 2      2772.653          41.000  
R23  21269702.075 8 113778563.04737     -3871.135          27.000                                                                  
R15  18506890.728 1  98895196.554 2     -3411.107          42.000    18506874.551 1  76918432.373 2     -2653.191          39.000  
R24  19611272.280 1 104870297.520 2     -1033.688          40.000    19611264.998 2  81565723.270 4      -803.890          35.000  
R17  19966607.703 1 106845337.972 2      2744.323          41.000    19966594.374 1  83101885.483 1      2134.051          43.000  
G19  22482913.349 2 118148580.682 6      3512.129          33.000                                                                  
G21  22376267.732 2 117588078.991 5       507.312          33.000                                                                  
G23  20625136.089 1 108385820.101 1      -872.294          44.000    20625128.101 1  84456428.820 2      -680.010          41.000  
G24  20122038.997 1 105742028.945 1      2767.135          43.000    20122033.726 1  82396368.688 2      2155.997          42.000  
S23  37695217.967 1 198089700.781 3      -402.913          40.000  
C23  20350681.719 1 105971343.904 2     -1826.831          42.000                                                                  
C25  23895743.039 1 124431404.135 2     -3653.221          40.000                                                                  
R08  21739617.832 1 116414651.863 2      3878.626          40.000    21739598.533 2  90544675.539 5      3016.767          34.000  
R07  18390776.494 1  98447244.434 1      1366.372          44.000    18390763.537 1  76570050.310 1      1062.764          43.000  
G01  22571734.834 9               9      2581.650          23.000    22571796.817 9               9      2010.587          23.000  
E03  22238410.792 1 116863639.677 1        36.147          44.000    22238416.237 1  89544886.702 1        27.635          47.000  
E05  23005320.234 1 120893766.605 3     -2819.218          38.000    23005325.461 1  92632912.071 1     -2159.903          46.000  
E08  23319750.281 1 122546095.044 2      2385.276          41.000    23319753.473 1  93898983.043 1      1827.861          45.000  
E33  25250854.391 8 132694084.144 7      1683.890          29.000    25250844.424 1 101674682.333 3      1289.860          36.000  
E24  21782692.809 1 114468824.246 1      -625.024          44.000    21782695.393 1  87709889.114 1      -478.939          47.000  
E25  23418137.583 1 123063150.957 2      2176.511          41.000    23418144.412 1  94295161.722 1      1667.657          45.000  
E26  24938063.851 1 131050390.416 2      -732.909          41.000    24938067.626 4 100415263.64516      -562.117          31.000  
E31  23981559.132 1 126023929.990 2     -2962.506          40.000    23981564.051 1  96563816.209 2     -2269.584          40.000  
G08  23325975.306 1 122578809.549 2     -3803.417          41.000    23325951.658 2  95515843.577 5     -2963.012          33.000  
G28  18722937.355 1  98389697.670 2      -328.003          42.000                                                                  
G30                                                                  21725228.150 1  88961178.463 2     -2997.546          43.000  
> 2021 12 15 13 51 18.9930000  0 38                     
G10  21693933.019 1 114002383.171 3      1397.565          39.000    21693927.654 1  88833004.968 3      1088.861          37.000  
G13  19162239.897 1 100698245.347 2     -2870.642          42.000                                                                  
G14  18923085.005 1  99441479.513 1     -1664.906          45.000    18923077.628 1  77486839.408 1     -1297.279          45.000  
G15  18803208.281 1  98811526.235 1     -1559.753          45.000    18803200.754 1  76995961.741 2     -1215.643          42.000  
C07  36198557.746 1 188495384.053 4     -1222.411          34.000    36198545.641 1 145756544.316 3      -945.602          36.000  
C10  35505108.946 1 184884407.590 3      -785.900          36.000    35505103.846 1 142964334.584 1      -607.751          41.000  
C11  22446394.530 1 116884279.720 2      1232.473          39.000    22446386.894 1  90382297.846 1       952.985          45.000  
C12  23028010.658 1 119912895.919 3     -1704.398          38.000    23028004.195 1  92724230.380 1     -1317.628          43.000  
C19  21872360.630 1 113895118.473 2      1329.260          43.000                                                                  
C20  21332763.634 1 111085303.423 1     -1735.322          45.000                                                                  
R06  18277894.974 2  97534348.190 3     -2987.322          36.000                                                                  
R09  20493916.276 1 109436358.497 1      3564.525          42.000    20493900.766 1  85117113.427 2      2772.250          41.000  
R23  21270423.438 8 113782422.49827     -3871.465          28.000                                                                  
R15  18507528.839 1  98898607.508 2     -3411.370          42.000    18507512.961 1  76921085.346 2     -2653.333          39.000  
R24  19611465.783 1 104871331.566 2     -1034.330          40.000    19611458.226 2  81566527.532 3      -804.929          36.000  
R17  19966094.927 1 106842593.823 2      2743.548          41.000    19966081.600 1  83099751.150 1      2133.835          42.000  
G19  22482245.140 2 118145068.047 4      3511.877          32.000                                                                  
G21  22376171.229 1 117587571.878 4       506.622          34.000                                                                  
G23  20625302.208 1 108386692.808 1      -873.201          44.000    20625294.075 1  84457108.848 2      -680.404          41.000  
G24  20121512.483 1 105739262.003 1      2766.481          42.000    20121507.160 1  82394212.620 1      2155.744          42.000  
S23  37695294.611 1 198090103.073 2      -402.627          40.000  
C23  20351032.593 1 105973171.041 2     -1827.586          43.000                                                                  
C25  23896444.684 1 124435057.203 2     -3653.446          40.000                                                                  
R08  21738893.506 2 116410773.130 2      3878.510          39.000    21738874.284 2  90541658.761 4      3016.712          35.000  
R07  18390521.320 1  98445878.289 1      1365.638          44.000    18390508.324 1  76568987.756 1      1062.042          43.000  
E03  22238403.842 1 116863603.533 1        35.689          44.000    22238409.506 1  89544858.992 1        27.297          47.000  
E05  23005856.697 1 120896585.327 2     -2819.201          40.000    23005861.695 1  92635071.890 1     -2160.152          46.000  
E08  23319296.243 1 122543709.563 2      2385.162          41.000    23319299.680 1  93897155.240 1      1827.561          45.000  
E33  25250536.937 8 132692400.633 7      1683.004          29.000    25250524.065 1 101673392.332 3      1289.505          36.000  
E24  21782811.693 1 114469449.315 1      -625.494          44.000    21782814.369 1  87710368.076 1      -479.252          48.000  
E25  23417723.619 1 123060974.247 2      2176.352          42.000    23417730.151 1  94293493.853 1      1667.552          45.000  
E26  24938203.485 1 131051123.422 2      -733.417          41.000    24938208.274 4 100415825.255 7      -561.504          30.000  
E31  23982122.933 1 126026892.356 2     -2962.640          39.000    23982127.858 1  96566086.087 2     -2269.975          39.000  
G08  23326698.977 1 122582612.560 2     -3803.409          43.000    23326676.037 2  95518806.977 4     -2963.739          34.000  
G28  18722999.749 1  98390025.688 2      -328.351          42.000                                                                  
G01                                                                  22571305.399 9               9      2012.146          20.000  
G17                                                                  20804487.500 1  85190899.412 2      1719.302          38.000  
G30                                                                  21725960.191 1  88964175.999 1     -2997.876          43.000  
> 2021 12 15 13 51 19.9930000  0 38                     
G10  21693667.269 1 114000986.189 3      1396.539          40.000    21693661.970 1  88831916.406 3      1087.885          37.000  
G13  19162786.284 1 100701116.370 2     -2871.503          41.000                                                                  
G14  18923401.856 1  99443144.801 1     -1665.758          45.000    18923394.461 1  77488137.033 1     -1298.028          45.000  
G15  18803505.239 1  98813086.516 1     -1560.779          45.000    18803497.566 1  76997177.536 1     -1216.217          42.000  
C07  36198792.642 1 188496607.114 4     -1223.442          34.000    36198780.498 1 145757490.037 3      -945.837          36.000  
C10  35505259.858 1 184885193.608 3      -785.466          35.000    35505254.807 1 142964942.404 2      -608.186          41.000  
C11  22446157.940 1 116883047.510 2      1231.478          39.000    22446150.270 1  90381345.009 1       952.568          45.000  
C12  23028337.942 1 119914600.328 3     -1705.115          38.000    23028331.518 1  92725548.332 1     -1318.230          43.000  
C19  21872105.448 1 113893789.648 1      1328.375          43.000                                                                  
C20  21333096.700 1 111087038.999 1     -1736.118          45.000                                                                  
R06  18278454.851 2  97537335.703 3     -2988.027          37.000                                                                  
R09  20493248.925 1 109432794.214 1      3564.019          42.000    20493233.243 2  85114341.197 2      2772.113          41.000  
R23  21271150.783 8 113786294.18126     -3872.216          30.000                                                                  
R15  18508167.156 1  98902019.192 1     -3412.057          43.000    18508151.565 1  76923738.880 2     -2653.737          39.000  
R24  19611659.578 1 104872366.846 2     -1036.093          40.000    19611651.621 2  81567332.735 3      -805.950          36.000  
R17  19965582.312 1 106839850.631 2      2742.689          42.000    19965569.051 1  83097617.546 2      2133.070          42.000  
G19  22481576.992 2 118141555.712 5      3512.867          32.000                                                                  
G21  22376074.969 1 117587065.591 4       505.972          34.000                                                                  
G23  20625468.470 1 108387566.489 1      -874.149          44.000    20625460.314 1  84457789.634 2      -681.162          41.000  
G24  20120986.091 1 105736495.643 2      2765.782          42.000    20120980.673 1  82392057.019 1      2155.430          42.000  
S23  37695371.264 1 198090505.670 2      -402.582          41.000  
C23  20351383.619 1 105974998.847 2     -1828.368          43.000                                                                  
C25  23897146.207 1 124438710.635 2     -3653.616          40.000                                                                  
R08  21738169.236 2 116406894.979 2      3877.942          39.000    21738150.217 2  90538642.439 4      3015.528          36.000  
R07  18390266.379 1  98444513.248 1      1364.402          44.000    18390253.364 1  76567926.066 1      1061.074          43.000  
G01  22570787.726 9               9      2583.931          26.000    22570812.390 9               9      2024.413          17.000  
E03  22238397.406 1 116863568.134 1        35.009          44.000    22238402.762 1  89544831.866 1        26.773          47.000  
E05  23006393.454 1 120899404.681 2     -2819.563          40.000    23006398.166 1  92637232.187 1     -2160.721          46.000  
E08  23318842.210 1 122541324.565 2      2384.925          41.000    23318845.667 1  93895327.794 1      1827.235          45.000  
E33  25250225.819 8 132690717.751 7      1682.515          29.000    25250203.615 1 101672102.834 3      1289.188          36.000  
E24  21782930.896 1 114470075.084 1      -626.130          44.000    21782933.444 1  87710847.570 1      -479.832          48.000  
E25  23417309.417 1 123058798.046 2      2175.999          42.000    23417316.089 1  94291826.378 1      1667.189          45.000  
E26  24938343.264 1 131051857.254 2      -734.121          40.000    24938347.811 4 100416387.598 8      -562.526          29.000  
E31  23982686.537 1 126029855.217 2     -2962.951          39.000    23982691.656 1  96568356.354 2     -2270.481          38.000  
G08  23327422.795 1 122586416.114 1     -3804.076          43.000    23327400.348 2  95521770.790 4     -2964.053          34.000  
G28  18723062.353 1  98390354.618 1      -329.523          42.000                                                                  
G17                                                                  20804067.770 1  85189180.462 3      1718.691          38.000  
G30                                                                  21726692.247 1  88967173.878 1     -2997.913          43.000  
> 2021 12 15 13 51 20.9930000  0 38                     
G10  21693401.675 1 113999590.107 2      1394.702          41.000    21693396.373 1  88830828.545 3      1087.671          37.000  
G13  19163332.840 1 100703988.204 2     -2873.170          40.000                                                                  
G14  18923718.862 1  99444810.991 1     -1666.748          44.000    18923711.490 1  77489435.376 1     -1298.849          45.000  
G15  18803802.363 1  98814647.805 1     -1562.018          44.000    18803794.591 1  76998394.125 1     -1217.084          42.000  
C07  36199027.551 1 188497830.553 4     -1223.365          34.000    36199015.505 1 145758436.106 3      -946.775          36.000  
C10  35505410.889 1 184885980.115 4      -787.293          35.000    35505405.829 1 142965550.553 2      -608.448          41.000  
C11  22445921.454 1 116881816.132 2      1230.822          40.000    22445913.805 1  90380392.838 1       951.631          45.000  
C12  23028665.532 1 119916305.624 2     -1706.204          38.000    23028659.077 1  92726866.957 2     -1318.747          43.000  
C19  21871850.431 1 113892461.696 2      1327.240          40.000                                                                  
C20  21333430.197 1 111088775.459 1     -1736.971          44.000                                                                  
R06  18279014.988 2  97540324.343 3     -2989.254          37.000                                                                  
R09  20492581.670 1 109429230.516 1      3563.202          42.000    20492565.856 1  85111569.434 2      2771.314          41.000  
R23  21271875.698 9 113790190.76737     -3873.567          31.000                                                                  
R15  18508805.613 1  98905431.699 2     -3412.922          42.000    18508790.163 1  76926393.058 2     -2654.290          39.000  
R24  19611853.470 1 104873403.319 2     -1037.188          42.000    19611845.360 2  81568138.866 4      -806.429          34.000  
R17  19965069.855 1 106837108.412 2      2741.601          42.000    19965056.540 1  83095484.697 1      2132.342          42.000  
G19  22480908.784 2 118138043.846 4      3511.828          32.000                                                                  
G21  22375978.815 2 117586560.349 6       504.949          30.000                                                                  
G23  20625635.022 1 108388441.233 1      -875.234          44.000    20625626.796 1  84458471.228 2      -681.923          41.000  
G24  20120459.753 1 105733729.947 1      2765.253          42.000    20120454.383 1  82389901.936 2      2154.763          43.000  
S23  37695447.955 1 198090908.594 2      -402.879          41.000  
C23  20351734.658 1 105976827.368 2     -1828.912          42.000                                                                  
C25  23897847.847 1 124442364.507 2     -3654.486          40.000                                                                  
R08  21737445.147 2 116403017.394 2      3877.307          41.000    21737426.348 2  90535626.502 4      3015.735          35.000  
R07  18390011.698 1  98443149.372 2      1362.948          44.000    18389998.519 1  76566865.287 1      1060.203          43.000  
G01  22570293.544 9               9      2584.222          25.000    22570317.122 9               9      2024.413          11.000  
E03  22238390.907 1 116863533.530 1        34.062          44.000    22238396.042 1  89544805.361 1        26.032          47.000  
E05  23006929.989 1 120902224.701 2     -2820.501          39.000    23006934.885 1  92639392.968 1     -2161.189          46.000  
E08  23318388.659 1 122538940.144 2      2383.993          41.000    23318391.987 1  93893500.751 1      1826.709          45.000  
E33  25249904.358 8 132689035.502 8      1681.586          28.000    25249883.467 1 101670813.900 3      1288.446          36.000  
E24  21783050.163 1 114470701.600 1      -627.015          44.000    21783052.699 1  87711327.624 1      -480.491          48.000  
E25  23416895.282 1 123056622.445 2      2175.189          42.000    23416901.976 1  94290159.345 1      1666.525          45.000  
E26  24938483.127 1 131052591.999 2      -735.811          39.000    24938484.076 4 100416950.570 8      -563.443          28.000  
E31  23983250.337 1 126032818.580 3     -2963.889          38.000    23983255.612 1  96570627.019 3     -2270.988          38.000  
G08  23328146.698 1 122590220.281 2     -3804.819          41.000    23328124.665 2  95524735.098 5     -2964.594          34.000  
G28  18723125.116 1  98390684.452 2      -330.499          42.000                                                                  
G17                                                                  20803648.140 1  85187462.112 3      1717.792          38.000  
G30                                                                  21727424.531 1  88970172.165 2     -2998.670          43.000  
> 2021 12 15 13 51 21.9930000  0 38                     
G10  21693136.249 1 113998195.053 2      1394.354          39.000    21693130.927 1  88829741.508 3      1086.084          37.000  
G13  19163879.499 1 100706860.978 2     -2873.279          41.000                                                                  
G14  18924036.102 1  99446478.195 1     -1667.638          44.000    18924028.790 1  77490734.501 1     -1299.647          44.000  
G15  18804099.705 1  98816210.181 1     -1563.116          45.000    18804091.913 1  76999611.559 2     -1217.950          42.000  
C07  36199262.755 1 188499054.573 5     -1224.399          33.000    36199250.526 1 145759382.500 3      -946.343          36.000  
C10  35505561.943 1 184886767.093 4      -787.366          35.000    35505556.990 1 142966159.135 2      -609.061          40.000  
C11  22445685.191 1 116880585.726 2      1230.044          40.000    22445677.556 1  90379441.402 1       951.049          45.000  
C12  23028993.286 1 119918011.886 2     -1706.881          39.000    23028986.838 1  92728186.386 1     -1319.915          43.000  
C19  21871595.611 1 113891134.654 2      1326.184          42.000                                                                  
C20  21333763.717 1 111090512.913 1     -1738.463          43.000                                                                  
R06  18279575.309 2  97543314.204 3     -2990.468          37.000                                                                  
R09  20491914.438 1 109425667.435 1      3562.487          42.000    20491898.578 1  85108798.190 2      2770.856          41.000  
R23  21272599.197 8 113794064.34626     -3873.759          32.000                                                                  
R15  18509444.412 1  98908845.091 2     -3414.010          41.000    18509428.913 2  76929047.964 3     -2655.484          38.000  
R24  19612047.802 1 104874441.223 2     -1038.602          41.000    19612039.191 2  81568946.113 5      -807.448          33.000  
R17  19964557.609 1 106834367.237 2      2740.681          40.000    19964544.302 1  83093352.693 2      2131.216          42.000  
G19  22480240.597 2 118134532.616 4      3510.642          33.000                                                                  
G21  22375882.991 2 117586055.941 8       503.806          29.000                                                                  
G23  20625801.610 1 108389317.074 1      -876.401          44.000    20625793.534 1  84459153.725 2      -683.082          41.000  
G24  20119933.684 1 105730965.039 2      2764.445          43.000    20119928.135 1  82387747.448 2      2153.952          42.000  
S23  37695524.785 1 198091311.965 2      -403.582          40.000  
C23  20352085.851 1 105978656.737 1     -1830.035          43.000                                                                  
C25  23898549.567 1 124446018.861 2     -3654.894          42.000                                                                  
R08  21736721.126 1 116399140.497 2      3876.398          41.000    21736702.453 2  90532611.113 3      3015.174          35.000  
R07  18389757.072 1  98441786.786 1      1361.932          43.000    18389743.945 1  76565805.484 1      1059.369          43.000  
G01  22569816.877 9               9      2582.316          25.000    22569825.504 9               9      2021.545          11.000  
E03  22238384.671 1 116863499.793 1        33.268          44.000    22238389.656 1  89544779.525 1        25.371          47.000  
E05  23007466.710 1 120905045.405 2     -2820.789          38.000    23007471.543 1  92641554.314 1     -2161.613          45.000  
E08  23317935.093 1 122536556.315 2      2383.514          42.000    23317938.514 1  93891674.176 1      1826.349          45.000  
E33  25249581.296 8 132687354.135 6      1680.745          30.000    25249563.451 1 101669525.553 3      1287.953          35.000  
E24  21783169.432 1 114471328.953 1      -627.935          44.000    21783172.151 1  87711808.330 1      -481.141          47.000  
E25  23416481.293 1 123054447.469 2      2174.176          42.000    23416488.005 1  94288492.826 1      1666.206          45.000  
E26  24938623.459 1 131053327.651 2      -736.276          39.000    24938622.363 2 100417514.264 8      -563.991          28.000  
E31  23983814.411 1 126035782.626 3     -2964.420          37.000    23983819.258 1  96572898.155 3     -2271.280          38.000  
G08  23328870.587 1 122594025.095 2     -3805.332          42.000    23328849.576 2  95527699.871 4     -2965.254          34.000  
G28  18723188.132 1  98391015.278 2      -331.598          42.000                                                                  
G17                                                                  20803228.677 1  85185744.435 2      1717.319          38.000  
G30                                                                  21728156.910 1  88973170.913 2     -2999.103          42.000  
> 2021 12 15 13 51 22.9930000  0 38                     
G10  21692870.915 1 113996800.853 2      1393.774          41.000    21692865.659 1  88828655.149 3      1086.017          37.000  
G13  19164426.307 1 100709734.611 2     -2873.824          41.000                                                                  
G14  18924353.532 1  99448146.340 1     -1668.482          45.000    18924346.142 1  77492034.326 1     -1300.084          45.000  
G15  18804397.104 1  98817773.598 1     -1564.008          45.000    18804389.563 1  77000829.803 2     -1218.610          42.000  
G17  20802816.845 9               9      2203.277          26.000    20802809.360 1  85184027.313 2      1716.783          38.000  
C07  36199497.926 1 188500278.852 4     -1224.816          36.000    36199485.637 1 145760329.207 3      -946.839          37.000  
C10  35505713.158 1 184887554.532 3      -787.529          36.000    35505708.204 1 142966767.993 2      -609.170          42.000  
C11  22445449.027 1 116879356.131 2      1229.243          40.000    22445441.367 1  90378490.626 1       950.396          45.000  
C12  23029321.063 1 119919718.980 2     -1707.615          39.000    23029314.675 1  92729506.413 1     -1320.587          43.000  
C19  21871340.822 1 113889808.369 2      1325.690          40.000                                                                  
C20  21334097.390 1 111092251.236 2     -1738.827          43.000                                                                  
R06  18280135.881 2  97546305.095 3     -2991.404          38.000                                                                  
R09  20491247.371 1 109422104.891 1      3562.090          42.000    20491231.387 1  85106027.304 2      2770.592          41.000  
R23  21273322.681 8 113797930.92435     -3874.964          33.000                                                                  
R15  18510083.274 1  98912259.187 2     -3414.394          43.000    18510067.888 2  76931703.349 2     -2655.616          40.000  
R24  19612242.276 1 104875480.341 2     -1039.211          40.000    19612233.440 4  81569754.447 6      -809.096          31.000  
R17  19964045.527 1 106831627.049 2      2739.732          41.000    19964032.238 1  83091221.390 2      2130.946          42.000  
G19  22479572.501 2 118131021.716 4      3510.652          33.000                                                                  
G21  22375786.912 2 117585552.463 6       503.165          31.000                                                                  
G23  20625968.556 1 108390193.905 1      -877.435          44.000    20625960.295 1  84459836.976 2      -683.571          42.000  
G24  20119407.698 1 105728200.733 1      2763.947          43.000    20119402.108 1  82385593.449 2      2153.771          42.000  
S23  37695601.602 1 198091715.608 2      -403.687          40.000  
C23  20352437.247 1 105980486.820 2     -1830.312          41.000                                                                  
C25  23899251.519 1 124449673.639 2     -3654.953          42.000                                                                  
R08  21735997.201 1 116395264.104 2      3876.385          41.000    21735978.685 2  90529596.153 4      3014.948          34.000  
R07  18389502.670 1  98440425.367 1      1360.794          44.000    18389489.552 1  76564746.610 1      1058.316          43.000  
G01  22569335.207 9               9      2583.125          25.000    22569330.964 9               9      2014.208          18.000  
E03  22238378.264 1 116863466.876 1        32.353          44.000    22238383.248 1  89544754.274 1        24.861          47.000  
E05  23008003.676 1 120907866.800 2     -2821.559          39.000    23008008.409 1  92643716.128 1     -2162.026          46.000  
E08  23317481.519 1 122534172.986 2      2383.161          41.000    23317484.871 1  93889847.992 1      1826.049          45.000  
E33  25249250.428 4 132685673.348 6      1680.642          31.000    25249243.760 1 101668237.756 3      1287.354          36.000  
E24  21783288.930 1 114471957.015 1      -628.399          44.000    21783291.704 1  87712289.581 1      -481.479          47.000  
E25  23416067.324 1 123052273.061 2      2174.063          41.000    23416074.410 1  94286826.733 1      1665.966          45.000  
E26  24938763.999 1 131054064.164 2      -737.008          39.000    24938765.604 2 100418078.557 6      -564.604          34.000  
E31  23984378.288 1 126038747.184 2     -2965.124          39.000    23984383.183 1  96575169.651 2     -2271.580          39.000  
G08  23329594.713 1 122597830.534 2     -3805.761          42.000    23329574.520 2  95530665.093 3     -2965.276          35.000  
G28  18723251.293 1  98391346.996 1      -332.257          43.000                                                                  
G30                                                                  21728889.310 1  88976170.071 2     -2999.292          41.000  
> 2021 12 15 13 51 23.9930000  0 38                     
G10  21692605.825 1 113995407.646 2      1392.822          41.000    21692600.534 1  88827569.501 3      1085.602          37.000  
G13  19164973.311 1 100712609.103 2     -2875.394          41.000                                                                  
G14  18924671.123 1  99449815.380 1     -1669.634          45.000    18924663.698 1  77493334.897 1     -1300.902          45.000  
G15  18804694.794 1  98819338.024 1     -1564.941          45.000    18804687.324 1  77002048.846 2     -1219.708          42.000  
C07  36199733.208 1 188501503.603 4     -1225.337          33.000    36199720.898 1 145761276.334 3      -947.147          37.000  
C10  35505864.684 1 184888342.368 3      -787.952          35.000    35505859.465 1 142967377.227 2      -609.306          41.000  
C11  22445213.118 1 116878127.425 3      1228.376          39.000    22445205.395 1  90377540.497 1       949.670          45.000  
C12  23029649.223 1 119921427.032 2     -1708.426          39.000    23029642.759 1  92730827.183 1     -1321.044          43.000  
C19  21871086.224 1 113888482.957 2      1324.756          40.000                                                                  
C20  21334431.364 1 111093990.398 2     -1739.916          42.000                                                                  
R06  18280696.631 2  97549297.163 2     -2992.558          38.000                                                                  
R09  20490580.439 1 109418542.946 2      3561.829          42.000    20490564.479 1  85103256.913 2      2770.419          41.000  
R23  21274047.598 8 113801806.37325     -3876.332          33.000                                                                  
R15  18510722.252 1  98915674.103 2     -3415.560          41.000    18510707.039 1  76934359.410 2     -2656.267          39.000  
R24  19612436.957 1 104876520.847 2     -1041.209          42.000    19612427.731 4  81570563.615 6      -809.760          31.000  
R17  19963533.596 1 106828887.814 2      2738.513          41.000    19963520.373 1  83089090.914 2      2129.921          42.000  
G19  22478904.538 2 118127511.297 4      3510.211          33.000                                                                  
G21  22375691.066 2 117585049.802 6       501.847          31.000                                                                  
G23  20626135.655 1 108391071.823 2      -878.174          43.000    20626127.329 1  84460521.073 2      -684.727          42.000  
G24  20118881.859 1 105725437.169 2      2762.948          44.000    20118876.092 1  82383440.006 2      2153.177          42.000  
S23  37695678.473 1 198092119.591 2      -404.483          40.000  
C23  20352788.759 1 105982317.651 1     -1831.408          42.000                                                                  
C25  23899953.536 1 124453328.809 2     -3655.764          39.000                                                                  
R08  21735273.362 1 116391388.409 2      3875.262          41.000    21735255.068 2  90526581.733 4      3014.160          35.000  
R07  18389248.605 1  98439065.176 1      1359.268          44.000    18389235.600 1  76563688.665 1      1057.458          43.000  
G01  22568843.928 9               9      2582.885          25.000    22568836.759 9               9      2025.642          22.000  
E03  22238372.253 1 116863434.738 2        31.509          44.000    22238377.115 1  89544729.652 1        24.117          47.000  
E05  23008540.576 1 120910688.813 2     -2822.419          38.000    23008545.407 1  92645878.474 1     -2162.808          46.000  
E08  23317028.101 1 122531790.232 2      2382.086          41.000    23317031.384 1  93888022.258 1      1825.140          45.000  
E33  25248928.734 4 132683993.549 6      1678.404          31.000    25248924.088 1 101666950.633 3      1286.523          36.000  
E24  21783408.620 1 114472585.884 1      -629.408          44.000    21783411.136 1  87712771.439 1      -482.405          47.000  
E25  23415653.692 1 123050099.214 2      2173.388          41.000    23415660.686 1  94285161.103 1      1665.216          45.000  
E26  24938904.533 1 131054801.473 2      -737.868          39.000    24938905.802 2 100418643.551 5      -565.449          33.000  
E31  23984942.723 1 126041712.196 3     -2965.231          37.000    23984947.524 1  96577441.602 2     -2272.129          38.000  
G08  23330318.964 1 122601636.562 2     -3806.774          41.000    23330299.602 2  95533630.869 3     -2966.246          35.000  
G28  18723314.559 1  98391679.650 2      -333.435          43.000                                                                  
G17                                                                  20802390.286 1  85182310.813 3      1715.596          38.000  
G30                                                                  21729621.728 1  88979169.605 2     -2999.872          42.000  
> 2021 12 15 13 51 24.9930000  0 38                     
G10  21692340.893 1 113994015.250 2      1392.133          38.000    21692335.616 1  88826484.523 2      1084.790          39.000  
G13  19165520.423 1 100715484.301 2     -2875.636          39.000                                                                  
G14  18924988.926 1  99451485.251 1     -1670.019          44.000    18924981.440 1  77494636.096 1     -1301.058          44.000  
G15  18804992.676 1  98820903.344 1     -1565.503          45.000    18804985.244 1  77003268.558 2     -1219.904          42.000  
C07  36199968.446 1 188502728.646 5     -1224.564          34.000    36199956.066 1 145762223.580 3      -947.197          36.000  
C10  35506016.110 1 184889130.577 3      -788.282          35.000    35506010.789 1 142967986.680 2      -609.502          41.000  
C11  22444977.390 1 116876899.437 2      1227.446          41.000    22444969.516 1  90376590.926 1       949.347          44.000  
C12  23029977.452 1 119923135.851 2     -1708.947          38.000    23029971.001 1  92732148.562 1     -1321.574          43.000  
C19  21870831.805 1 113887158.316 2      1324.646          42.000                                                                  
C20  21334765.523 1 111095730.392 1     -1740.240          45.000                                                                  
R06  18281257.463 2  97552290.140 3     -2992.887          38.000                                                                  
R09  20489913.519 1 109414981.432 2      3561.470          42.000    20489897.518 1  85100486.824 2      2770.373          41.000  
R23  21274773.342 8 113805682.03114     -3876.228          34.000                                                                  
R15  18511361.397 1  98919089.639 2     -3415.772          40.000    18511346.087 1  76937015.919 2     -2656.456          39.000  
R24  19612631.793 1 104877562.485 2     -1041.799          42.000    19612622.221 4  81571373.859 6      -810.075          32.000  
R17  19963021.947 1 106826149.489 2      2738.647          40.000    19963008.735 1  83086961.092 2      2129.752          42.000  
G19  22478236.661 2 118124001.231 5      3509.695          33.000                                                                  
G21  22375595.097 4               9       501.175          23.000                                                                  
G23  20626302.871 1 108391950.640 1      -879.005          43.000    20626294.408 1  84461205.857 2      -684.935          40.000  
G24  20118356.052 1 105722674.091 2      2762.955          43.000    20118350.296 1  82381286.991 1      2153.025          42.000  
S23  37695755.357 1 198092523.808 2      -403.793          41.000  
C23  20353140.484 1 105984149.062 2     -1831.711          42.000                                                                  
C25  23900655.641 1 124456984.277 2     -3655.599          40.000                                                                  
R08  21734549.724 1 116387513.142 2      3875.293          42.000    21734531.683 2  90523567.636 3      3014.240          35.000  
R07  18388994.663 1  98437706.008 1      1358.862          44.000    18388981.621 1  76562631.543 1      1056.830          43.000  
G01  22568356.925 9 118597515.60138      2582.117          26.000    22568342.963 9               9      2004.097          24.000  
E03  22238366.286 1 116863403.248 2        31.403          44.000    22238371.330 1  89544705.544 1        23.830          48.000  
E05  23009077.625 1 120913511.378 2     -2822.059          38.000    23009082.620 1  92648041.211 1     -2162.877          46.000  
E08  23316574.792 1 122529407.874 2      2382.429          42.000    23316578.163 1  93886196.804 1      1825.493          44.000  
E33  25248611.977 4 132682314.227 5      1678.563          31.000    25248604.616 1 101665663.812 3      1286.792          36.000  
E24  21783528.315 1 114473215.360 1      -629.567          44.000    21783531.086 1  87713253.743 1      -482.319          48.000  
E25  23415240.379 1 123047925.904 2      2173.046          40.000    23415246.962 1  94283495.775 1      1665.323          44.000  
E26  24939045.156 1 131055539.587 2      -738.267          39.000    24939044.564 2 100419209.183 6      -566.516          27.000  
E31  23985507.070 1 126044677.671 2     -2965.462          38.000    23985511.704 1  96579713.863 3     -2272.402          37.000  
G08  23331043.224 1 122605443.039 2     -3806.327          41.000    23331024.863 2  95536596.991 3     -2966.518          35.000  
G28  18723378.048 1  98392013.069 2      -333.813          42.000                                                                  
G17                                                                  20801971.256 1  85180594.747 2      1716.100          39.000  
G30                                                                  21730354.376 1  88982169.469 2     -2999.701          42.000  
> 2021 12 15 13 51 25.9930000  0 39                     
G10  21692076.153 1 113992623.679 2      1390.985          42.000    21692070.805 1  88825400.163 2      1084.143          38.000  
G13  19166067.763 1 100718360.254 2     -2876.433          42.000                                                                  
G14  18925306.792 1  99453155.956 1     -1671.084          44.000    18925299.224 1  77495937.930 1     -1301.966          44.000  
G15  18805290.716 1  98822469.605 1     -1566.913          45.000    18805283.388 1  77004489.009 1     -1221.100          42.000  
C07  36200203.929 1 188503954.129 5     -1225.128          33.000    36200191.452 1 145763171.173 3      -947.795          38.000  
C10  35506167.583 1 184889919.077 3      -788.916          34.000    35506162.215 1 142968596.431 2      -609.826          40.000  
C11  22444741.770 1 116875672.239 2      1226.676          41.000    22444733.781 1  90375641.995 1       948.529          45.000  
C12  23030305.778 1 119924845.451 2     -1710.307          39.000    23030299.329 1  92733470.510 1     -1322.298          43.000  
C19  21870577.470 1 113885834.366 2      1323.492          42.000                                                                  
C20  21335099.817 1 111097471.136 2     -1741.323          44.000                                                                  
R06  18281818.648 2  97555284.172 3     -2994.672          38.000                                                                  
R09  20489246.673 1 109411420.402 2      3560.581          42.000    20489230.649 1  85097717.136 2      2769.415          41.000  
R23  21275498.321 8 113809559.110 6     -3878.001          30.000                                                                  
R15  18512000.647 1  98922505.897 2     -3416.641          40.000    18511985.472 1  76939673.046 2     -2657.534          40.000  
R24  19612826.896 1 104878605.283 2     -1043.189          41.000    19612817.092 4  81572184.941 7      -812.926          30.000  
R17  19962510.338 1 106823412.051 2      2736.997          39.000    19962497.233 1  83084831.992 2      2128.842          42.000  
G19  22477568.783 2 118120491.505 4      3509.836          33.000                                                                  
G21  22375499.422 4 117584046.796 7       501.340          30.000                                                                  
G23  20626470.288 1 108392830.435 1      -880.433          43.000    20626461.843 1  84461891.394 2      -685.938          41.000  
G24  20117830.452 1 105719911.615 1      2762.309          43.000    20117824.567 1  82379134.413 1      2152.309          42.000  
S23  37695832.343 1 198092928.314 2      -404.695          40.000  
C23  20353492.314 1 105985981.171 1     -1832.388          42.000                                                                  
C25  23901357.666 1 124460640.111 2     -3656.127          41.000                                                                  
R08  21733826.127 1 116383638.431 2      3874.445          41.000    21733808.278 2  90520553.992 4      3013.367          35.000  
R07  18388740.927 1  98436347.898 1      1357.641          44.000    18388727.869 1  76561575.213 1      1056.141          43.000  
G01  22567866.682 8               9      2580.594          26.000    22567849.758 9               9      2011.541          25.000  
E03  22238360.544 1 116863372.516 1        30.447          45.000    22238365.583 1  89544681.995 1        23.300          47.000  
E05  23009614.845 1 120916334.511 2     -2823.531          40.000    23009619.739 1  92650204.361 1     -2163.423          45.000  
E08  23316121.342 1 122527025.954 2      2381.723          42.000    23316124.993 1  93884371.708 1      1824.901          45.000  
E33  25248292.587 4 132680635.453 6      1678.767          31.000    25248285.129 1 101664377.539 3      1286.030          36.000  
E24  21783648.254 1 114473845.497 1      -630.547          44.000    21783650.974 1  87713736.580 1      -483.046          48.000  
E25  23414826.709 1 123045753.007 2      2172.567          41.000    23414833.522 1  94281830.870 1      1664.777          44.000  
E26  24939185.947 1 131056278.512 2      -739.325          40.000    24939184.781 2 100419775.357 7      -566.514          28.000  
E31  23986071.526 1 126047643.662 3     -2966.614          37.000    23986076.012 1  96581986.467 3     -2272.409          37.000  
J03  40804420.244 8               9      -349.183          26.000                                                                  
G08  23331767.657 1 122609250.069 2     -3807.234          41.000    23331750.070 2  95539563.450 3     -2966.405          35.000  
G28  18723441.693 1  98392347.310 1      -334.631          42.000                                                                  
G17                                                                  20801552.336 1  85178879.301 3      1715.002          39.000  
G30                                                                  21731087.044 1  88985169.674 2     -3000.372          42.000  
> 2021 12 15 13 51 26.9930000  0 38                     
G30  21731851.258 9 114201648.67937     -3850.824          33.000    21731819.958 1  88988170.271 2     -3000.861          40.000  
G10  21691811.610 1 113991233.005 2      1390.405          41.000    21691806.345 1  88824316.495 2      1083.978          38.000  
G13  19166615.247 1 100721237.085 2     -2877.167          41.000                                                                  
G14  18925624.828 1  99454827.580 1     -1672.143          44.000    18925617.280 1  77497240.514 1     -1302.976          43.000  
G15  18805588.982 1  98824036.833 1     -1567.724          46.000    18805581.691 1  77005710.250 1     -1221.704          42.000  
G17  20801140.035 8 109310728.35638      2200.393          29.000    20801133.602 1  85177164.375 2      1714.558          39.000  
C07  36200439.281 1 188505179.947 4     -1225.738          34.000    36200426.960 1 145764119.059 2      -948.199          39.000  
C10  35506318.998 1 184890708.119 4      -789.213          33.000    35506313.755 1 142969206.508 2      -610.090          40.000  
C11  22444506.215 1 116874445.909 2      1225.869          41.000    22444498.301 1  90374693.722 1       947.875          45.000  
C12  23030634.379 1 119926555.957 2     -1710.605          39.000    23030627.864 1  92734793.187 1     -1323.208          42.000  
C19  21870323.283 1 113884511.264 2      1322.729          40.000                                                                  
C20  21335434.415 1 111099212.786 1     -1741.820          44.000                                                                  
R06  18282379.904 2  97558279.308 2     -2995.626          38.000                                                                  
R09  20488579.916 1 109407859.908 2      3560.081          43.000    20488563.996 1  85094947.862 2      2768.960          42.000  
R23  21276223.027 8 113813437.122 6     -3878.830          29.000                                                                  
R15  18512640.025 1  98925923.051 2     -3417.551          38.000    18512624.943 1  76942330.761 2     -2657.751          40.000  
R24  19613022.242 1 104879649.417 2     -1044.857          41.000    19613012.150 4  81572997.036 7      -811.900          30.000  
R17  19961998.969 2 106820675.613 2      2735.800          37.000    19961985.850 1  83082703.656 1      2127.940          42.000  
G19  22476900.962 2 118116982.205 4      3509.349          34.000                                                                  
G21  22375403.940 2 117583546.551 7       499.686          29.000                                                                  
G23  20626637.927 1 108393711.217 1      -881.139          43.000    20626629.439 1  84462577.731 2      -686.750          41.000  
G24  20117304.940 1 105717149.820 1      2761.524          43.000    20117298.936 1  82376982.346 2      2151.870          42.000  
S23  37695909.346 1 198093333.120 2      -404.908          40.000  
C23  20353844.246 1 105987813.995 1     -1832.991          41.000                                                                  
C25  23902059.757 1 124464296.366 2     -3656.153          41.000                                                                  
R08  21733102.693 1 116379764.281 2      3873.664          41.000    21733084.819 2  90517540.773 4      3013.007          35.000  
R07  18388487.454 1  98434990.973 1      1356.326          44.000    18388474.391 1  76560519.823 1      1054.985          43.000  
G01  22567379.109 8 118592354.39228      2580.106          27.000    22567354.943 9               9      2008.958          25.000  
E03  22238354.903 1 116863342.576 1        29.515          44.000    22238359.738 1  89544659.026 1        22.776          47.000  
E05  23010152.198 1 120919158.250 2     -2824.145          38.000    23010157.143 1  92652368.023 1     -2163.947          45.000  
E08  23315668.122 1 122524644.554 2      2381.127          40.000    23315671.705 1  93882546.996 1      1824.638          45.000  
E33  25247973.377 2 132678957.506 6      1677.561          31.000    25247965.911 1 101663091.839 3      1285.431          37.000  
E24  21783768.327 1 114474476.370 1      -631.255          44.000    21783771.077 1  87714219.970 1      -483.495          48.000  
E25  23414413.389 1 123043580.724 2      2172.028          41.000    23414420.119 1  94280166.382 1      1664.479          43.000  
E26  24939326.715 1 131057018.228 2      -740.091          39.000    24939324.603 2               9      -567.664          27.000  
E31  23986636.185 1 126050610.158 3     -2966.715          37.000    23986640.405 1  96584259.505 2     -2273.448          38.000  
G08  23332492.182 1 122613057.684 2     -3807.910          40.000    23332475.325 2  95542530.407 4     -2967.631          34.000  
G28  18723505.405 1  98392682.490 1      -335.632          43.000                                                                  
> 2021 12 15 13 51 27.9930000  0 38                     
G30  21732573.290 9 114205500.00225     -3851.617          34.000    21732552.803 1  88991171.285 2     -3000.995          40.000  
G10  21691547.247 1 113989843.281 2      1389.648          41.000    21691541.898 1  88823233.602 3      1083.014          38.000  
G13  19167162.833 1 100724114.758 2     -2877.797          41.000                                                                  
G14  18925943.077 1  99456500.149 1     -1672.807          44.000    18925935.609 1  77498543.809 1     -1303.468          43.000  
G15  18805887.438 1  98825605.134 1     -1568.573          45.000    18805880.040 1  77006932.301 1     -1222.424          42.000  
G17  20800717.171 8               9      2199.550          27.000    20800714.981 1  85175450.083 2      1714.215          39.000  
C07  36200674.836 1 188506406.225 4     -1226.039          35.000    36200662.491 1 145765067.280 2      -948.254          39.000  
C10  35506470.593 1 184891497.495 5      -788.989          32.000    35506465.350 1 142969816.928 2      -610.264          40.000  
C11  22444270.667 1 116873220.440 2      1225.265          41.000    22444262.910 1  90373746.101 1       947.356          45.000  
C12  23030963.044 1 119928267.353 2     -1711.417          38.000    23030956.541 1  92736116.528 2     -1323.408          41.000  
C19  21870069.298 1 113883189.033 2      1321.997          40.000                                                                  
C20  21335768.961 1 111100955.357 1     -1742.902          44.000                                                                  
R06  18282941.336 2  97561275.525 2     -2996.407          38.000                                                                  
R09  20487913.301 1 109404300.001 2      3559.923          42.000    20487897.317 1  85092179.072 2      2768.542          41.000  
R23  21276949.120 8 113817315.947 8     -3879.554          28.000                                                                  
R15  18513279.564 1  98929340.946 2     -3417.968          38.000    18513264.607 1  76944989.142 2     -2658.657          40.000  
R24  19613217.825 1 104880694.813 2     -1045.781          41.000    19613207.499 4  81573810.098 8      -812.999          31.000  
R17  19961487.757 2 106817940.119 3      2735.249          37.000    19961474.540 1  83080576.026 1      2127.570          42.000  
G19  22476233.223 1 118113473.450 4      3508.278          34.000                                                                  
G21  22375308.841 2 117583047.212 7       499.246          28.000                                                                  
G23  20626805.762 1 108394593.069 1      -881.983          43.000    20626797.228 1  84463264.887 2      -687.301          41.000  
G24  20116779.501 1 105714388.676 1      2761.138          43.000    20116773.529 1  82374830.825 2      2151.385          43.000  
S23  37695986.452 1 198093738.284 2      -404.977          40.000  
C23  20354196.335 1 105989647.588 1     -1833.728          42.000                                                                  
C25  23902762.109 1 124467953.064 2     -3656.790          41.000                                                                  
R08  21732379.384 1 116375890.689 2      3873.743          41.000    21732361.555 2  90514528.021 4      3012.500          34.000  
R07  18388234.135 1  98433635.234 1      1355.469          44.000    18388221.098 1  76559465.374 1      1054.212          43.000  
G01  22566891.639 8 118589774.89627      2579.302          28.000    22566861.471 9               9      2009.209          24.000  
E03  22238349.118 1 116863313.440 1        28.890          44.000    22238354.203 1  89544636.709 1        22.087          46.000  
E05  23010689.803 1 120921982.686 2     -2824.605          38.000    23010694.631 1  92654532.196 1     -2164.318          45.000  
E08  23315215.201 1 122522263.731 2      2380.802          41.000    23315218.745 1  93880722.732 1      1824.268          44.000  
E33  25247655.016 2 132677280.273 7      1676.621          30.000    25247647.033 1 101661806.696 3      1285.159          37.000  
E24  21783888.419 1 114475108.020 1      -631.763          44.000    21783891.311 1  87714703.967 1      -484.025          47.000  
E25  23413999.828 1 123041409.011 2      2171.729          40.000    23414006.712 1  94278502.344 1      1664.112          43.000  
E26  24939467.719 1 131057758.837 2      -740.641          39.000    24939468.384 4               9      -567.808          24.000  
E31  23987201.031 1 126053577.164 3     -2966.897          38.000    23987204.902 1  96586532.911 2     -2273.558          38.000  
G08  23333216.770 1 122616865.951 2     -3808.177          40.000    23333200.636 2  95545497.920 4     -2967.954          34.000  
G28  18723569.329 1  98393018.574 1      -336.237          43.000                                                                  
> 2021 12 15 13 51 28.9930000  0 38                     
G30  21733301.631 8 114209351.88525     -3852.747          33.000    21733285.735 1  88994172.756 2     -3001.801          40.000  
G10  21691282.957 1 113988454.533 2      1388.293          41.000    21691277.645 1  88822151.491 2      1081.622          38.000  
G13  19167710.543 1 100726993.358 2     -2879.242          41.000                                                                  
G14  18926261.591 1  99458173.725 1     -1674.270          45.000    18926253.973 1  77499847.888 1     -1304.663          44.000  
G15  18806186.196 1  98827174.502 1     -1569.995          45.000    18806178.845 1  77008155.184 1     -1223.419          42.000  
C07  36200910.365 1 188507632.936 4     -1227.258          35.000    36200898.101 1 145766015.869 2      -949.062          38.000  
C10  35506622.285 1 184892287.391 5      -790.579          33.000    35506617.047 1 142970427.740 2      -611.210          40.000  
C11  22444035.554 1 116871995.862 2      1223.817          41.000    22444027.836 1  90372799.183 1       946.455          45.000  
C12  23031291.877 1 119929979.695 2     -1712.656          38.000    23031285.376 1  92737440.628 2     -1324.514          41.000  
C19  21869815.462 1 113881867.695 2      1320.782          40.000                                                                  
C20  21336103.760 1 111102698.827 1     -1744.016          44.000                                                                  
R06  18283503.149 2  97564272.940 2     -2998.446          38.000                                                                  
R09  20487246.801 1 109400740.741 2      3558.802          42.000    20487230.756 1  85089410.752 2      2767.693          41.000  
R23  21277673.995 8               9     -3881.716          29.000                                                                  
R15  18513919.230 1  98932759.639 2     -3419.240          40.000    18513904.529 1  76947648.116 2     -2659.402          40.000  
R24  19613413.720 1 104881741.517 2     -1047.488          40.000    19613403.085 4  81574624.252 6      -814.742          32.000  
R17  19960976.765 2 106815205.665 2      2733.770          39.000    19960963.539 1  83078449.230 2      2126.480          42.000  
G19  22475565.632 1 118109965.099 4      3507.770          34.000                                                                  
G21  22375214.026 2 117582548.958 7       497.750          28.000                                                                  
G23  20626973.783 1 108395476.016 1      -883.542          43.000    20626965.173 1  84463952.890 2      -688.176          41.000  
G24  20116254.188 1 105711628.290 2      2759.696          43.000    20116248.196 1  82372679.867 2      2150.445          42.000  
S23  37696063.660 1 198094143.829 2      -406.102          40.000  
C23  20354548.571 1 105991481.981 2     -1834.723          42.000                                                                  
C25  23903464.408 1 124471610.210 2     -3657.582          41.000                                                                  
R08  21731656.171 1 116372017.736 2      3872.540          41.000    21731638.402 2  90511515.666 4      3012.293          34.000  
R07  18387981.134 1  98432280.767 1      1353.731          45.000    18387968.097 1  76558411.890 1      1052.921          43.000  
G01  22566403.606 8 118587196.13726      2578.432          29.000    22566369.128 8               9      2009.436          24.000  
E03  22238343.900 1 116863285.155 1        27.811          44.000    22238348.825 1  89544615.038 1        21.358          47.000  
E05  23011227.474 1 120924807.801 2     -2825.518          38.000    23011232.251 1  92656696.888 1     -2164.918          46.000  
E08  23314762.436 1 122519883.493 2      2379.743          42.000    23314765.720 1  93878898.913 1      1823.545          45.000  
E33  25247336.166 2 132675603.786 6      1676.438          30.000    25247328.127 1 101660522.149 2      1284.145          38.000  
E24  21784008.782 1 114475740.461 1      -632.827          43.000    21784011.577 1  87715188.573 1      -484.890          48.000  
E25  23413586.937 1 123039237.920 2      2171.100          40.000    23413593.301 1  94276838.806 1      1663.307          43.000  
E26  24939609.002 1 131058500.395 3      -742.006          38.000    24939611.229 8               9      -567.889          25.000  
E31  23987765.858 1 126056544.753 2     -2968.038          38.000    23987769.414 1  96588806.781 2     -2274.075          38.000  
G08  23333941.519 1 122620674.923 2     -3809.559          39.000    23333926.112 2  95548465.877 4     -2967.722          35.000  
G28  18723633.469 1  98393355.642 1      -337.653          43.000                                                                  
G17                                                                  20800296.485 1  85173736.399 2      1713.400          39.000  
> 2021 12 15 13 51 29.9930000  0 38                     
G30  21734028.526 4 114213204.26925     -3852.618          35.000    21734018.830 1  88997174.606 3     -3001.740          40.000  
G10  21691018.868 1 113987066.767 2      1387.262          43.000    21691013.660 1  88821070.112 3      1080.920          39.000  
G13  19168258.512 1 100729872.786 2     -2879.808          42.000                                                                  
G14  18926580.186 1  99459848.178 1     -1674.695          44.000    18926572.585 1  77501152.682 1     -1305.072          43.000  
G15  18806485.011 1  98828744.903 1     -1570.758          46.000    18806477.743 1  77009378.863 2     -1224.066          42.000  
G17  20799879.998 9               9      2197.313          26.000    20799878.244 1  85172023.372 2      1712.640          40.000  
C07  36201146.025 1 188508860.146 4     -1227.407          34.000    36201133.845 1 145766964.809 3      -949.371          38.000  
C10  35506774.140 1 184893077.758 4      -790.697          33.000    35506768.856 1 142971038.896 2      -611.178          40.000  
C11  22443800.586 1 116870772.139 2      1223.127          40.000    22443792.822 1  90371852.929 1       945.746          44.000  
C12  23031621.039 1 119931692.933 2     -1713.739          39.000    23031614.373 1  92738765.408 1     -1324.784          42.000  
C19  21869561.872 1 113880547.158 2      1320.074          40.000                                                                  
C20  21336438.774 1 111104443.228 1     -1744.895          46.000                                                                  
R06  18284065.020 2  97567271.457 3     -2998.956          38.000                                                                  
R09  20486580.358 1 109397182.029 2      3558.556          41.000    20486564.291 1  85086642.879 2      2767.833          41.000  
R23  21278402.664 8 113825105.86636     -3881.025          33.000                                                                  
R15  18514559.157 1  98936179.084 3     -3420.224          38.000    18514544.396 1  76950307.682 2     -2659.521          40.000  
R24  19613609.686 1 104882789.415 2     -1048.335          39.000    19613599.026 4  81575439.307 6      -816.348          31.000  
R17  19960465.920 2 106812472.171 4      2733.271          37.000    19960452.631 1  83076323.235 2      2125.289          41.000  
G19  22474898.151 2 118106457.226 4      3508.684          34.000                                                                  
G21  22375119.499 2 117582051.426 5       498.143          34.000                                                                  
G23  20627141.967 1 108396360.021 1      -884.366          43.000    20627133.457 1  84464641.724 2      -689.294          41.000  
G24  20115729.089 1 105708868.563 1      2759.280          43.000    20115722.969 1  82370529.406 1      2150.291          42.000  
S23  37696140.936 1 198094549.716 2      -406.100          39.000  
C23  20354900.921 1 105993317.083 2     -1835.285          41.000                                                                  
C25  23904166.895 1 124475267.758 2     -3657.809          41.000                                                                  
R08  21730932.888 1 116368145.336 2      3872.351          42.000    21730915.322 2  90508503.801 4      3011.438          34.000  
R07  18387728.280 1  98430927.468 1      1352.623          45.000    18387715.263 1  76557359.348 1      1052.177          43.000  
G01  22565919.668 8 118584618.20126      2578.247          28.000    22565874.680 9               9      2009.077          24.000  
E03  22238338.725 1 116863257.683 2        27.141          44.000    22238343.725 1  89544593.981 1        21.001          47.000  
E05  23011764.979 1 120927633.613 2     -2825.772          39.000    23011770.050 1  92658862.104 1     -2165.393          46.000  
E08  23314309.291 1 122517503.792 2      2379.870          41.000    23314312.772 1  93877075.533 1      1823.221          45.000  
E33  25247016.570 2 132673927.960 6      1676.220          33.000    25247009.112 1 101659238.135 3      1283.288          35.000  
E24  21784129.436 1 114476373.658 2      -633.200          45.000    21784132.083 1  87715673.763 1      -485.468          48.000  
E25  23413174.016 1 123037067.448 2      2170.396          41.000    23413180.247 1  94275175.703 1      1663.075          44.000  
E26  24939750.031 1 131059242.745 2      -742.074          37.000    24939748.748 4 100422033.50918      -567.624          27.000  
E31  23988330.549 1 126059512.866 3     -2968.264          36.000    23988334.251 1  96591081.116 2     -2274.592          38.000  
G08  23334666.364 1 122624484.502 2     -3809.847          40.000    23334651.834 2  95551434.341 4     -2968.884          36.000  
G28  18723697.727 1  98393693.635 2      -338.501          45.000                                                                  
> 2021 12 15 13 51 30.9930000  0 38                     
G30  21734762.950 4 114217057.11425     -3852.466          34.000    21734751.882 1  89000176.796 2     -3002.509          40.000  
G10  21690754.883 1 113985679.759 2      1386.157          42.000    21690749.878 1  88819989.308 2      1080.225          39.000  
G13  19168806.595 1 100732752.975 2     -2880.765          41.000                                                                  
G14  18926899.015 1  99461523.467 1     -1676.082          44.000    18926891.467 1  77502458.095 1     -1305.788          43.000  
G15  18806784.195 1  98830316.204 1     -1571.948          45.000    18806776.728 1  77010603.238 2     -1224.902          42.000  
G17  20799463.862 9 109301919.93137      2197.070          32.000    20799460.033 1  85170310.817 2      1712.166          40.000  
C07  36201381.694 2 188510087.575 5     -1227.444          31.000    36201369.662 1 145767913.954 3      -949.524          39.000  
C10  35506925.999 1 184893868.333 5      -790.694          32.000    35506920.656 1 142971650.271 2      -611.557          40.000  
C11  22443565.744 1 116869549.141 2      1222.520          40.000    22443558.034 1  90370907.213 1       945.297          44.000  
C12  23031950.162 1 119933406.916 2     -1714.782          38.000    23031943.557 1  92740090.791 1     -1325.932          42.000  
C19  21869308.393 1 113879227.392 2      1319.672          40.000                                                                  
C20  21336773.909 1 111106188.367 1     -1745.854          45.000                                                                  
R06  18284627.166 2  97570270.940 3     -2999.873          38.000                                                                  
R09  20485914.126 1 109393623.772 1      3557.887          41.000    20485897.969 1  85083875.334 2      2767.231          41.000  
R23  21279126.953 8 113828980.30024     -3882.010          34.000                                                                  
R15  18515199.122 1  98939599.139 2     -3420.780          38.000    18515184.501 1  76952967.743 2     -2660.431          41.000  
R24  19613806.015 1 104883838.515 2     -1049.989          41.000    19613794.832 4  81576255.166 6      -816.505          31.000  
R17  19959955.260 2 106809739.656 3      2731.477          38.000    19959941.884 1  83074197.914 2      2124.574          41.000  
G19  22474230.809 2 118102949.699 4      3507.693          34.000                                                                  
G21  22375025.013 2 117581554.711 5       496.769          34.000                                                                  
G23  20627310.336 1 108397244.916 2      -885.648          43.000    20627301.800 1  84465331.250 2      -690.157          41.000  
G24  20115204.006 1 105706109.349 1      2758.847          43.000    20115197.967 1  82368379.401 2      2149.668          42.000  
S23  37696218.193 1 198094955.852 2      -406.459          39.000  
C23  20355253.593 1 105995152.800 1     -1836.437          44.000                                                                  
C25  23904869.322 1 124478925.648 2     -3658.578          41.000                                                                  
R08  21730209.697 1 116364273.430 2      3871.472          42.000    21730192.061 2  90505492.291 3      3011.207          35.000  
R07  18387475.694 1  98429575.246 1      1351.376          46.000    18387462.624 1  76556307.620 1      1051.214          43.000  
G01  22565435.852 8 118582040.789 8      2576.941          27.000    22565377.222 9               9      2009.276          24.000  
E03  22238333.876 1 116863230.891 1        26.188          45.000    22238338.405 1  89544573.456 1        20.105          47.000  
E05  23012302.820 1 120930459.903 2     -2826.530          39.000    23012307.779 1  92661027.710 1     -2165.984          46.000  
E08  23313856.253 1 122515124.509 2      2378.924          41.000    23313859.935 1  93875252.422 1      1822.818          44.000  
E33  25246696.868 2 132672252.842 7      1674.805          29.000    25246690.334 1 101657954.588 4      1283.266          35.000  
E24  21784250.140 1 114477007.537 1      -634.357          45.000    21784252.698 1  87716159.425 1      -486.080          48.000  
E25  23412761.062 1 123034897.438 2      2169.576          41.000    23412767.349 1  94273512.973 1      1662.381          44.000  
E26  24939891.467 1 131059985.887 2      -744.134          38.000    24939892.649 4 100422602.921 8      -570.116          28.000  
E31  23988895.373 1 126062481.383 4     -2969.181          35.000    23988898.968 1  96593355.691 3     -2274.645          36.000  
G08  23335391.351 1 122628294.478 2     -3810.476          40.000    23335377.575 1  95554403.190 3     -2969.501          36.000  
G28  18723762.291 1  98394032.427 1      -339.557          44.000                                                                  
> 2021 12 15 13 51 31.9930000  0 38                     
G30  21735496.032 4 114220909.90515     -3852.716          33.000    21735485.146 1  89003179.379 2     -3002.729          41.000  
G10  21690491.038 1 113984293.655 2      1386.035          41.000    21690486.179 1  88818909.250 2      1079.944          39.000  
G13  19169354.892 1 100735633.968 2     -2880.988          41.000                                                                  
G14  18927217.919 1  99463199.672 1     -1676.240          44.000    18927210.490 1  77503764.235 1     -1306.261          43.000  
G15  18807083.417 1  98831888.480 1     -1572.437          45.000    18807075.824 1  77011828.400 2     -1225.433          42.000  
G17  20799046.522 8 109299722.89225      2196.757          32.000    20799041.931 1  85168598.862 2      1711.618          40.000  
C07  36201617.483 2 188511315.444 5     -1227.685          31.000    36201605.603 1 145768863.423 2      -949.575          39.000  
C10  35507077.928 2 184894659.458 5      -791.158          32.000    35507072.580 1 142972261.983 2      -611.769          40.000  
C11  22443331.148 1 116868327.014 2      1221.731          40.000    22443323.303 1  90369962.190 1       944.866          44.000  
C12  23032279.462 1 119935121.787 2     -1715.018          39.000    23032272.816 1  92741416.836 1     -1326.160          42.000  
C19  21869055.084 1 113877908.449 2      1318.958          39.000                                                                  
C20  21337109.346 1 111107934.381 1     -1746.185          45.000                                                                  
R06  18285189.542 2  97573271.529 3     -3000.680          38.000                                                                  
R09  20485247.874 1 109390066.036 1      3557.693          41.000    20485231.632 1  85081108.229 2      2767.306          41.000  
R23  21279848.816 8 113832862.68823     -3882.593          35.000                                                                  
R15  18515839.262 1  98943019.998 2     -3421.064          39.000    18515824.776 1  76955628.433 2     -2660.877          40.000  
R24  19614002.535 1 104884888.901 2     -1050.813          41.000    19613990.911 4  81577072.129 5      -817.545          32.000  
R17  19959444.795 2 106807008.074 2      2731.318          39.000    19959431.427 1  83072073.360 2      2124.271          41.000  
G19  22473563.608 1 118099442.688 3      3506.863          34.000                                                                  
G21  22374930.708 2 117581058.860 4       496.083          34.000                                                                  
G23  20627478.816 1 108398130.830 2      -886.253          42.000    20627470.447 1  84466021.579 2      -690.605          41.000  
G24  20114679.118 1 105703350.825 1      2758.416          43.000    20114672.882 1  82366229.897 2      2149.429          42.000  
S23  37696295.562 1 198095362.331 2      -406.527          40.000  
C23  20355606.410 1 105996989.278 1     -1836.594          44.000                                                                  
C25  23905571.800 1 124482583.940 2     -3658.354          41.000                                                                  
R08  21729486.734 1 116360402.132 2      3871.265          42.000    21729469.220 2  90502481.284 3      3010.895          36.000  
R07  18387223.300 1  98428224.226 1      1350.696          46.000    18387210.135 1  76555256.827 2      1050.598          43.000  
G01  22564950.265 8               9      2576.734          25.000    22564880.928 9               9      2007.313          23.000  
E03  22238328.868 1 116863204.874 1        25.894          45.000    22238333.549 1  89544553.527 1        19.796          47.000  
E05  23012840.892 1 120933286.870 2     -2827.305          39.000    23012845.881 1  92663193.822 1     -2166.241          46.000  
E08  23313403.478 1 122512745.743 2      2378.825          41.000    23313407.219 1  93873429.735 1      1822.751          44.000  
E33  25246377.557 4 132670578.497 7      1674.110          29.000    25246371.692 1 101656671.611 3      1282.609          35.000  
E24  21784370.807 1 114477642.116 1      -634.677          44.000    21784373.579 1  87716645.668 1      -486.313          48.000  
E25  23412348.231 1 123032727.978 2      2169.394          41.000    23412354.627 1  94271850.659 1      1662.317          44.000  
E26  24940033.081 1 131060729.858 2      -743.902          38.000    24940032.252 4 100423173.034 7      -570.584          28.000  
E31  23989460.534 1 126065450.460 3     -2969.369          35.000    23989463.959 1  96595630.691 3     -2274.871          36.000  
G08  23336116.420 1 122632105.080 2     -3810.775          40.000    23336103.446 1  95557372.479 3     -2969.275          37.000  
G28  18723826.970 1  98394372.090 2      -339.984          42.000                                                                  
> 2021 12 15 13 51 32.9930000  0 38                     
G30  21736230.389 4 114224763.585 5     -3854.742          33.000    21736218.393 1  89006182.191 2     -3003.412          40.000  
G10  21690227.398 1 113982908.271 2      1384.723          41.000    21690222.590 1  88817829.785 2      1078.912          38.000  
G13  19169903.231 1 100738515.654 2     -2882.287          41.000                                                                  
G14  18927537.043 1  99464876.661 1     -1677.719          44.000    18927529.624 1  77505070.952 1     -1307.290          44.000  
G15  18807382.809 1  98833461.583 1     -1573.914          45.000    18807375.181 1  77013054.212 2     -1226.587          42.000  
G17  20798626.671 8 109297526.48928      2198.182          25.000    20798624.003 1  85166887.333 2      1710.995          40.000  
C07  36201853.425 2 188512543.545 6     -1228.944          31.000    36201841.499 1 145769813.057 2      -950.037          38.000  
C10  35507229.829 2 184895450.767 5      -791.761          32.000    35507224.527 1 142972873.855 2      -612.098          40.000  
C11  22443096.526 1 116867105.561 2      1220.837          41.000    22443088.709 1  90369017.678 1       943.970          45.000  
C12  23032608.920 1 119936837.381 2     -1716.239          39.000    23032602.217 1  92742743.446 1     -1327.132          43.000  
C19  21868801.814 1 113876590.160 2      1317.371          39.000                                                                  
C20  21337444.671 1 111109681.088 1     -1747.360          45.000                                                                  
R06  18285751.973 2  97576273.038 3     -3002.215          38.000                                                                  
R09  20484581.682 1 109386508.692 2      3556.914          42.000    20484565.335 1  85078341.421 2      2766.244          41.000  
R23  21280572.662 8 113836745.27213     -3884.097          36.000                                                                  
R15  18516479.552 1  98946441.479 2     -3421.804          39.000    18516465.186 1  76958289.597 2     -2661.724          40.000  
R24  19614199.324 1 104885940.397 2     -1052.366          43.000    19614187.443 4  81577889.978 4      -818.855          34.000  
R17  19958934.378 2 106804277.249 2      2730.294          37.000    19958921.128 1  83069949.404 2      2123.361          42.000  
G19  22472896.365 1 118095935.868 3      3506.404          35.000                                                                  
G21  22374836.783 1 117580563.786 4       494.536          34.000                                                                  
G23  20627647.470 1 108399017.614 1      -887.428          43.000    20627639.126 1  84466712.568 2      -691.625          41.000  
G24  20114154.253 1 105700592.752 1      2757.591          43.000    20114148.062 1  82364080.756 2      2148.904          42.000  
S23  37696372.958 1 198095768.932 2      -407.196          40.000  
C23  20355959.226 1 105998826.292 1     -1837.541          44.000                                                                  
C25  23906274.325 1 124486242.471 2     -3659.006          41.000                                                                  
R08  21728763.841 1 116356531.244 2      3870.417          41.000    21728746.572 2  90499470.631 3      3010.468          36.000  
R07  18386971.179 1  98426874.151 1      1349.338          46.000    18386957.929 1  76554206.769 2      1049.429          42.000  
G01  22564459.925 9               9      2579.819          23.000    22564387.504 9               9      2007.160          24.000  
E03  22238324.179 1 116863179.457 1        24.870          45.000    22238328.678 1  89544534.074 1        18.999          47.000  
E05  23013379.080 1 120936114.257 2     -2827.840          39.000    23013383.892 1  92665360.282 1     -2166.908          46.000  
E08  23312951.070 1 122510367.336 2      2377.829          42.000    23312954.594 1  93871607.285 1      1822.203          44.000  
E33  25246058.389 2 132668904.630 7      1673.221          29.000    25246053.511 1 101655389.044 3      1281.870          36.000  
E24  21784491.835 1 114478277.256 1      -635.544          44.000    21784494.299 1  87717132.323 1      -487.004          48.000  
E25  23411935.508 1 123030558.892 2      2168.442          41.000    23411941.739 1  94270188.616 1      1661.864          44.000  
E26  24940174.593 1 131061474.536 2      -745.165          40.000    24940172.318 4 100423743.626 7      -570.818          29.000  
E31  23990025.316 1 126068419.840 4     -2969.708          34.000    23990028.993 1  96597905.967 3     -2275.351          36.000  
G08  23336841.608 1 122635916.113 2     -3811.659          40.000    23336829.341 1  95560342.106 2     -2970.010          39.000  
G28  18723891.764 1  98394712.478 2      -340.918          42.000                                                                  
> 2021 12 15 13 51 33.9930000  0 38                     
G30  21736962.153 8               9     -3859.876          26.000    21736951.745 1  89009185.290 2     -3003.198          42.000  
G10  21689964.023 1 113981523.695 2      1384.161          43.000    21689959.016 1  88816750.825 3      1078.265          37.000  
G13  19170451.604 1 100741397.986 2     -2882.889          42.000                                                                  
G14  18927856.384 1  99466554.355 1     -1678.078          44.000    18927848.970 1  77506378.262 1     -1307.686          45.000  
G15  18807682.334 1  98835035.551 1     -1574.329          45.000    18807674.742 1  77014280.659 2     -1227.039          42.000  
C07  36202089.254 2 188513771.833 7     -1228.296          30.000    36202077.378 1 145770762.874 3      -950.027          38.000  
C10  35507382.033 1 184896242.346 4      -791.909          35.000    35507376.557 1 142973485.974 2      -612.274          40.000  
C11  22442862.211 1 116865884.763 2      1220.182          41.000    22442854.218 1  90368073.693 1       943.599          45.000  
C12  23032938.310 1 119938553.699 2     -1716.753          39.000    23032931.914 1  92744070.597 1     -1327.393          43.000  
C19  21868548.808 1 113875272.514 2      1317.438          37.000                                                                  
C20  21337780.426 1 111111428.524 1     -1747.989          45.000                                                                  
R06  18286314.667 2  97579275.475 2     -3002.911          38.000                                                                  
R09  20483915.529 1 109382951.807 1      3556.685          41.000    20483899.235 1  85075574.944 2      2766.196          41.000  
R23  21281298.530 8 113840629.080 5     -3883.185          32.000                                                                  
R15  18517119.938 1  98949863.590 2     -3422.346          41.000    18517105.670 1  76960951.227 2     -2661.741          39.000  
R24  19614396.271 1 104886993.027 1     -1052.965          43.000    19614383.854 4  81578708.628 4      -819.159          35.000  
R17  19958424.183 2 106801547.249 2      2729.504          41.000    19958410.874 1  83067826.058 2      2122.931          41.000  
G19  22472228.787 1 118092429.347 4      3506.213          31.000                                                                  
G21  22374742.970 2 117580069.410 5       493.572          33.000                                                                  
G23  20627816.266 1 108399905.221 1      -888.168          45.000    20627808.056 1  84467404.234 2      -692.086          41.000  
G24  20113629.529 1 105697835.212 1      2757.417          43.000    20113623.316 1  82361932.037 2      2148.475          42.000  
S23  37696450.357 1 198096175.722 2      -406.797          40.000  
C23  20356312.291 1 106000663.904 1     -1837.928          44.000                                                                  
C25  23906977.090 1 124489901.236 2     -3658.809          39.000                                                                  
R08  21728040.966 1 116352660.794 2      3869.922          41.000    21728023.979 2  90496460.253 3      3009.437          33.000  
R07  18386719.134 1  98425525.073 1      1348.466          46.000    18386706.024 1  76553157.468 1      1048.951          42.000  
G01  22563973.804 9               9      2578.699          24.000    22563894.136 9               9      2007.013          25.000  
E03  22238319.560 1 116863154.689 1        24.462          45.000    22238323.890 1  89544515.095 1        18.567          47.000  
E05  23013917.179 1 120938942.111 2     -2827.766          39.000    23013921.878 1  92667527.104 1     -2167.029          46.000  
E08  23312498.353 1 122507989.262 2      2377.794          40.000    23312502.313 1  93869785.180 1      1821.847          44.000  
E33  25245739.586 4 132667231.387 8      1672.321          29.000    25245735.232 1 101654106.916 3      1282.151          36.000  
E24  21784612.809 1 114478912.967 1      -636.186          44.000    21784615.391 1  87717619.435 1      -487.353          47.000  
E25  23411522.776 1 123028390.255 2      2168.574          42.000    23411529.033 1  94268526.946 1      1661.354          42.000  
E26  24940316.396 1 131062219.912 2      -745.990          40.000    24940314.907 4 100424314.826 7      -571.141          30.000  
E31  23990590.250 1 126071389.646 3     -2970.197          37.000    23990594.129 1  96600181.497 3     -2275.807          35.000  
G08  23337566.803 1 122639727.591 2     -3812.035          40.000    23337555.378 1  95563312.058 2     -2970.104          38.000  
G28  18723956.558 1  98395053.631 2      -341.644          42.000                                                                  
G17                                                                  20798206.160 1  85165176.260 2      1710.792          38.000  
> 2021 12 15 13 51 34.9930000  0 38                     
G10  21689700.751 1 113980139.870 2      1383.051          43.000    21689695.758 1  88815672.510 2      1077.704          39.000  
G13  19171000.282 1 100744281.049 1     -2883.652          43.000                                                                  
G14  18928175.772 1  99468232.863 1     -1679.159          44.000    18928168.294 1  77507686.173 1     -1308.090          45.000  
G15  18807982.047 1  98836610.389 1     -1575.702          45.000    18807974.408 1  77015507.800 2     -1227.698          41.000  
C07  36202325.266 2 188515000.447 5     -1229.372          33.000    36202313.300 1 145771712.892 3      -950.016          37.000  
C10  35507534.045 1 184897034.246 3      -792.340          35.000    35507528.673 1 142974098.310 2      -612.531          41.000  
C11  22442627.853 1 116864664.710 2      1219.574          40.000    22442619.935 1  90367130.280 1       943.070          45.000  
C12  23033268.004 1 119940270.761 2     -1717.480          40.000    23033261.583 1  92745398.346 1     -1328.079          43.000  
C19  21868295.911 1 113873955.538 2      1316.321          41.000                                                                  
C20  21338116.290 1 111113176.666 1     -1748.572          45.000                                                                  
R06  18286877.405 2  97582278.847 3     -3003.984          38.000                                                                  
R09  20483249.531 1 109379395.235 2      3556.077          41.000    20483233.279 1  85072808.758 2      2765.910          40.000  
R23  21282023.977 8 113844513.685 6     -3885.425          31.000                                                                  
R15  18517760.322 1  98953286.308 2     -3423.067          40.000    18517746.265 1  76963613.382 2     -2662.717          39.000  
R24  19614593.294 1 104888046.780 1     -1054.281          42.000    19614580.408 4  81579528.249 4      -820.713          34.000  
R17  19957914.176 1 106798818.102 2      2728.605          42.000    19957900.875 1  83065703.379 2      2122.130          41.000  
G19  22471561.454 2 118088923.095 5      3506.375          32.000                                                                  
G21  22374649.051 2 117579575.693 5       492.587          32.000                                                                  
G23  20627985.173 1 108400793.746 1      -888.943          44.000    20627977.096 1  84468096.596 2      -692.757          40.000  
G24  20113104.888 1 105695078.181 1      2756.705          43.000    20113098.596 1  82359783.700 2      2148.041          42.000  
S23  37696527.843 1 198096582.691 2      -407.043          40.000  
C23  20356665.376 1 106002502.088 1     -1838.595          43.000                                                                  
C25  23907679.747 1 124493560.324 2     -3659.360          40.000                                                                  
R08  21727318.103 1 116348790.804 2      3869.922          40.000    21727301.382 2  90493450.307 3      3009.925          36.000  
R07  18386467.330 1  98424176.987 1      1347.619          45.000    18386454.219 1  76552108.987 1      1047.898          42.000  
E03  22238314.906 1 116863130.569 1        23.730          45.000    22238319.350 1  89544496.600 1        18.152          47.000  
E05  23014455.382 1 120941770.517 2     -2828.804          39.000    23014460.198 1  92669694.304 1     -2167.546          46.000  
E08  23312045.791 1 122505611.602 2      2377.369          41.000    23312049.879 1  93867963.294 1      1821.691          45.000  
E33  25245420.695 2 132665558.610 7      1672.652          29.000    25245416.950 1 101652825.185 3      1281.704          36.000  
E24  21784733.613 1 114479549.266 1      -636.523          44.000    21784736.436 1  87718107.012 1      -487.857          47.000  
E25  23411110.253 1 123026222.014 2      2167.963          41.000    23411116.184 1  94266865.555 2      1661.077          43.000  
E26  24940458.227 1 131062966.004 2      -746.661          39.000    24940457.335 2 100424886.497 5      -571.565          33.000  
E31  23991155.277 1 126074359.801 3     -2970.446          38.000    23991159.205 1  96602457.322 3     -2275.702          36.000  
G08  23338292.274 1 122643539.494 2     -3812.179          40.000    23338281.431 1  95566282.390 2     -2970.629          39.000  
G28  18724021.636 1  98395395.551 2      -342.578          42.000                                                                  
G01                                                                  22563398.088 9               9      2003.651          25.000  
G17                                                                  20797788.462 1  85163465.677 2      1710.492          38.000  
G30                                                                  21737685.159 1  89012188.687 2     -3003.625          41.000  
> 2021 12 15 13 51 35.9930000  0 38                     
G10  21689437.615 1 113978756.958 1      1382.190          43.000    21689432.568 1  88814594.900 3      1077.155          38.000  
G13  19171549.051 1 100747164.920 1     -2884.453          43.000                                                                  
G14  18928495.430 1  99469912.232 1     -1679.926          44.000    18928487.803 1  77508994.784 1     -1308.938          45.000  
G15  18808281.890 1  98838186.204 1     -1576.416          45.000    18808274.270 1  77016735.710 2     -1228.381          41.000  
C07  36202561.197 2 188516229.457 5     -1229.656          33.000    36202549.416 1 145772663.259 2      -950.725          38.000  
C10  35507686.201 1 184897826.482 3      -792.047          35.000    35507680.848 1 142974710.949 2      -613.077          41.000  
C11  22442393.742 1 116863445.466 2      1218.702          40.000    22442385.828 1  90366187.478 1       942.316          45.000  
C12  23033598.003 1 119941988.660 2     -1718.411          40.000    23033591.538 1  92746726.744 1     -1328.589          43.000  
C19  21868043.070 1 113872639.391 2      1315.430          40.000                                                                  
C20  21338452.220 1 111114925.703 1     -1749.576          46.000                                                                  
R06  18287440.432 2  97585283.300 3     -3005.104          38.000                                                                  
R09  20482583.604 1 109375839.270 2      3555.573          41.000    20482567.388 1  85070043.008 2      2765.422          40.000  
R23  21282749.384 4 113848399.071 5     -3886.514          32.000                                                                  
R15  18518400.860 1  98956709.787 2     -3424.044          41.000    18518386.884 1  76966276.056 2     -2662.977          39.000  
R24  19614790.592 1 104889101.758 1     -1055.726          42.000    19614777.157 4  81580348.732 4      -820.835          33.000  
R17  19957404.422 1 106796089.921 2      2727.530          42.000    19957391.059 1  83063581.449 1      2121.493          42.000  
G19  22470894.406 2 118085417.269 5      3505.691          32.000                                                                  
G21  22374555.239 2 117579082.746 6       493.646          31.000                                                                  
G23  20628154.381 1 108401683.278 1      -890.052          44.000    20628146.257 1  84468789.725 2      -693.441          39.000  
G24  20112580.343 1 105692321.796 1      2755.853          43.000    20112573.949 1  82357635.848 2      2147.538          42.000  
S23  37696605.337 1 198096989.984 2      -407.563          40.000  
C23  20357018.585 1 106004340.959 1     -1839.312          43.000                                                                  
C25  23908382.407 1 124497219.745 2     -3659.619          40.000                                                                  
R08  21726595.448 1 116344921.363 2      3869.202          40.000    21726578.960 2  90490440.731 3      3009.491          36.000  
R07  18386215.761 1  98422830.044 1      1346.162          46.000    18386202.584 1  76551061.348 1      1047.061          43.000  
E03  22238310.542 1 116863107.211 1        22.997          45.000    22238314.988 1  89544478.711 1        17.644          47.000  
E05  23014993.950 1 120944599.535 2     -2829.188          40.000    23014998.488 1  92671861.987 1     -2168.003          46.000  
E08  23311593.583 1 122503234.424 2      2377.031          41.000    23311597.434 1  93866141.833 1      1821.367          44.000  
E33  25245102.149 2 132663886.587 7      1671.292          28.000    25245098.754 1 101651544.010 3      1280.869          37.000  
E24  21784854.816 1 114480186.299 1      -637.291          44.000    21784857.641 1  87718595.121 1      -488.360          47.000  
E25  23410697.803 1 123024054.325 2      2167.505          42.000    23410703.533 1  94265204.608 1      1660.785          43.000  
E26  24940600.351 1 131063712.901 2      -747.626          39.000    24940600.059 2 100425458.808 5      -572.366          33.000  
E31  23991720.532 1 126077330.450 2     -2970.959          39.000    23991724.378 1  96604733.549 3     -2276.194          36.000  
G08  23339017.759 1 122647351.959 2     -3813.040          39.000    23339007.531 1  95569253.131 2     -2970.873          39.000  
G28  18724086.869 1  98395738.331 2      -343.225          42.000                                                                  
G01                                                                  22562902.923 9               9      2002.678          25.000  
G17                                                                  20797370.887 1  85161755.680 2      1709.501          39.000  
G30                                                                  21738418.642 1  89015192.456 2     -3004.150          42.000  
> 2021 12 15 13 51 36.9930000  0 38                     
G10  21689174.671 1 113977374.685 1      1381.921          43.000    21689169.571 1  88813517.833 3      1076.648          37.000  
G13  19172097.883 1 100750049.383 1     -2884.827          43.000                                                                  
G14  18928815.160 1  99471592.311 1     -1680.334          44.000    18928807.457 1  77510303.935 1     -1309.452          45.000  
G15  18808581.941 1  98839762.802 1     -1576.929          45.000    18808574.213 1  77017964.240 2     -1229.181          41.000  
C07  36202797.172 2 188517458.678 5     -1229.442          33.000    36202785.503 1 145773613.756 2      -950.898          38.000  
C10  35507838.410 1 184898618.983 3      -792.583          35.000    35507833.037 1 142975323.736 2      -612.823          41.000  
C11  22442159.701 1 116862226.852 2      1218.268          41.000    22442151.800 1  90365245.177 1       941.913          45.000  
C12  23033928.070 1 119943707.229 2     -1718.753          40.000    23033921.574 1  92748055.652 2     -1329.066          42.000  
C19  21867790.447 1 113871323.863 2      1315.326          40.000                                                                  
C20  21338788.298 1 111116675.391 1     -1750.056          46.000                                                                  
R06  18288003.784 2  97588288.623 2     -3005.570          38.000                                                                  
R09  20481917.706 1 109372283.604 2      3555.580          40.000    20481901.545 1  85067277.485 2      2765.557          41.000  
R23  21283475.954 4 113852285.106 5     -3885.798          33.000                                                                  
R15  18519041.582 1  98960133.803 2     -3423.910          40.000    18519027.598 1  76968939.186 2     -2663.527          39.000  
R24  19614988.027 1 104890157.709 2     -1056.463          42.000    19614974.270 4  81581170.080 4      -822.314          33.000  
R17  19956894.842 1 106793362.498 1      2726.973          42.000    19956881.330 1  83061460.110 2      2121.186          41.000  
G19  22470227.267 4 118081911.691 6      3505.182          31.000                                                                  
G21  22374461.488 2 117578590.647 6       491.707          31.000                                                                  
G23  20628323.810 1 108402573.608 1      -890.765          44.000    20628315.726 1  84469483.482 2      -693.822          40.000  
G24  20112055.882 1 105689565.838 1      2755.529          43.000    20112049.482 1  82355488.353 1      2147.160          43.000  
S23  37696682.876 1 198097397.339 2      -407.472          40.000  
C23  20357371.860 1 106006180.349 1     -1839.794          43.000                                                                  
C25  23909085.154 1 124500879.391 2     -3659.850          40.000                                                                  
R08  21725872.960 1 116341052.232 2      3869.019          40.000    21725856.569 2  90487431.406 4      3009.552          35.000  
R07  18385964.366 1  98421484.062 1      1345.451          46.000    18385951.109 1  76550014.478 1      1046.458          43.000  
E03  22238306.019 1 116863084.435 1        22.479          44.000    22238310.588 1  89544461.255 1        17.125          47.000  
E05  23015532.226 1 120947428.972 2     -2830.031          40.000    23015536.912 1  92674029.989 1     -2168.217          46.000  
E08  23311141.155 1 122500857.585 2      2376.342          41.000    23311145.122 1  93864320.628 1      1820.981          44.000  
E33  25244783.210 2 132662215.005 7      1671.133          29.000    25244780.787 1 101650263.216 3      1280.331          37.000  
E24  21784976.179 1 114480823.874 1      -637.866          44.000    21784978.943 1  87719083.647 1      -488.739          47.000  
E25  23410285.530 1 123021886.979 1      2167.124          42.000    23410291.105 1  94263543.929 1      1660.423          43.000  
E26  24940742.482 1 131064460.424 2      -747.800          39.000    24940742.941 2 100426031.574 4      -572.903          33.000  
E31  23992285.976 1 126080301.437 2     -2971.246          39.000    23992289.675 1  96607009.997 3     -2276.479          36.000  
G08  23339743.283 1 122651164.823 2     -3812.969          39.000    23339733.722 1  95572224.173 2     -2971.215          39.000  
G28  18724152.203 1  98396081.802 1      -343.842          42.000                                                                  
G01                                                                  22562407.750 9               9      2006.691          25.000  
G17                                                                  20796953.339 1  85160046.073 2      1709.426          39.000  
G30                                                                  21739152.360 1  89018196.447 2     -3004.199          42.000  
> 2021 12 15 13 51 37.9930000  0 38                     
G10  21688911.817 1 113975993.261 2      1381.232          43.000    21688906.697 1  88812441.371 2      1076.215          37.000  
G13  19172646.974 1 100752934.617 1     -2885.673          43.000                                                                  
G14  18929135.056 1  99473273.204 1     -1681.108          44.000    18929127.342 1  77511613.727 1     -1310.147          45.000  
G15  18808882.172 1  98841340.299 1     -1577.649          45.000    18808874.348 1  77019193.452 2     -1229.291          41.000  
C07  36203033.229 2 188518688.201 5     -1229.475          33.000    36203021.654 1 145774564.498 2      -951.067          38.000  
C10  35507990.678 1 184899411.813 4      -793.056          35.000    35507985.311 1 142975936.797 2      -613.111          41.000  
C11  22441925.768 1 116861009.018 2      1217.310          40.000    22441917.884 1  90364303.439 1       941.594          46.000  
C12  23034258.252 1 119945426.585 2     -1719.464          40.000    23034251.745 1  92749385.179 2     -1329.564          42.000  
C19  21867537.806 1 113870009.077 2      1314.166          40.000                                                                  
C20  21339124.567 1 111118425.867 1     -1750.800          46.000                                                                  
R06  18288567.276 2  97591294.932 3     -3006.499          38.000                                                                  
R09  20481251.867 1 109368728.434 2      3554.860          40.000    20481235.793 1  85064512.341 2      2765.044          41.000  
R23  21284202.718 4 113856172.029 5     -3886.681          33.000                                                                  
R15  18519682.287 1  98963558.516 2     -3424.956          40.000    18519668.455 1  76971602.827 2     -2663.794          39.000  
R24  19615185.627 1 104891214.804 2     -1057.430          42.000    19615171.678 2  81581992.232 4      -822.638          33.000  
R17  19956385.396 1 106790635.938 1      2726.031          43.000    19956371.795 1  83059339.438 2      2120.648          42.000  
G19  22469560.074 2 118078406.469 5      3504.225          31.000                                                                  
G21  22374367.945 4 117578099.270 6       490.330          31.000                                                                  
G23  20628493.524 1 108403464.860 1      -891.603          44.000    20628485.316 1  84470177.963 2      -694.637          39.000  
G24  20111531.502 1 105686810.421 1      2755.167          43.000    20111525.076 1  82353341.294 1      2146.953          42.000  
S23  37696760.518 1 198097804.964 2      -407.597          40.000  
C23  20357725.227 1 106008020.358 1     -1840.247          43.000                                                                  
C25  23909787.932 1 124504539.333 2     -3659.829          40.000                                                                  
R08  21725150.405 1 116337183.541 2      3868.659          40.000    21725134.118 2  90484422.426 4      3008.954          35.000  
R07  18385713.116 1  98420139.166 1      1344.446          46.000    18385699.877 1  76548968.437 1      1045.782          42.000  
E03  22238301.952 1 116863062.335 1        21.964          44.000    22238306.348 1  89544444.330 1        16.703          47.000  
E05  23016070.646 1 120950258.925 2     -2830.181          40.000    23016075.399 1  92676198.396 1     -2168.503          46.000  
E08  23310688.631 1 122498481.141 2      2376.388          41.000    23310692.998 1  93862499.717 1      1820.904          44.000  
E33  25244464.644 2 132660544.041 5      1671.291          31.000    25244462.934 1 101648982.885 3      1279.906          37.000  
E24  21785097.619 1 114481462.089 1      -638.618          44.000    21785100.457 1  87719572.649 1      -489.111          48.000  
E25  23409873.228 1 123019720.120 1      2166.751          42.000    23409878.872 1  94261883.597 1      1660.107          44.000  
E26  24940884.666 1 131065208.725 2      -748.603          39.000    24940885.227 1 100426604.963 4      -573.774          33.000  
E31  23992851.378 1 126083272.839 2     -2971.740          39.000    23992855.031 1  96609286.794 3     -2276.741          37.000  
G08  23340469.021 1 122654978.189 2     -3813.547          39.000    23340459.820 1  95575195.619 2     -2971.470          40.000  
G28  18724217.739 1  98396426.073 2      -344.427          42.000                                                                  
G01                                                                  22561914.228 9               9      2004.522          24.000  
G17                                                                  20796535.960 1  85158336.988 2      1708.625          39.000  
G30                                                                  21739885.981 1  89021200.754 2     -3004.333          42.000  
